{
  "type": "FeatureCollection",
  "source": "IBGE CNEFE + Faces de Logradouros - 2022",
  "generator": "CSV-CNEFE2GeoJSON.lua 1.5.7 - fidelis.assis@gmail.com",
  "date": "2025-02-02T08:38:31-0300",
  "features": [
    {
      "type": "Feature",
      "properties": { 
      "IBGE:COD_UNICO_ENDERECO": "109861669",
      "addr:housenumber": "112",
      "addr:postcode": "45140-000",
      "addr:street": "Rua Senador Lomanto Júnior",
      "addr:suburb": "Durvalina Andrade",
      "building": "yes"
      },
      "geometry": {
         "type": "Point",
         "coordinates": [-40.6276928,-15.2386316]
      }
    },
    {
      "type": "Feature",
      "properties": { 
      "IBGE:COD_UNICO_ENDERECO": "26016026",
      "addr:housenumber": "434",
      "addr:postcode": "45140-000",
      "addr:street": "Rua Noil Lima",
      "addr:suburb": "Centro",
      "building": "yes"
      },
      "geometry": {
         "type": "Point",
         "coordinates": [-40.6203398,-15.2414216]
      }
    },
    {
      "type": "Feature",
      "properties": { 
      "IBGE:COD_UNICO_ENDERECO": "26014527",
      "addr:housenumber": "270",
      "addr:postcode": "45140-000",
      "addr:street": "Rua José Leandro",
      "addr:suburb": "Bela Vista",
      "building": "yes"
      },
      "geometry": {
         "type": "Point",
         "coordinates": [-40.6251569,-15.2434228]
      }
    },
    {
      "type": "Feature",
      "properties": { 
      "IBGE:COD_UNICO_ENDERECO": "26016913",
      "addr:housenumber": "4",
      "addr:postcode": "45140-000",
      "addr:street": "Pedra Pedra",
      "addr:suburb": "Pedra",
      "addr:unit": "Casa",
      "building": "yes",
      "fixme": "Verificar coordenadas",
      "note": "Sem setor ou quadra no bayface do IBGE 0500-0047P-0-5"
      },
      "geometry": {
         "type": "Point",
         "coordinates": [-40.547289,-15.063079]
      }
    },
    {
      "type": "Feature",
      "properties": { 
      "IBGE:COD_UNICO_ENDERECO": "112237298",
      "addr:housenumber": "25",
      "addr:postcode": "45140-000",
      "addr:street": "Estrada do Café Palheta",
      "addr:suburb": "Café Palheta",
      "building": "yes",
      "fixme": "Verificar coordenadas",
      "note": "Sem setor ou quadra no bayface do IBGE 0500-0019P-0-50"
      },
      "geometry": {
         "type": "Point",
         "coordinates": [-40.842218,-15.2629]
      }
    },
    {
      "type": "Feature",
      "properties": { 
      "IBGE:COD_UNICO_ENDERECO": "26017260",
      "addr:housenumber": "4",
      "addr:postcode": "45140-000",
      "addr:street": "Fazenda Ponta do Vale",
      "addr:suburb": "Amaralina",
      "building": "yes",
      "fixme": "Verificar coordenadas",
      "name": "Fazenda Ponta do Vale",
      "note": "Sem setor ou quadra no bayface do IBGE 0500-0019P-0-53",
      "place": "farm"
      },
      "geometry": {
         "type": "Point",
         "coordinates": [-40.834602,-15.251944]
      }
    },
    {
      "type": "Feature",
      "properties": { 
      "IBGE:COD_UNICO_ENDERECO": "24782934",
      "addr:housenumber": "5",
      "addr:postcode": "45140-000",
      "addr:street": "Rua Motor",
      "addr:suburb": "São José do Colônia",
      "addr:unit": "Casa",
      "building": "yes"
      },
      "geometry": {
         "type": "Point",
         "coordinates": [-40.1000687,-15.0886588]
      }
    },
    {
      "type": "Feature",
      "properties": { 
      "IBGE:COD_UNICO_ENDERECO": "26016002",
      "addr:housenumber": "52",
      "addr:postcode": "45140-000",
      "addr:street": "Praça San Fili",
      "addr:suburb": "Centro",
      "building": "yes"
      },
      "geometry": {
         "type": "Point",
         "coordinates": [-40.6184653,-15.2427771]
      }
    },
    {
      "type": "Feature",
      "properties": { 
      "IBGE:COD_UNICO_ENDERECO": "191158219",
      "addr:housenumber": "73",
      "addr:postcode": "45140-000",
      "addr:street": "Rua José Pereira dos Santos",
      "addr:suburb": "Durvalina Andrade",
      "building": "yes"
      },
      "geometry": {
         "type": "Point",
         "coordinates": [-40.6277202,-15.2399262]
      }
    },
    {
      "type": "Feature",
      "properties": { 
      "IBGE:COD_UNICO_ENDERECO": "26014429",
      "addr:housenumber": "172",
      "addr:postcode": "45140-000",
      "addr:street": "Rua Otávio Mangabeira",
      "addr:suburb": "Centro",
      "building": "yes"
      },
      "geometry": {
         "type": "Point",
         "coordinates": [-40.6253653,-15.2445314]
      }
    },
    {
      "type": "Feature",
      "properties": { 
      "IBGE:COD_UNICO_ENDERECO": "193960912",
      "addr:housenumber": "15",
      "addr:postcode": "45140-000",
      "addr:street": "Povoado Café Palheta",
      "addr:suburb": "Café Palheta",
      "building": "yes",
      "fixme": "Verificar coordenadas",
      "note": "Sem setor ou quadra no bayface do IBGE 0500-0019P-0-51"
      },
      "geometry": {
         "type": "Point",
         "coordinates": [-40.839614,-15.262731]
      }
    },
    {
      "type": "Feature",
      "properties": { 
      "IBGE:COD_UNICO_ENDERECO": "215857205",
      "addr:housenumber": "70",
      "addr:postcode": "45140-000",
      "addr:street": "Rua Dom Pedro II",
      "addr:suburb": "São José",
      "building": "yes",
      "fixme": "Verificar coordenadas",
      "note": "Sem setor ou quadra no bayface do IBGE 1500-0004P-1-3"
      },
      "geometry": {
         "type": "Point",
         "coordinates": [-40.099616,-15.0918]
      }
    },
    {
      "type": "Feature",
      "properties": { 
      "IBGE:COD_UNICO_ENDERECO": "26015858",
      "addr:housenumber": "150",
      "addr:postcode": "45140-000",
      "addr:street": "Rua Lauro de Freitas",
      "addr:suburb": "Centro",
      "building": "construction"
      },
      "geometry": {
         "type": "Point",
         "coordinates": [-40.6226141,-15.2418841]
      }
    },
    {
      "type": "Feature",
      "properties": { 
      "IBGE:COD_UNICO_ENDERECO": "112235456",
      "addr:housenumber": "5",
      "addr:postcode": "45140-000",
      "addr:street": "Acesso Para O Caetano",
      "addr:suburb": "Estrada do Caitano",
      "addr:unit": "Fundos",
      "building": "yes",
      "fixme": "Verificar coordenadas",
      "note": "Sem setor ou quadra no bayface do IBGE 0500-0052P-0-87"
      },
      "geometry": {
         "type": "Point",
         "coordinates": [-40.547394,-15.162302]
      }
    },
    {
      "type": "Feature",
      "properties": { 
      "IBGE:COD_UNICO_ENDERECO": "26020712",
      "addr:housenumber": "78",
      "addr:postcode": "45140-000",
      "addr:street": "Rua Franclim Ferraz",
      "addr:suburb": "Catolezinho",
      "building": "yes"
      },
      "geometry": {
         "type": "Point",
         "coordinates": [-40.4418027,-15.1142973]
      }
    },
    {
      "type": "Feature",
      "properties": { 
      "IBGE:COD_UNICO_ENDERECO": "26015530",
      "addr:housenumber": "113",
      "addr:postcode": "45140-000",
      "addr:street": "Avenida Presidente Getúlio Vargas",
      "addr:suburb": "Centro",
      "building": "yes"
      },
      "geometry": {
         "type": "Point",
         "coordinates": [-40.6266879,-15.2372763]
      }
    },
    {
      "type": "Feature",
      "properties": { 
      "IBGE:COD_UNICO_ENDERECO": "26013943",
      "addr:housenumber": "296",
      "addr:postcode": "45140-000",
      "addr:street": "Avenida Contorno",
      "addr:suburb": "Sidnei de Almeida",
      "building": "yes"
      },
      "geometry": {
         "type": "Point",
         "coordinates": [-40.6192398,-15.2507572]
      }
    },
    {
      "type": "Feature",
      "properties": { 
      "IBGE:COD_UNICO_ENDERECO": "26016130",
      "addr:housenumber": "81",
      "addr:postcode": "45140-000",
      "addr:street": "Rua Padre Justino Rusolino",
      "addr:suburb": "Centro",
      "building": "yes"
      },
      "geometry": {
         "type": "Point",
         "coordinates": [-40.6225764,-15.2461341]
      }
    },
    {
      "type": "Feature",
      "properties": { 
      "IBGE:COD_UNICO_ENDERECO": "26017299",
      "addr:housenumber": "9",
      "addr:postcode": "45140-000",
      "addr:street": "Povoado Jussara",
      "addr:suburb": "Próximo A Ponte",
      "addr:unit": "Casa",
      "building": "yes",
      "fixme": "Verificar coordenadas",
      "note": "Sem setor ou quadra no bayface do IBGE 0500-0020P-0-2"
      },
      "geometry": {
         "type": "Point",
         "coordinates": [-40.712857,-15.149484]
      }
    },
    {
      "type": "Feature",
      "properties": { 
      "IBGE:COD_UNICO_ENDERECO": "112235609",
      "addr:housenumber": "3",
      "addr:postcode": "45140-000",
      "addr:street": "Estrada da Fazenda Primavera 4",
      "addr:suburb": "Cachoeira",
      "building": "yes",
      "fixme": "Verificar coordenadas",
      "note": "Sem setor ou quadra no bayface do IBGE 1000-0003P-0-76"
      },
      "geometry": {
         "type": "Point",
         "coordinates": [-40.295303,-15.095111]
      }
    },
    {
      "type": "Feature",
      "properties": { 
      "IBGE:COD_UNICO_ENDERECO": "26019400",
      "addr:housenumber": "339",
      "addr:postcode": "45140-000",
      "addr:street": "Rua Edward Carvalho",
      "addr:suburb": "Centro",
      "building": "yes"
      },
      "geometry": {
         "type": "Point",
         "coordinates": [-40.6267105,-15.2438392]
      }
    },
    {
      "type": "Feature",
      "properties": { 
      "IBGE:COD_UNICO_ENDERECO": "112236493",
      "addr:housenumber": "21",
      "addr:postcode": "45140-000",
      "addr:street": "Estrada Para Sapucaia",
      "addr:suburb": "Sapucaia",
      "building": "yes",
      "fixme": "Verificar coordenadas",
      "note": "Sem setor ou quadra no bayface do IBGE 0500-0017P-0-90"
      },
      "geometry": {
         "type": "Point",
         "coordinates": [-40.472556,-15.187047]
      }
    },
    {
      "type": "Feature",
      "properties": { 
      "IBGE:COD_UNICO_ENDERECO": "190957338",
      "addr:housenumber": "148",
      "addr:postcode": "45140-000",
      "addr:street": "Rua Itororó",
      "addr:suburb": "São José",
      "building": "yes"
      },
      "geometry": {
         "type": "Point",
         "coordinates": [-40.101588,-15.0883363]
      }
    },
    {
      "type": "Feature",
      "properties": { 
      "IBGE:COD_UNICO_ENDERECO": "191157791",
      "addr:housenumber": "201",
      "addr:postcode": "45140-000",
      "addr:street": "Rua das Populares 5",
      "addr:suburb": "Durvalina Andrade",
      "building": "yes"
      },
      "geometry": {
         "type": "Point",
         "coordinates": [-40.6292135,-15.2421314]
      }
    },
    {
      "type": "Feature",
      "properties": { 
      "IBGE:COD_UNICO_ENDERECO": "26014562",
      "addr:housenumber": "85",
      "addr:postcode": "45140-000",
      "addr:street": "Avenida Castro Alves",
      "addr:suburb": "Bela Vista",
      "building": "warehouse",
      "description": "CNEFE 2022 Depósito"
      },
      "geometry": {
         "type": "Point",
         "coordinates": [-40.624289,-15.2425711]
      }
    },
    {
      "type": "Feature",
      "properties": { 
      "IBGE:COD_UNICO_ENDERECO": "26014144",
      "addr:housenumber": "7",
      "addr:postcode": "45140-000",
      "addr:street": "Avenida Naomar Alcântara",
      "addr:suburb": "Felipe Achy",
      "building": "yes"
      },
      "geometry": {
         "type": "Point",
         "coordinates": [-40.6228685,-15.2531503]
      }
    },
    {
      "type": "Feature",
      "properties": { 
      "IBGE:COD_UNICO_ENDERECO": "112234100",
      "addr:housenumber": "4",
      "addr:postcode": "45145-000",
      "addr:street": "Estrada Pra Roda d'Água",
      "addr:suburb": "Roda d'Água",
      "addr:unit": "Fundos",
      "building": "yes",
      "fixme": "Verificar coordenadas",
      "name": "Bargaca",
      "note": "Sem setor ou quadra no bayface do IBGE 1500-0001P-0-100"
      },
      "geometry": {
         "type": "Point",
         "coordinates": [-40.114668,-15.136977]
      }
    },
    {
      "type": "Feature",
      "properties": { 
      "IBGE:COD_UNICO_ENDERECO": "224167686",
      "addr:housenumber": "60",
      "addr:postcode": "45140-000",
      "addr:street": "Rua Amazonas",
      "addr:suburb": "Felipe Achy",
      "building": "yes",
      "name": "Mega Estilos"
      },
      "geometry": {
         "type": "Point",
         "coordinates": [-40.6259538,-15.2543102]
      }
    },
    {
      "type": "Feature",
      "properties": { 
      "IBGE:COD_UNICO_ENDERECO": "26014789",
      "addr:housenumber": "713",
      "addr:postcode": "45140-000",
      "addr:street": "Rua Rogério Gusmão",
      "addr:suburb": "Centro",
      "building": "yes"
      },
      "geometry": {
         "type": "Point",
         "coordinates": [-40.6268972,-15.2402925]
      }
    },
    {
      "type": "Feature",
      "properties": { 
      "IBGE:COD_UNICO_ENDERECO": "26018018",
      "addr:housenumber": "428",
      "addr:postcode": "45140-000",
      "addr:street": "Rua José Marcelino Aguiar",
      "addr:suburb": "Humberto Lopes",
      "building": "yes"
      },
      "geometry": {
         "type": "Point",
         "coordinates": [-40.624805,-15.2505301]
      }
    },
    {
      "type": "Feature",
      "properties": { 
      "IBGE:COD_UNICO_ENDERECO": "191157367",
      "addr:housenumber": "339",
      "addr:postcode": "45140-000",
      "addr:street": "Rua Barão A",
      "addr:suburb": "Durvalina Andrade",
      "building": "yes"
      },
      "geometry": {
         "type": "Point",
         "coordinates": [-40.6294881,-15.2433829]
      }
    },
    {
      "type": "Feature",
      "properties": { 
      "IBGE:COD_UNICO_ENDERECO": "26021259",
      "addr:housenumber": "13",
      "addr:postcode": "45140-000",
      "addr:street": "Fazenda Fazenda Esperança",
      "addr:suburb": "Perto da Fazenda Canabrava",
      "building": "yes",
      "fixme": "Verificar coordenadas",
      "note": "Sem setor ou quadra no bayface do IBGE 1000-0015P-0-4"
      },
      "geometry": {
         "type": "Point",
         "coordinates": [-40.375597,-15.180531]
      }
    },
    {
      "type": "Feature",
      "properties": { 
      "IBGE:COD_UNICO_ENDERECO": "26014158",
      "addr:housenumber": "254",
      "addr:postcode": "45140-000",
      "addr:street": "Rua Jovelino Machado",
      "addr:suburb": "Felipe Achy",
      "building": "yes"
      },
      "geometry": {
         "type": "Point",
         "coordinates": [-40.6241281,-15.2540307]
      }
    },
    {
      "type": "Feature",
      "properties": { 
      "IBGE:COD_UNICO_ENDERECO": "26021045",
      "addr:housenumber": "146 B",
      "addr:postcode": "45140-000",
      "addr:street": "Rua Durval Gramacho",
      "addr:suburb": "Catolezinho",
      "building": "yes"
      },
      "geometry": {
         "type": "Point",
         "coordinates": [-40.4437016,-15.1149689]
      }
    },
    {
      "type": "Feature",
      "properties": { 
      "IBGE:COD_UNICO_ENDERECO": "191162480",
      "addr:housenumber": "20",
      "addr:postcode": "45140-000",
      "addr:street": "Fazenda Macuco",
      "addr:suburb": "São José do Colônia",
      "building": "yes",
      "fixme": "Verificar coordenadas",
      "note": "Sem setor ou quadra no bayface do IBGE 1500-0006P-0-61"
      },
      "geometry": {
         "type": "Point",
         "coordinates": [-40.116288,-15.08426]
      }
    },
    {
      "type": "Feature",
      "properties": { 
      "IBGE:COD_UNICO_ENDERECO": "30012825",
      "addr:housenumber": "22",
      "addr:postcode": "45140-000",
      "addr:street": "Região Santo Antônio",
      "addr:suburb": "Brejinho",
      "building": "yes",
      "fixme": "Verificar coordenadas",
      "note": "Sem setor ou quadra no bayface do IBGE 0500-0048P-0-76"
      },
      "geometry": {
         "type": "Point",
         "coordinates": [-40.758927,-15.148304]
      }
    },
    {
      "type": "Feature",
      "properties": { 
      "IBGE:COD_UNICO_ENDERECO": "191158494",
      "addr:housenumber": "142",
      "addr:postcode": "45140-000",
      "addr:street": "Rua Q",
      "addr:suburb": "Durvalina Andrade",
      "building": "yes"
      },
      "geometry": {
         "type": "Point",
         "coordinates": [-40.6284493,-15.2384637]
      }
    },
    {
      "type": "Feature",
      "properties": { 
      "IBGE:COD_UNICO_ENDERECO": "26021470",
      "addr:housenumber": "99",
      "addr:postcode": "45140-000",
      "addr:street": "Rua 29 de Julho",
      "addr:suburb": "Centro",
      "building": "yes"
      },
      "geometry": {
         "type": "Point",
         "coordinates": [-40.4423407,-15.1151442]
      }
    },
    {
      "type": "Feature",
      "properties": { 
      "IBGE:COD_UNICO_ENDERECO": "190956257",
      "addr:housenumber": "314",
      "addr:postcode": "45140-000",
      "addr:street": "Rua Diógenes Melo",
      "addr:suburb": "Centro",
      "building": "yes"
      },
      "geometry": {
         "type": "Point",
         "coordinates": [-40.6260358,-15.2436347]
      }
    },
    {
      "type": "Feature",
      "properties": { 
      "IBGE:COD_UNICO_ENDERECO": "26014707",
      "addr:housenumber": "428",
      "addr:postcode": "45140-000",
      "addr:street": "Rua Rogério Gusmão",
      "addr:suburb": "Centro",
      "building": "yes"
      },
      "geometry": {
         "type": "Point",
         "coordinates": [-40.6251153,-15.2421867]
      }
    },
    {
      "type": "Feature",
      "properties": { 
      "IBGE:COD_UNICO_ENDERECO": "26017018",
      "addr:housenumber": "5",
      "addr:postcode": "45140-000",
      "addr:street": "Fazenda Dois Rios 2",
      "addr:suburb": "Catolezinho",
      "addr:unit": "Fundos",
      "building": "yes",
      "fixme": "Verificar coordenadas",
      "note": "Sem setor ou quadra no bayface do IBGE 0500-0016P-0-12"
      },
      "geometry": {
         "type": "Point",
         "coordinates": [-40.463899,-15.11803]
      }
    },
    {
      "type": "Feature",
      "properties": { 
      "IBGE:COD_UNICO_ENDERECO": "112237831",
      "addr:housenumber": "15",
      "addr:postcode": "45140-000",
      "addr:street": "Estrada da Bananeira",
      "addr:suburb": "Bananeira",
      "building": "yes",
      "description": "CNEFE 2022 Fazenda",
      "fixme": "Verificar coordenadas",
      "note": "Sem setor ou quadra no bayface do IBGE 0500-0020P-0-177",
      "place": "farm"
      },
      "geometry": {
         "type": "Point",
         "coordinates": [-40.736473,-15.155085]
      }
    },
    {
      "type": "Feature",
      "properties": { 
      "IBGE:COD_UNICO_ENDERECO": "26019021",
      "addr:housenumber": "173",
      "addr:postcode": "45140-000",
      "addr:street": "Rua Diógenes Melo",
      "addr:suburb": "Centro",
      "building": "yes"
      },
      "geometry": {
         "type": "Point",
         "coordinates": [-40.6269746,-15.2424228]
      }
    },
    {
      "type": "Feature",
      "properties": { 
      "IBGE:COD_UNICO_ENDERECO": "26013236",
      "addr:housenumber": "220",
      "addr:postcode": "45140-000",
      "addr:street": "Rua João Pessoa",
      "addr:suburb": "Centro",
      "building": "yes"
      },
      "geometry": {
         "type": "Point",
         "coordinates": [-40.624608,-15.2465706]
      }
    },
    {
      "type": "Feature",
      "properties": { 
      "IBGE:COD_UNICO_ENDERECO": "89980192",
      "addr:housenumber": "218",
      "addr:postcode": "45140-000",
      "addr:street": "Rua da Usina",
      "addr:suburb": "Felipe Achy",
      "building": "yes"
      },
      "geometry": {
         "type": "Point",
         "coordinates": [-40.6264182,-15.2568949]
      }
    },
    {
      "type": "Feature",
      "properties": { 
      "IBGE:COD_UNICO_ENDERECO": "26016082",
      "addr:housenumber": "219",
      "addr:postcode": "45140-000",
      "addr:street": "Rua Joquim Correia",
      "addr:suburb": "Centro",
      "building": "yes",
      "fixme": "Verificar coordenadas",
      "note": "Sem dados para mover para dentro da quadra 0500-0012P-5-1"
      },
      "geometry": {
         "type": "Point",
         "coordinates": [-40.6217362,-15.245346]
      }
    },
    {
      "type": "Feature",
      "properties": { 
      "IBGE:COD_UNICO_ENDERECO": "112237896",
      "addr:housenumber": "40",
      "addr:postcode": "45140-000",
      "addr:street": "Estrada da Bananeira",
      "addr:suburb": "Bananeira",
      "building": "yes",
      "fixme": "Verificar coordenadas",
      "note": "Sem setor ou quadra no bayface do IBGE 0500-0020P-0-177"
      },
      "geometry": {
         "type": "Point",
         "coordinates": [-40.737915,-15.153884]
      }
    },
    {
      "type": "Feature",
      "properties": { 
      "IBGE:COD_UNICO_ENDERECO": "112233871",
      "addr:housenumber": "11",
      "addr:postcode": "45140-000",
      "addr:street": "Estrada Pra Roda d'Água",
      "addr:suburb": "Roda d'Água",
      "addr:unit": "Fundos",
      "building": "yes",
      "fixme": "Verificar coordenadas",
      "note": "Sem setor ou quadra no bayface do IBGE 1500-0001P-0-104"
      },
      "geometry": {
         "type": "Point",
         "coordinates": [-40.127398,-15.129035]
      }
    },
    {
      "type": "Feature",
      "properties": { 
      "IBGE:COD_UNICO_ENDERECO": "112239028",
      "addr:housenumber": "1",
      "addr:postcode": "45140-000",
      "addr:street": "Estrada da Fazenda Riachão",
      "addr:suburb": "Paraíso",
      "addr:unit": "Fundos",
      "building": "yes",
      "fixme": "Verificar coordenadas",
      "note": "Sem setor ou quadra no bayface do IBGE 0500-0017P-0-103"
      },
      "geometry": {
         "type": "Point",
         "coordinates": [-40.420765,-15.219375]
      }
    },
    {
      "type": "Feature",
      "properties": { 
      "IBGE:COD_UNICO_ENDERECO": "26013295",
      "addr:housenumber": "24",
      "addr:postcode": "45140-000",
      "addr:street": "Rua Sebastião S Oliveira",
      "addr:suburb": "Centro",
      "building": "yes"
      },
      "geometry": {
         "type": "Point",
         "coordinates": [-40.6231737,-15.2482981]
      }
    },
    {
      "type": "Feature",
      "properties": { 
      "IBGE:COD_UNICO_ENDERECO": "112237968;112238301;112238360",
      "addr:housenumber": "50",
      "addr:postcode": "45140-000",
      "addr:street": "Estrada da Formosa",
      "addr:suburb": "Formosa",
      "building": "yes",
      "fixme": "Verificar coordenadas",
      "note": "Sem setor ou quadra no bayface do IBGE 0500-0020P-0-174"
      },
      "geometry": {
         "type": "Point",
         "coordinates": [-40.734829,-15.143842]
      }
    },
    {
      "type": "Feature",
      "properties": { 
      "IBGE:COD_UNICO_ENDERECO": "26016239",
      "addr:housenumber": "2",
      "addr:postcode": "45140-000",
      "addr:street": "Praça da Bandeira",
      "addr:suburb": "Centro",
      "amenity": "fast_food",
      "building": "yes",
      "description": "CNEFE 2022 Lanchonete"
      },
      "geometry": {
         "type": "Point",
         "coordinates": [-40.6193254,-15.24475]
      }
    },
    {
      "type": "Feature",
      "properties": { 
      "IBGE:COD_UNICO_ENDERECO": "26016150",
      "addr:housenumber": "148",
      "addr:postcode": "45140-000",
      "addr:street": "Rua Francisco Santos",
      "addr:suburb": "Centro",
      "building": "yes"
      },
      "geometry": {
         "type": "Point",
         "coordinates": [-40.6225022,-15.2459028]
      }
    },
    {
      "type": "Feature",
      "properties": { 
      "IBGE:COD_UNICO_ENDERECO": "24782916",
      "addr:housenumber": "49",
      "addr:postcode": "45140-000",
      "addr:street": "Rua Rua Poções",
      "addr:suburb": "São José do Colônia",
      "addr:unit": "Casa",
      "building": "yes",
      "description": "CNEFE 2022 Padaria",
      "shop": "bakery"
      },
      "geometry": {
         "type": "Point",
         "coordinates": [-40.1001801,-15.0896605]
      }
    },
    {
      "type": "Feature",
      "properties": { 
      "IBGE:COD_UNICO_ENDERECO": "223244578",
      "addr:housenumber": "339",
      "addr:postcode": "45140-000",
      "addr:street": "Rua Lauro de Freitas",
      "addr:suburb": "Centro",
      "building": "yes"
      },
      "geometry": {
         "type": "Point",
         "coordinates": [-40.6239265,-15.2405567]
      }
    },
    {
      "type": "Feature",
      "properties": { 
      "IBGE:COD_UNICO_ENDERECO": "26018172",
      "addr:housenumber": "219",
      "addr:postcode": "45140-000",
      "addr:street": "Avenida Piauí",
      "addr:suburb": "Sidnei de Almeida",
      "building": "yes"
      },
      "geometry": {
         "type": "Point",
         "coordinates": [-40.6205108,-15.2489686]
      }
    },
    {
      "type": "Feature",
      "properties": { 
      "IBGE:COD_UNICO_ENDERECO": "26016162",
      "addr:housenumber": "129",
      "addr:postcode": "45140-000",
      "addr:street": "Rua Quintino Bocaiuva",
      "addr:suburb": "Centro",
      "building": "yes",
      "fixme": "Verificar coordenadas",
      "note": "Muito afastado da face: 92m 0500-0012P-8-2"
      },
      "geometry": {
         "type": "Point",
         "coordinates": [-40.621641,-15.244791]
      }
    },
    {
      "type": "Feature",
      "properties": { 
      "IBGE:COD_UNICO_ENDERECO": "26018335",
      "addr:housenumber": "28",
      "addr:postcode": "45140-000",
      "addr:street": "Avenida Piauí",
      "addr:suburb": "Sidnei de Almeida",
      "beauty": "nails",
      "building": "yes",
      "name": "Salão Unhas de Divas",
      "shop": "beauty"
      },
      "geometry": {
         "type": "Point",
         "coordinates": [-40.6221725,-15.2495991]
      }
    },
    {
      "type": "Feature",
      "properties": { 
      "IBGE:COD_UNICO_ENDERECO": "26014240",
      "addr:housenumber": "158",
      "addr:postcode": "45140-000",
      "addr:street": "Rua Manoel Balbino da Paixão",
      "addr:suburb": "Felipe Achy",
      "building": "yes"
      },
      "geometry": {
         "type": "Point",
         "coordinates": [-40.6247603,-15.2527809]
      }
    },
    {
      "type": "Feature",
      "properties": { 
      "IBGE:COD_UNICO_ENDERECO": "191121057",
      "addr:housenumber": "558 B",
      "addr:postcode": "45140-000",
      "addr:street": "Avenida Macarani",
      "addr:suburb": "Sidnei de Almeida",
      "building": "yes"
      },
      "geometry": {
         "type": "Point",
         "coordinates": [-40.6198905,-15.2530856]
      }
    },
    {
      "type": "Feature",
      "properties": { 
      "IBGE:COD_UNICO_ENDERECO": "219556691",
      "addr:housenumber": "173",
      "addr:postcode": "45140-000",
      "addr:street": "Rua Capitão Veloso",
      "addr:suburb": "Felipe Achy",
      "building": "yes"
      },
      "geometry": {
         "type": "Point",
         "coordinates": [-40.6250331,-15.2538071]
      }
    },
    {
      "type": "Feature",
      "properties": { 
      "IBGE:COD_UNICO_ENDERECO": "26019637",
      "addr:housenumber": "214",
      "addr:postcode": "45140-000",
      "addr:street": "Travessa Otávio Mangabeira",
      "addr:suburb": "Bela Vista",
      "building": "yes"
      },
      "geometry": {
         "type": "Point",
         "coordinates": [-40.6278322,-15.2459064]
      }
    },
    {
      "type": "Feature",
      "properties": { 
      "IBGE:COD_UNICO_ENDERECO": "223703563",
      "addr:housenumber": "335",
      "addr:postcode": "45140-000",
      "addr:street": "Rua Alterives Maciel",
      "addr:suburb": "Centro",
      "building": "yes"
      },
      "geometry": {
         "type": "Point",
         "coordinates": [-40.6277804,-15.2443584]
      }
    },
    {
      "type": "Feature",
      "properties": { 
      "IBGE:COD_UNICO_ENDERECO": "26013335",
      "addr:housenumber": "55",
      "addr:postcode": "45140-000",
      "addr:street": "Rua Francisco Vasconcelos",
      "addr:suburb": "Centro",
      "building": "yes"
      },
      "geometry": {
         "type": "Point",
         "coordinates": [-40.6244953,-15.2498997]
      }
    },
    {
      "type": "Feature",
      "properties": { 
      "IBGE:COD_UNICO_ENDERECO": "26013991",
      "addr:housenumber": "119",
      "addr:postcode": "45140-000",
      "addr:street": "Avenida Tancredo Neves",
      "addr:suburb": "Sidnei de Almeida",
      "building": "construction"
      },
      "geometry": {
         "type": "Point",
         "coordinates": [-40.6187789,-15.2515582]
      }
    },
    {
      "type": "Feature",
      "properties": { 
      "IBGE:COD_UNICO_ENDERECO": "191161735",
      "addr:housenumber": "130",
      "addr:postcode": "45140-000",
      "addr:street": "Rua Motor",
      "addr:suburb": "São José do Colônia",
      "building": "yes"
      },
      "geometry": {
         "type": "Point",
         "coordinates": [-40.0999527,-15.0879034]
      }
    },
    {
      "type": "Feature",
      "properties": { 
      "IBGE:COD_UNICO_ENDERECO": "26018434",
      "addr:housenumber": "431",
      "addr:postcode": "45140-000",
      "addr:street": "Avenida Encruzilhada",
      "addr:suburb": "Sidnei de Almeida",
      "building": "yes"
      },
      "geometry": {
         "type": "Point",
         "coordinates": [-40.6209933,-15.2522788]
      }
    },
    {
      "type": "Feature",
      "properties": { 
      "IBGE:COD_UNICO_ENDERECO": "223703505",
      "addr:housenumber": "70",
      "addr:postcode": "45140-000",
      "addr:street": "Rua Braulino Ribeiro de Sousa",
      "addr:suburb": "Itambé",
      "amenity": "fast_food",
      "building": "yes",
      "description": "CNEFE 2022 Lanchonete"
      },
      "geometry": {
         "type": "Point",
         "coordinates": [-40.6277504,-15.2429213]
      }
    },
    {
      "type": "Feature",
      "properties": { 
      "IBGE:COD_UNICO_ENDERECO": "26013388",
      "addr:housenumber": "149",
      "addr:postcode": "45140-000",
      "addr:street": "Rua Wilson S Gusmão 1",
      "addr:suburb": "Sidnei de Almeida",
      "building": "yes"
      },
      "geometry": {
         "type": "Point",
         "coordinates": [-40.6199059,-15.2474016]
      }
    },
    {
      "type": "Feature",
      "properties": { 
      "IBGE:COD_UNICO_ENDERECO": "26013385",
      "addr:housenumber": "167",
      "addr:postcode": "45140-000",
      "addr:street": "Rua Wilson S Gusmão 1",
      "addr:suburb": "Sidnei de Almeida",
      "building": "yes"
      },
      "geometry": {
         "type": "Point",
         "coordinates": [-40.6197931,-15.2473715]
      }
    },
    {
      "type": "Feature",
      "properties": { 
      "IBGE:COD_UNICO_ENDERECO": "26013704",
      "addr:housenumber": "364",
      "addr:postcode": "45140-000",
      "addr:street": "Avenida Minas Gerais",
      "addr:suburb": "Sidnei de Almeida",
      "building": "yes"
      },
      "geometry": {
         "type": "Point",
         "coordinates": [-40.6194284,-15.2498033]
      }
    },
    {
      "type": "Feature",
      "properties": { 
      "IBGE:COD_UNICO_ENDERECO": "26014008",
      "addr:housenumber": "15 Lado A",
      "addr:postcode": "45140-000",
      "addr:suburb": "Sidnei de Almeida",
      "amenity": "fast_food",
      "building": "yes",
      "cuisine": "friture",
      "name": "Salgaderia de Couros"
      },
      "geometry": {
         "type": "Point",
         "coordinates": [-40.6184218,-15.2533062]
      }
    },
    {
      "type": "Feature",
      "properties": { 
      "IBGE:COD_UNICO_ENDERECO": "26015701",
      "addr:housenumber": "17",
      "addr:postcode": "45140-000",
      "addr:street": "Travessa Rui Barbosa",
      "addr:suburb": "Centro",
      "building": "yes"
      },
      "geometry": {
         "type": "Point",
         "coordinates": [-40.6214793,-15.2407365]
      }
    },
    {
      "type": "Feature",
      "properties": { 
      "IBGE:COD_UNICO_ENDERECO": "191156260",
      "addr:housenumber": "30",
      "addr:postcode": "45140-000",
      "addr:street": "Rua 1 das Populares",
      "addr:suburb": "Durvalina Andrade",
      "building": "yes",
      "fixme": "Verificar coordenadas",
      "note": "Fora da área de projeção da face 0500-0009P-4-1"
      },
      "geometry": {
         "type": "Point",
         "coordinates": [-40.626749,-15.247733]
      }
    },
    {
      "type": "Feature",
      "properties": { 
      "IBGE:COD_UNICO_ENDERECO": "24783014",
      "addr:housenumber": "11",
      "addr:postcode": "45140-000",
      "addr:street": "Rua Poções",
      "addr:suburb": "São José",
      "addr:unit": "Casa",
      "building": "yes",
      "fixme": "Verificar coordenadas",
      "note": "Sem setor ou quadra no bayface do IBGE 1500-0004P-1-1"
      },
      "geometry": {
         "type": "Point",
         "coordinates": [-40.099106,-15.092044]
      }
    },
    {
      "type": "Feature",
      "properties": { 
      "IBGE:COD_UNICO_ENDERECO": "26015902",
      "addr:housenumber": "16",
      "addr:postcode": "45140-000",
      "addr:street": "Rua Frei Luís",
      "addr:suburb": "Centro",
      "building": "yes",
      "name": "Utilar"
      },
      "geometry": {
         "type": "Point",
         "coordinates": [-40.6203713,-15.2430344]
      }
    },
    {
      "type": "Feature",
      "properties": { 
      "IBGE:COD_UNICO_ENDERECO": "26018375",
      "addr:housenumber": "69",
      "addr:postcode": "45140-000",
      "addr:street": "Avenida Encruzilhada",
      "addr:suburb": "Sidnei de Almeida",
      "building": "yes"
      },
      "geometry": {
         "type": "Point",
         "coordinates": [-40.6216631,-15.24909]
      }
    },
    {
      "type": "Feature",
      "properties": { 
      "IBGE:COD_UNICO_ENDERECO": "191156135",
      "addr:housenumber": "22",
      "addr:postcode": "45140-000",
      "addr:street": "Rua H",
      "addr:suburb": "Durvalina Andrade",
      "building": "yes"
      },
      "geometry": {
         "type": "Point",
         "coordinates": [-40.6290239,-15.2418168]
      }
    },
    {
      "type": "Feature",
      "properties": { 
      "IBGE:COD_UNICO_ENDERECO": "26018654",
      "addr:housenumber": "388",
      "addr:postcode": "45140-000",
      "addr:street": "Avenida Vitória da Conquista",
      "addr:suburb": "Sidnei de Almeida",
      "building": "yes"
      },
      "geometry": {
         "type": "Point",
         "coordinates": [-40.6195459,-15.2510877]
      }
    },
    {
      "type": "Feature",
      "properties": { 
      "IBGE:COD_UNICO_ENDERECO": "24783705",
      "addr:housenumber": "4",
      "addr:postcode": "45140-000",
      "addr:street": "Fazenda Região da Piabanha",
      "addr:suburb": "Piabanha",
      "addr:unit": "Casa",
      "building": "yes",
      "fixme": "Verificar coordenadas",
      "note": "Sem setor ou quadra no bayface do IBGE 1000-0003P-0-88"
      },
      "geometry": {
         "type": "Point",
         "coordinates": [-40.219184,-15.1238]
      }
    },
    {
      "type": "Feature",
      "properties": { 
      "IBGE:COD_UNICO_ENDERECO": "26019683",
      "addr:housenumber": "380",
      "addr:postcode": "45140-000",
      "addr:street": "Avenida Getúlio Vargas",
      "addr:suburb": "Centro",
      "building": "yes"
      },
      "geometry": {
         "type": "Point",
         "coordinates": [-40.6248491,-15.2385102]
      }
    },
    {
      "type": "Feature",
      "properties": { 
      "IBGE:COD_UNICO_ENDERECO": "26017498",
      "addr:housenumber": "7",
      "addr:postcode": "45140-000",
      "addr:street": "Rodovia BA-263",
      "addr:suburb": "Geribá",
      "amenity": "school",
      "building": "yes",
      "fixme": "Verificar coordenadas",
      "name": "Escola Municipal Leonel Bittencourt",
      "note": "Sem setor ou quadra no bayface do IBGE 0500-0048P-0-4"
      },
      "geometry": {
         "type": "Point",
         "coordinates": [-40.702142,-15.078292]
      }
    },
    {
      "type": "Feature",
      "properties": { 
      "IBGE:COD_UNICO_ENDERECO": "24782977",
      "addr:housenumber": "74",
      "addr:postcode": "45140-000",
      "addr:street": "Rua Motor",
      "addr:suburb": "São José do Colônia",
      "addr:unit": "Casa",
      "building": "yes"
      },
      "geometry": {
         "type": "Point",
         "coordinates": [-40.0999413,-15.0883888]
      }
    },
    {
      "type": "Feature",
      "properties": { 
      "IBGE:COD_UNICO_ENDERECO": "26020014",
      "addr:housenumber": "176",
      "addr:postcode": "45140-000",
      "addr:street": "Rua Padre Pólito",
      "addr:suburb": "Centro",
      "building": "yes"
      },
      "geometry": {
         "type": "Point",
         "coordinates": [-40.6201276,-15.2469855]
      }
    },
    {
      "type": "Feature",
      "properties": { 
      "IBGE:COD_UNICO_ENDERECO": "26016565",
      "addr:housenumber": "111",
      "addr:postcode": "45140-000",
      "addr:street": "Rua Jequié",
      "addr:suburb": "Felipe Achy",
      "building": "yes"
      },
      "geometry": {
         "type": "Point",
         "coordinates": [-40.6254398,-15.2563523]
      }
    },
    {
      "type": "Feature",
      "properties": { 
      "IBGE:COD_UNICO_ENDERECO": "26018146",
      "addr:housenumber": "91",
      "addr:postcode": "45140-000",
      "addr:street": "Rua Jovelino Machado",
      "addr:suburb": "Felipe Achy",
      "building": "yes"
      },
      "geometry": {
         "type": "Point",
         "coordinates": [-40.6259785,-15.2524437]
      }
    },
    {
      "type": "Feature",
      "properties": { 
      "IBGE:COD_UNICO_ENDERECO": "215857718",
      "addr:housenumber": "111",
      "addr:postcode": "45140-000",
      "addr:street": "Estrada Para A Fazenda de Vicente",
      "addr:suburb": "São José",
      "building": "yes"
      },
      "geometry": {
         "type": "Point",
         "coordinates": [-40.1014732,-15.0888688]
      }
    },
    {
      "type": "Feature",
      "properties": { 
      "IBGE:COD_UNICO_ENDERECO": "26016480",
      "addr:housenumber": "28",
      "addr:postcode": "45140-000",
      "addr:street": "Rua Manuel Menezes",
      "addr:suburb": "Felipe Achy",
      "building": "yes"
      },
      "geometry": {
         "type": "Point",
         "coordinates": [-40.627034,-15.2538502]
      }
    },
    {
      "type": "Feature",
      "properties": { 
      "IBGE:COD_UNICO_ENDERECO": "26013617",
      "addr:housenumber": "436",
      "addr:postcode": "45140-000",
      "addr:street": "Rua Ronivaldo Velame",
      "addr:suburb": "Sidnei de Almeida",
      "building": "yes"
      },
      "geometry": {
         "type": "Point",
         "coordinates": [-40.6179741,-15.2509138]
      }
    },
    {
      "type": "Feature",
      "properties": { 
      "IBGE:COD_UNICO_ENDERECO": "112236589",
      "addr:housenumber": "2",
      "addr:postcode": "45140-000",
      "addr:street": "Rodovia BA-263",
      "addr:suburb": "Fazenda Iguaçu",
      "building": "yes",
      "fixme": "Verificar coordenadas",
      "note": "Sem setor ou quadra no bayface do IBGE 0500-0017P-0-121"
      },
      "geometry": {
         "type": "Point",
         "coordinates": [-40.363627,-15.243126]
      }
    },
    {
      "type": "Feature",
      "properties": { 
      "IBGE:COD_UNICO_ENDERECO": "26019936",
      "addr:housenumber": "207",
      "addr:postcode": "45140-000",
      "addr:street": "Rua São Salvador",
      "addr:suburb": "Centro",
      "building": "yes"
      },
      "geometry": {
         "type": "Point",
         "coordinates": [-40.6213291,-15.2460372]
      }
    },
    {
      "type": "Feature",
      "properties": { 
      "IBGE:COD_UNICO_ENDERECO": "26014915",
      "addr:housenumber": "219",
      "addr:postcode": "45140-000",
      "addr:street": "Rua Josefina Ferraz",
      "addr:suburb": "Centro",
      "addr:unit": "Casa",
      "building": "yes"
      },
      "geometry": {
         "type": "Point",
         "coordinates": [-40.6251729,-15.2402207]
      }
    },
    {
      "type": "Feature",
      "properties": { 
      "IBGE:COD_UNICO_ENDERECO": "215857492",
      "addr:housenumber": "92",
      "addr:postcode": "45140-000",
      "addr:street": "Rua do Campo",
      "addr:suburb": "São José",
      "building": "yes"
      },
      "geometry": {
         "type": "Point",
         "coordinates": [-40.1005867,-15.0911431]
      }
    },
    {
      "type": "Feature",
      "properties": { 
      "IBGE:COD_UNICO_ENDERECO": "26017489",
      "addr:housenumber": "5",
      "addr:postcode": "45140-000",
      "addr:street": "Fazenda Rasta Ramos",
      "addr:suburb": "Rasta Ramos",
      "addr:unit": "Fundos",
      "building": "yes",
      "fixme": "Verificar coordenadas",
      "note": "Sem setor ou quadra no bayface do IBGE 0500-0021P-0-16"
      },
      "geometry": {
         "type": "Point",
         "coordinates": [-40.648806,-15.213058]
      }
    },
    {
      "type": "Feature",
      "properties": { 
      "IBGE:COD_UNICO_ENDERECO": "89980141",
      "addr:housenumber": "548",
      "addr:postcode": "45140-000",
      "addr:street": "Rua Capitão Veloso",
      "addr:suburb": "Felipe Achy",
      "building": "yes"
      },
      "geometry": {
         "type": "Point",
         "coordinates": [-40.6273927,-15.2565724]
      }
    },
    {
      "type": "Feature",
      "properties": { 
      "IBGE:COD_UNICO_ENDERECO": "223692576",
      "addr:housenumber": "103",
      "addr:postcode": "45140-000",
      "addr:street": "Avenida Pernambuco",
      "addr:suburb": "Sidnei de Almeida",
      "building": "yes"
      },
      "geometry": {
         "type": "Point",
         "coordinates": [-40.6215932,-15.2487756]
      }
    },
    {
      "type": "Feature",
      "properties": { 
      "IBGE:COD_UNICO_ENDERECO": "26016046",
      "addr:housenumber": "36",
      "addr:postcode": "45140-000",
      "addr:street": "Rua Góes Calmon",
      "addr:suburb": "Centro",
      "building": "yes"
      },
      "geometry": {
         "type": "Point",
         "coordinates": [-40.6213035,-15.2406358]
      }
    },
    {
      "type": "Feature",
      "properties": { 
      "IBGE:COD_UNICO_ENDERECO": "112239105",
      "addr:housenumber": "2",
      "addr:postcode": "45140-000",
      "addr:street": "Estrada do Forte Lida",
      "addr:suburb": "Catolezinho",
      "addr:unit": "Fundos",
      "building": "yes",
      "fixme": "Verificar coordenadas",
      "note": "Sem setor ou quadra no bayface do IBGE 0500-0016P-0-167"
      },
      "geometry": {
         "type": "Point",
         "coordinates": [-40.491265,-15.095657]
      }
    },
    {
      "type": "Feature",
      "properties": { 
      "IBGE:COD_UNICO_ENDERECO": "112238308",
      "addr:housenumber": "45",
      "addr:postcode": "45140-000",
      "addr:street": "Estrada da Formosa",
      "addr:suburb": "Formosa",
      "building": "yes",
      "fixme": "Verificar coordenadas",
      "note": "Sem setor ou quadra no bayface do IBGE 0500-0020P-0-174"
      },
      "geometry": {
         "type": "Point",
         "coordinates": [-40.739799,-15.148702]
      }
    },
    {
      "type": "Feature",
      "properties": { 
      "IBGE:COD_UNICO_ENDERECO": "26015446",
      "addr:housenumber": "55",
      "addr:postcode": "45140-000",
      "addr:street": "Rua Luís Eduardo Magalhães",
      "addr:suburb": "Centro",
      "building": "yes"
      },
      "geometry": {
         "type": "Point",
         "coordinates": [-40.624293,-15.2369238]
      }
    },
    {
      "type": "Feature",
      "properties": { 
      "IBGE:COD_UNICO_ENDERECO": "26017701",
      "addr:housenumber": "8",
      "addr:postcode": "45140-000",
      "addr:street": "Fazenda Boa Sorte",
      "addr:suburb": "Zona Rural Itambé",
      "addr:unit": "Casa",
      "building": "yes",
      "fixme": "Verificar coordenadas",
      "note": "Sem setor ou quadra no bayface do IBGE 0500-0024P-0-3"
      },
      "geometry": {
         "type": "Point",
         "coordinates": [-40.409437,-15.293338]
      }
    },
    {
      "type": "Feature",
      "properties": { 
      "IBGE:COD_UNICO_ENDERECO": "191360381",
      "addr:housenumber": "8",
      "addr:postcode": "45140-000",
      "addr:street": "Avenida Encruzilhada",
      "addr:suburb": "Sidnei de Almeida",
      "building": "yes",
      "name": "Salão do Zezeca"
      },
      "geometry": {
         "type": "Point",
         "coordinates": [-40.6208596,-15.2525465]
      }
    },
    {
      "type": "Feature",
      "properties": { 
      "IBGE:COD_UNICO_ENDERECO": "26020473",
      "addr:housenumber": "110",
      "addr:postcode": "45140-000",
      "addr:street": "Avenida Clériston Andrade",
      "addr:suburb": "Humberto Lopes",
      "building": "yes"
      },
      "geometry": {
         "type": "Point",
         "coordinates": [-40.6266029,-15.2494288]
      }
    },
    {
      "type": "Feature",
      "properties": { 
      "IBGE:COD_UNICO_ENDERECO": "26019922",
      "addr:housenumber": "280",
      "addr:postcode": "45140-000",
      "addr:street": "Avenida Getúlio Vargas",
      "addr:suburb": "Centro",
      "building": "yes"
      },
      "geometry": {
         "type": "Point",
         "coordinates": [-40.6241556,-15.2392491]
      }
    },
    {
      "type": "Feature",
      "properties": { 
      "IBGE:COD_UNICO_ENDERECO": "26020088",
      "addr:housenumber": "229",
      "addr:postcode": "45140-000",
      "addr:street": "Rua Rodolfo Mário Gomes",
      "addr:suburb": "Centro",
      "building": "yes"
      },
      "geometry": {
         "type": "Point",
         "coordinates": [-40.6220859,-15.2473014]
      }
    },
    {
      "type": "Feature",
      "properties": { 
      "IBGE:COD_UNICO_ENDERECO": "193959498",
      "addr:housenumber": "67",
      "addr:postcode": "45140-000",
      "addr:street": "Praça da Bandeira",
      "addr:suburb": "Centro",
      "building": "yes",
      "description": "CNEFE 2022 Loja",
      "shop": "yes"
      },
      "geometry": {
         "type": "Point",
         "coordinates": [-40.6193712,-15.2446042]
      }
    },
    {
      "type": "Feature",
      "properties": { 
      "IBGE:COD_UNICO_ENDERECO": "26013612",
      "addr:housenumber": "384",
      "addr:postcode": "45140-000",
      "addr:street": "Rua Ronivaldo Velame",
      "addr:suburb": "Sidnei de Almeida",
      "building": "yes"
      },
      "geometry": {
         "type": "Point",
         "coordinates": [-40.6183861,-15.2510168]
      }
    },
    {
      "type": "Feature",
      "properties": { 
      "IBGE:COD_UNICO_ENDERECO": "26020445",
      "addr:housenumber": "211",
      "addr:postcode": "45140-000",
      "addr:street": "Avenida Clériston Andrade",
      "addr:suburb": "Humberto Lopes",
      "building": "yes"
      },
      "geometry": {
         "type": "Point",
         "coordinates": [-40.6259642,-15.249796]
      }
    },
    {
      "type": "Feature",
      "properties": { 
      "IBGE:COD_UNICO_ENDERECO": "26019526",
      "addr:housenumber": "101",
      "addr:postcode": "45140-000",
      "addr:street": "Rua Manoel Novais",
      "addr:suburb": "Bela Vista",
      "building": "yes"
      },
      "geometry": {
         "type": "Point",
         "coordinates": [-40.6273315,-15.2460816]
      }
    },
    {
      "type": "Feature",
      "properties": { 
      "IBGE:COD_UNICO_ENDERECO": "26017493",
      "addr:housenumber": "1",
      "addr:postcode": "45140-000",
      "addr:street": "Fazenda Barra da Jiboia",
      "addr:suburb": "Jiboia",
      "building": "yes",
      "fixme": "Verificar coordenadas",
      "note": "Sem setor ou quadra no bayface do IBGE 0500-0021P-0-19"
      },
      "geometry": {
         "type": "Point",
         "coordinates": [-40.673631,-15.243316]
      }
    },
    {
      "type": "Feature",
      "properties": { 
      "IBGE:COD_UNICO_ENDERECO": "26020727",
      "addr:housenumber": "8",
      "addr:postcode": "45140-000",
      "addr:street": "Rua Franclim Ferraz",
      "addr:suburb": "Catolezinho",
      "building": "yes"
      },
      "geometry": {
         "type": "Point",
         "coordinates": [-40.4418475,-15.114479]
      }
    },
    {
      "type": "Feature",
      "properties": { 
      "IBGE:COD_UNICO_ENDERECO": "89980222",
      "addr:housenumber": "315",
      "addr:postcode": "45140-000",
      "addr:street": "Rua Piripá",
      "addr:suburb": "Felipe Achy",
      "building": "yes"
      },
      "geometry": {
         "type": "Point",
         "coordinates": [-40.6268094,-15.2571482]
      }
    },
    {
      "type": "Feature",
      "properties": { 
      "IBGE:COD_UNICO_ENDERECO": "26015979",
      "addr:housenumber": "66",
      "addr:postcode": "45140-000",
      "addr:street": "Rua Noil Lima",
      "addr:suburb": "Centro",
      "building": "warehouse",
      "description": "CNEFE 2022 Depósito de Evanaldo"
      },
      "geometry": {
         "type": "Point",
         "coordinates": [-40.6188426,-15.2436266]
      }
    },
    {
      "type": "Feature",
      "properties": { 
      "IBGE:COD_UNICO_ENDERECO": "112239326",
      "addr:housenumber": "1",
      "addr:postcode": "45140-000",
      "addr:street": "Estrada da Fazenda Novo Horizonte",
      "addr:suburb": "Paraíso",
      "building": "yes",
      "fixme": "Verificar coordenadas",
      "note": "Sem setor ou quadra no bayface do IBGE 0500-0017P-0-106"
      },
      "geometry": {
         "type": "Point",
         "coordinates": [-40.416934,-15.214504]
      }
    },
    {
      "type": "Feature",
      "properties": { 
      "IBGE:COD_UNICO_ENDERECO": "26018237",
      "addr:housenumber": "289",
      "addr:postcode": "45140-000",
      "addr:street": "Avenida Espírito Santo",
      "addr:suburb": "Sidnei de Almeida",
      "building": "yes"
      },
      "geometry": {
         "type": "Point",
         "coordinates": [-40.6199698,-15.2502122]
      }
    },
    {
      "type": "Feature",
      "properties": { 
      "IBGE:COD_UNICO_ENDERECO": "26013558",
      "addr:housenumber": "10",
      "addr:postcode": "45140-000",
      "addr:street": "Rua Wilson S Gusmão 2",
      "addr:suburb": "Sidnei de Almeida",
      "building": "yes"
      },
      "geometry": {
         "type": "Point",
         "coordinates": [-40.6210289,-15.2478762]
      }
    },
    {
      "type": "Feature",
      "properties": { 
      "IBGE:COD_UNICO_ENDERECO": "24783238",
      "addr:housenumber": "51",
      "addr:postcode": "45140-000",
      "addr:suburb": "São José",
      "addr:unit": "Casa",
      "building": "yes"
      },
      "geometry": {
         "type": "Point",
         "coordinates": [-40.1010857,-15.0896068]
      }
    },
    {
      "type": "Feature",
      "properties": { 
      "IBGE:COD_UNICO_ENDERECO": "26020730",
      "addr:housenumber": "99",
      "addr:postcode": "45140-000",
      "addr:street": "Rua Franclim Ferraz",
      "addr:suburb": "Catolezinho",
      "building": "yes"
      },
      "geometry": {
         "type": "Point",
         "coordinates": [-40.4417193,-15.1145742]
      }
    },
    {
      "type": "Feature",
      "properties": { 
      "IBGE:COD_UNICO_ENDERECO": "191156679",
      "addr:housenumber": "100",
      "addr:postcode": "45140-000",
      "addr:street": "Rua das Populares 5",
      "addr:suburb": "Durvalina Andrade",
      "building": "yes"
      },
      "geometry": {
         "type": "Point",
         "coordinates": [-40.6282323,-15.2418599]
      }
    },
    {
      "type": "Feature",
      "properties": { 
      "IBGE:COD_UNICO_ENDERECO": "223305007",
      "addr:housenumber": "323",
      "addr:postcode": "45140-000",
      "addr:street": "Avenida Padre Juraci Mendes",
      "addr:suburb": "Sidnei de Almeida",
      "building": "yes"
      },
      "geometry": {
         "type": "Point",
         "coordinates": [-40.6179062,-15.2500178]
      }
    },
    {
      "type": "Feature",
      "properties": { 
      "IBGE:COD_UNICO_ENDERECO": "26018398",
      "addr:housenumber": "261",
      "addr:postcode": "45140-000",
      "addr:street": "Avenida Goiás",
      "addr:suburb": "Sidnei de Almeida",
      "building": "yes"
      },
      "geometry": {
         "type": "Point",
         "coordinates": [-40.6209746,-15.2495589]
      }
    },
    {
      "type": "Feature",
      "properties": { 
      "IBGE:COD_UNICO_ENDERECO": "26014804",
      "addr:housenumber": "266",
      "addr:postcode": "45140-000",
      "addr:street": "Rua Américo Gusmão de Brito",
      "addr:suburb": "Centro",
      "building": "yes"
      },
      "geometry": {
         "type": "Point",
         "coordinates": [-40.6268645,-15.2412434]
      }
    },
    {
      "type": "Feature",
      "properties": { 
      "IBGE:COD_UNICO_ENDERECO": "26020673",
      "addr:housenumber": "2",
      "addr:postcode": "45140-000",
      "addr:street": "Travessa do Oriente",
      "addr:suburb": "Catolezinho",
      "building": "yes"
      },
      "geometry": {
         "type": "Point",
         "coordinates": [-40.4429197,-15.113099]
      }
    },
    {
      "type": "Feature",
      "properties": { 
      "IBGE:COD_UNICO_ENDERECO": "89980219",
      "addr:housenumber": "297",
      "addr:postcode": "45140-000",
      "addr:street": "Rua Piripá",
      "addr:suburb": "Felipe Achy",
      "building": "yes"
      },
      "geometry": {
         "type": "Point",
         "coordinates": [-40.6266679,-15.2569617]
      }
    },
    {
      "type": "Feature",
      "properties": { 
      "IBGE:COD_UNICO_ENDERECO": "24783361",
      "addr:housenumber": "450",
      "addr:postcode": "45140-000",
      "addr:street": "Rua Dom Pedro II",
      "addr:suburb": "São José",
      "addr:unit": "Cais",
      "building": "yes"
      },
      "geometry": {
         "type": "Point",
         "coordinates": [-40.1008346,-15.087787]
      }
    },
    {
      "type": "Feature",
      "properties": { 
      "IBGE:COD_UNICO_ENDERECO": "24783085",
      "addr:housenumber": "130",
      "addr:postcode": "45140-000",
      "addr:suburb": "São José",
      "addr:unit": "Casa",
      "building": "yes"
      },
      "geometry": {
         "type": "Point",
         "coordinates": [-40.1014203,-15.0892402]
      }
    },
    {
      "type": "Feature",
      "properties": { 
      "IBGE:COD_UNICO_ENDERECO": "26018003",
      "addr:housenumber": "29",
      "addr:postcode": "45140-000",
      "addr:street": "Rua José Marcelino Aguiar",
      "addr:suburb": "Humberto Lopes",
      "addr:unit": "Casa 2",
      "building": "construction"
      },
      "geometry": {
         "type": "Point",
         "coordinates": [-40.6247921,-15.2503064]
      }
    },
    {
      "type": "Feature",
      "properties": { 
      "IBGE:COD_UNICO_ENDERECO": "24782939",
      "addr:housenumber": "410",
      "addr:postcode": "45140-000",
      "addr:street": "Rua Rua Poções",
      "addr:suburb": "São José do Colônia",
      "addr:unit": "Casa",
      "building": "yes"
      },
      "geometry": {
         "type": "Point",
         "coordinates": [-40.1001923,-15.0880665]
      }
    },
    {
      "type": "Feature",
      "properties": { 
      "IBGE:COD_UNICO_ENDERECO": "218707959",
      "addr:housenumber": "61 Térreo",
      "addr:postcode": "45140-000",
      "addr:suburb": "Catolezinho",
      "building": "yes"
      },
      "geometry": {
         "type": "Point",
         "coordinates": [-40.4414763,-15.1142641]
      }
    },
    {
      "type": "Feature",
      "properties": { 
      "IBGE:COD_UNICO_ENDERECO": "216621282",
      "addr:housenumber": "231",
      "addr:postcode": "45140-000",
      "addr:street": "Rua Manoel Alves Texeira",
      "addr:suburb": "Centro",
      "addr:unit": "Casa 2",
      "building": "yes"
      },
      "geometry": {
         "type": "Point",
         "coordinates": [-40.6211329,-15.24634]
      }
    },
    {
      "type": "Feature",
      "properties": { 
      "IBGE:COD_UNICO_ENDERECO": "191161822",
      "addr:housenumber": "540",
      "addr:postcode": "45140-000",
      "addr:street": "Rua Rua Poções",
      "addr:suburb": "São José do Colônia",
      "building": "yes",
      "fixme": "Verificar coordenadas",
      "note": "Sem dados para mover para dentro da quadra 1500-0003P-13-3"
      },
      "geometry": {
         "type": "Point",
         "coordinates": [-40.1002508,-15.087298]
      }
    },
    {
      "type": "Feature",
      "properties": { 
      "IBGE:COD_UNICO_ENDERECO": "26015323",
      "addr:housenumber": "437",
      "addr:postcode": "45140-000",
      "addr:street": "Rua Josafá Azevedo",
      "addr:suburb": "Centro",
      "building": "yes"
      },
      "geometry": {
         "type": "Point",
         "coordinates": [-40.6270202,-15.2347501]
      }
    },
    {
      "type": "Feature",
      "properties": { 
      "IBGE:COD_UNICO_ENDERECO": "26019290",
      "addr:housenumber": "74",
      "addr:postcode": "45140-000",
      "addr:street": "Rua Lauro de Freitas",
      "addr:suburb": "Centro",
      "building": "yes"
      },
      "geometry": {
         "type": "Point",
         "coordinates": [-40.6228047,-15.2416212]
      }
    },
    {
      "type": "Feature",
      "properties": { 
      "IBGE:COD_UNICO_ENDERECO": "26018642",
      "addr:housenumber": "315",
      "addr:postcode": "45140-000",
      "addr:street": "Avenida Vitória da Conquista",
      "addr:suburb": "Sidnei de Almeida",
      "building": "yes",
      "description": "CNEFE 2022 Comércio de Bebidas",
      "shop": "beverages"
      },
      "geometry": {
         "type": "Point",
         "coordinates": [-40.6195661,-15.2503775]
      }
    },
    {
      "type": "Feature",
      "properties": { 
      "IBGE:COD_UNICO_ENDERECO": "26020610",
      "addr:housenumber": "137",
      "addr:postcode": "45140-000",
      "addr:street": "Rua Adauto Pereira",
      "addr:suburb": "Humberto Lopes",
      "building": "yes"
      },
      "geometry": {
         "type": "Point",
         "coordinates": [-40.6271536,-15.2484719]
      }
    },
    {
      "type": "Feature",
      "properties": { 
      "IBGE:COD_UNICO_ENDERECO": "26013913",
      "addr:housenumber": "621",
      "addr:postcode": "45140-000",
      "addr:street": "Avenida Itapetinga",
      "addr:suburb": "Sidnei de Almeida",
      "building": "yes"
      },
      "geometry": {
         "type": "Point",
         "coordinates": [-40.6180625,-15.2527453]
      }
    },
    {
      "type": "Feature",
      "properties": { 
      "IBGE:COD_UNICO_ENDERECO": "26018791",
      "addr:housenumber": "10",
      "addr:postcode": "45140-000",
      "addr:street": "Avenida Ipiaú",
      "addr:suburb": "Bela Vista",
      "building": "yes"
      },
      "geometry": {
         "type": "Point",
         "coordinates": [-40.6251556,-15.2464298]
      }
    },
    {
      "type": "Feature",
      "properties": { 
      "IBGE:COD_UNICO_ENDERECO": "112233933",
      "addr:housenumber": "5",
      "addr:postcode": "45140-000",
      "addr:street": "Estrada da Fazenda Itamarandiba",
      "addr:suburb": "Fazenda",
      "addr:unit": "Fundos",
      "building": "yes",
      "fixme": "Verificar coordenadas",
      "note": "Sem setor ou quadra no bayface do IBGE 1000-0019P-0-26"
      },
      "geometry": {
         "type": "Point",
         "coordinates": [-40.438118,-15.063979]
      }
    },
    {
      "type": "Feature",
      "properties": { 
      "IBGE:COD_UNICO_ENDERECO": "26019216",
      "addr:housenumber": "144",
      "addr:postcode": "45140-000",
      "addr:street": "Rua Arnaldo José de Oliveira",
      "addr:suburb": "Centro",
      "building": "yes"
      },
      "geometry": {
         "type": "Point",
         "coordinates": [-40.6271502,-15.2386046]
      }
    },
    {
      "type": "Feature",
      "properties": { 
      "IBGE:COD_UNICO_ENDERECO": "191156469",
      "addr:housenumber": "90",
      "addr:postcode": "45140-000",
      "addr:street": "Rua 3 das Populares",
      "addr:suburb": "Durvalina Andrade",
      "building": "yes"
      },
      "geometry": {
         "type": "Point",
         "coordinates": [-40.6284542,-15.2427273]
      }
    },
    {
      "type": "Feature",
      "properties": { 
      "IBGE:COD_UNICO_ENDERECO": "191157288",
      "addr:housenumber": "6",
      "addr:postcode": "45140-000",
      "addr:suburb": "Jardim Vitória",
      "building": "yes",
      "fixme": "Verificar coordenadas",
      "note": "Sem face no bayface do IBGE 0500-0009P-10-14"
      },
      "geometry": {
         "type": "Point",
         "coordinates": [-40.629534,-15.238172]
      }
    },
    {
      "type": "Feature",
      "properties": { 
      "IBGE:COD_UNICO_ENDERECO": "26013799",
      "addr:housenumber": "402",
      "addr:postcode": "45140-000",
      "addr:street": "Avenida Piauí",
      "addr:suburb": "Sidnei de Almeida",
      "building": "yes"
      },
      "geometry": {
         "type": "Point",
         "coordinates": [-40.618899,-15.2487009]
      }
    },
    {
      "type": "Feature",
      "properties": { 
      "IBGE:COD_UNICO_ENDERECO": "26021568",
      "addr:housenumber": "403",
      "addr:postcode": "45140-000",
      "addr:street": "Rua Cassiano Ferraz",
      "addr:suburb": "Centro",
      "building": "yes"
      },
      "geometry": {
         "type": "Point",
         "coordinates": [-40.4447912,-15.1162993]
      }
    },
    {
      "type": "Feature",
      "properties": { 
      "IBGE:COD_UNICO_ENDERECO": "26019567",
      "addr:housenumber": "30",
      "addr:postcode": "45140-000",
      "addr:street": "Rua Rio Pardo",
      "addr:suburb": "Bela Vista",
      "building": "yes"
      },
      "geometry": {
         "type": "Point",
         "coordinates": [-40.6262572,-15.2468364]
      }
    },
    {
      "type": "Feature",
      "properties": { 
      "IBGE:COD_UNICO_ENDERECO": "112238130",
      "addr:housenumber": "33",
      "addr:postcode": "45140-000",
      "addr:street": "Estrada da Patagônia",
      "addr:suburb": "Jussara",
      "building": "yes",
      "fixme": "Verificar coordenadas",
      "note": "Sem setor ou quadra no bayface do IBGE 0500-0020P-0-182"
      },
      "geometry": {
         "type": "Point",
         "coordinates": [-40.713257,-15.135215]
      }
    },
    {
      "type": "Feature",
      "properties": { 
      "IBGE:COD_UNICO_ENDERECO": "26019399",
      "addr:housenumber": "345",
      "addr:postcode": "45140-000",
      "addr:street": "Rua Edward Carvalho",
      "addr:suburb": "Centro",
      "building": "yes"
      },
      "geometry": {
         "type": "Point",
         "coordinates": [-40.6267782,-15.2437318]
      }
    },
    {
      "type": "Feature",
      "properties": { 
      "IBGE:COD_UNICO_ENDERECO": "26014977",
      "addr:housenumber": "71",
      "addr:postcode": "45140-000",
      "addr:street": "Rua Josefina Ferraz",
      "addr:suburb": "Centro",
      "building": "yes"
      },
      "geometry": {
         "type": "Point",
         "coordinates": [-40.6240109,-15.2413987]
      }
    },
    {
      "type": "Feature",
      "properties": { 
      "IBGE:COD_UNICO_ENDERECO": "26019751",
      "addr:housenumber": "169",
      "addr:postcode": "45140-000",
      "addr:street": "Rua dos Artistas",
      "addr:suburb": "Centro",
      "building": "yes"
      },
      "geometry": {
         "type": "Point",
         "coordinates": [-40.6238944,-15.2383543]
      }
    },
    {
      "type": "Feature",
      "properties": { 
      "IBGE:COD_UNICO_ENDERECO": "26019112",
      "addr:housenumber": "110",
      "addr:postcode": "45140-000",
      "addr:street": "Rua Diógenes Melo",
      "addr:suburb": "Centro",
      "building": "yes"
      },
      "geometry": {
         "type": "Point",
         "coordinates": [-40.6264718,-15.2428152]
      }
    },
    {
      "type": "Feature",
      "properties": { 
      "IBGE:COD_UNICO_ENDERECO": "26017380",
      "addr:housenumber": "17",
      "addr:postcode": "45140-000",
      "addr:street": "Povoado Formosa",
      "addr:suburb": "Formosa",
      "addr:unit": "Casa",
      "building": "yes",
      "fixme": "Verificar coordenadas",
      "name": "Lade Day",
      "note": "Sem setor ou quadra no bayface do IBGE 0500-0020P-0-5"
      },
      "geometry": {
         "type": "Point",
         "coordinates": [-40.733203,-15.143031]
      }
    },
    {
      "type": "Feature",
      "properties": { 
      "IBGE:COD_UNICO_ENDERECO": "26018412",
      "addr:housenumber": "168",
      "addr:postcode": "45140-000",
      "addr:street": "Avenida Macarani",
      "addr:suburb": "Sidnei de Almeida",
      "building": "yes"
      },
      "geometry": {
         "type": "Point",
         "coordinates": [-40.620785,-15.249793]
      }
    },
    {
      "type": "Feature",
      "properties": { 
      "IBGE:COD_UNICO_ENDERECO": "112237688",
      "addr:housenumber": "80",
      "addr:postcode": "45140-000",
      "addr:street": "Estrada Pra Novo Horizonte",
      "addr:suburb": "Novo Horizonte",
      "building": "yes",
      "fixme": "Verificar coordenadas",
      "note": "Sem setor ou quadra no bayface do IBGE 0500-0047P-0-88"
      },
      "geometry": {
         "type": "Point",
         "coordinates": [-40.576028,-15.072049]
      }
    },
    {
      "type": "Feature",
      "properties": { 
      "IBGE:COD_UNICO_ENDERECO": "191157499",
      "addr:housenumber": "359",
      "addr:postcode": "45140-000",
      "addr:street": "Rua Barão A",
      "addr:suburb": "Durvalina Andrade",
      "building": "yes"
      },
      "geometry": {
         "type": "Point",
         "coordinates": [-40.6294442,-15.2432815]
      }
    },
    {
      "type": "Feature",
      "properties": { 
      "IBGE:COD_UNICO_ENDERECO": "26018973",
      "addr:housenumber": "77",
      "addr:postcode": "45140-000",
      "addr:street": "Rua José Teixeira",
      "addr:suburb": "Centro",
      "building": "yes"
      },
      "geometry": {
         "type": "Point",
         "coordinates": [-40.6265823,-15.2434455]
      }
    },
    {
      "type": "Feature",
      "properties": { 
      "IBGE:COD_UNICO_ENDERECO": "26015011",
      "addr:housenumber": "207",
      "addr:postcode": "45140-000",
      "addr:street": "Rua Lauro de Freitas",
      "addr:suburb": "Centro",
      "building": "yes"
      },
      "geometry": {
         "type": "Point",
         "coordinates": [-40.6237089,-15.2408234]
      }
    },
    {
      "type": "Feature",
      "properties": { 
      "IBGE:COD_UNICO_ENDERECO": "26014956",
      "addr:housenumber": "469",
      "addr:postcode": "45140-000",
      "addr:street": "Rua Lauro de Freitas",
      "addr:suburb": "Centro",
      "building": "yes"
      },
      "geometry": {
         "type": "Point",
         "coordinates": [-40.6252052,-15.2390081]
      }
    },
    {
      "type": "Feature",
      "properties": { 
      "IBGE:COD_UNICO_ENDERECO": "26018465",
      "addr:housenumber": "20",
      "addr:postcode": "45140-000",
      "addr:street": "Travessa Encruzilhada",
      "addr:suburb": "Sidnei de Almeida",
      "building": "yes"
      },
      "geometry": {
         "type": "Point",
         "coordinates": [-40.6211929,-15.2520374]
      }
    },
    {
      "type": "Feature",
      "properties": { 
      "IBGE:COD_UNICO_ENDERECO": "26014029",
      "addr:housenumber": "80",
      "addr:postcode": "45140-000",
      "addr:street": "Rua Programada ou Itarantim",
      "addr:suburb": "Sidnei de Almeida",
      "building": "yes"
      },
      "geometry": {
         "type": "Point",
         "coordinates": [-40.619403,-15.2528592]
      }
    },
    {
      "type": "Feature",
      "properties": { 
      "IBGE:COD_UNICO_ENDERECO": "26020086",
      "addr:housenumber": "376",
      "addr:postcode": "45140-000",
      "addr:street": "Rua Rodolfo Mário Gomes",
      "addr:suburb": "Centro",
      "building": "construction"
      },
      "geometry": {
         "type": "Point",
         "coordinates": [-40.6217864,-15.2471623]
      }
    },
    {
      "type": "Feature",
      "properties": { 
      "IBGE:COD_UNICO_ENDERECO": "26018947",
      "addr:housenumber": "141",
      "addr:postcode": "45140-000",
      "addr:street": "Rua José Teixeira",
      "addr:suburb": "Centro",
      "building": "yes"
      },
      "geometry": {
         "type": "Point",
         "coordinates": [-40.6261853,-15.243073]
      }
    },
    {
      "type": "Feature",
      "properties": { 
      "IBGE:COD_UNICO_ENDERECO": "26014083",
      "addr:housenumber": "840",
      "addr:postcode": "45140-000",
      "addr:street": "Avenida João Durval Carneiro",
      "addr:suburb": "Felipe Achy",
      "building": "yes"
      },
      "geometry": {
         "type": "Point",
         "coordinates": [-40.622013,-15.2519647]
      }
    },
    {
      "type": "Feature",
      "properties": { 
      "IBGE:COD_UNICO_ENDERECO": "26017809",
      "addr:housenumber": "27",
      "addr:postcode": "45140-000",
      "addr:street": "Povoado Sapucaia",
      "addr:suburb": "Sapucaia",
      "building": "yes",
      "fixme": "Verificar coordenadas",
      "note": "Sem setor ou quadra no bayface do IBGE 0500-0025P-0-9"
      },
      "geometry": {
         "type": "Point",
         "coordinates": [-40.472114,-15.186566]
      }
    },
    {
      "type": "Feature",
      "properties": { 
      "IBGE:COD_UNICO_ENDERECO": "26019544",
      "addr:housenumber": "52",
      "addr:postcode": "45140-000",
      "addr:street": "Rua da Sanfona",
      "addr:suburb": "Bela Vista",
      "building": "yes"
      },
      "geometry": {
         "type": "Point",
         "coordinates": [-40.6267875,-15.2464542]
      }
    },
    {
      "type": "Feature",
      "properties": { 
      "IBGE:COD_UNICO_ENDERECO": "26013828",
      "addr:housenumber": "49",
      "addr:postcode": "45140-000",
      "addr:street": "Rua São Sebastião",
      "addr:suburb": "Sidnei de Almeida",
      "building": "yes",
      "fixme": "Verificar coordenadas",
      "note": "Fora da área de projeção da face 0500-0004P-1-4"
      },
      "geometry": {
         "type": "Point",
         "coordinates": [-40.621379,-15.25352]
      }
    },
    {
      "type": "Feature",
      "properties": { 
      "IBGE:COD_UNICO_ENDERECO": "112235536",
      "addr:housenumber": "7",
      "addr:postcode": "45140-000",
      "addr:street": "Estrada da Cristiuma",
      "addr:suburb": "Criciúma",
      "building": "yes",
      "fixme": "Verificar coordenadas",
      "note": "Sem setor ou quadra no bayface do IBGE 1000-0003P-0-64"
      },
      "geometry": {
         "type": "Point",
         "coordinates": [-40.249262,-15.106989]
      }
    },
    {
      "type": "Feature",
      "properties": { 
      "IBGE:COD_UNICO_ENDERECO": "24782948",
      "addr:housenumber": "490",
      "addr:postcode": "45140-000",
      "addr:street": "Rua Rua Poções",
      "addr:suburb": "São José do Colônia",
      "addr:unit": "Casa",
      "building": "yes"
      },
      "geometry": {
         "type": "Point",
         "coordinates": [-40.1001861,-15.087602]
      }
    },
    {
      "type": "Feature",
      "properties": { 
      "IBGE:COD_UNICO_ENDERECO": "191157395",
      "addr:housenumber": "209",
      "addr:postcode": "45140-000",
      "addr:street": "Rua 2 das Populares",
      "addr:suburb": "Durvalina Andrade",
      "building": "yes"
      },
      "geometry": {
         "type": "Point",
         "coordinates": [-40.6293221,-15.2433493]
      }
    },
    {
      "type": "Feature",
      "properties": { 
      "IBGE:COD_UNICO_ENDERECO": "26014021",
      "addr:housenumber": "25",
      "addr:postcode": "45140-000",
      "addr:street": "Rua Programada ou Itarantim",
      "addr:suburb": "Sidnei de Almeida",
      "building": "yes"
      },
      "geometry": {
         "type": "Point",
         "coordinates": [-40.6193692,-15.2522347]
      }
    },
    {
      "type": "Feature",
      "properties": { 
      "IBGE:COD_UNICO_ENDERECO": "223882670",
      "addr:housenumber": "27",
      "addr:postcode": "45140-000",
      "addr:street": "Rua Barão F",
      "addr:suburb": "Jardim Vitória",
      "building": "yes"
      },
      "geometry": {
         "type": "Point",
         "coordinates": [-40.6293595,-15.2442679]
      }
    },
    {
      "type": "Feature",
      "properties": { 
      "IBGE:COD_UNICO_ENDERECO": "26018098",
      "addr:housenumber": "10",
      "addr:postcode": "45140-000",
      "addr:street": "Rua Valdívio S Silva",
      "addr:suburb": "Felipe Achy",
      "building": "yes"
      },
      "geometry": {
         "type": "Point",
         "coordinates": [-40.6261892,-15.2514706]
      }
    },
    {
      "type": "Feature",
      "properties": { 
      "IBGE:COD_UNICO_ENDERECO": "191363222",
      "addr:housenumber": "5",
      "addr:postcode": "45140-000",
      "addr:street": "Fazenda Vencedora",
      "addr:suburb": "Catolezinho",
      "building": "yes",
      "fixme": "Verificar coordenadas",
      "note": "Sem setor ou quadra no bayface do IBGE 1000-0014P-0-3"
      },
      "geometry": {
         "type": "Point",
         "coordinates": [-40.300232,-15.136463]
      }
    },
    {
      "type": "Feature",
      "properties": { 
      "IBGE:COD_UNICO_ENDERECO": "26018036",
      "addr:housenumber": "377",
      "addr:postcode": "45140-000",
      "addr:street": "Avenida Clériston Andrade",
      "addr:suburb": "Humberto Lopes",
      "building": "yes"
      },
      "geometry": {
         "type": "Point",
         "coordinates": [-40.6248518,-15.2508641]
      }
    },
    {
      "type": "Feature",
      "properties": { 
      "IBGE:COD_UNICO_ENDERECO": "223381277",
      "addr:housenumber": "498",
      "addr:postcode": "45140-000",
      "addr:street": "Avenida Governador João Durval Carneiro",
      "addr:suburb": "Centro",
      "addr:unit": "Loja 498",
      "description": "CNEFE 2022 Vago",
      "disused": "yes",
      "disused:building": "yes"
      },
      "geometry": {
         "type": "Point",
         "coordinates": [-40.6238878,-15.2501042]
      }
    },
    {
      "type": "Feature",
      "properties": { 
      "IBGE:COD_UNICO_ENDERECO": "215857677",
      "addr:housenumber": "16",
      "addr:postcode": "45140-000",
      "addr:street": "Rua do Mercado",
      "addr:suburb": "São José",
      "building": "yes"
      },
      "geometry": {
         "type": "Point",
         "coordinates": [-40.1014179,-15.0892968]
      }
    },
    {
      "type": "Feature",
      "properties": { 
      "IBGE:COD_UNICO_ENDERECO": "26014594",
      "addr:housenumber": "63",
      "addr:postcode": "45140-000",
      "addr:street": "Rua Arnaldo J Oliveira",
      "addr:suburb": "Centro",
      "building": "yes"
      },
      "geometry": {
         "type": "Point",
         "coordinates": [-40.6269954,-15.239101]
      }
    },
    {
      "type": "Feature",
      "properties": { 
      "IBGE:COD_UNICO_ENDERECO": "112235980",
      "addr:housenumber": "6",
      "addr:postcode": "45140-000",
      "addr:street": "Estrada da Fazenda Crueu",
      "addr:suburb": "Catolezinho",
      "addr:unit": "Fundos",
      "building": "yes",
      "fixme": "Verificar coordenadas",
      "note": "Sem setor ou quadra no bayface do IBGE 1000-0014P-0-76"
      },
      "geometry": {
         "type": "Point",
         "coordinates": [-40.284554,-15.191138]
      }
    },
    {
      "type": "Feature",
      "properties": { 
      "IBGE:COD_UNICO_ENDERECO": "26015716",
      "addr:housenumber": "222",
      "addr:postcode": "45140-000",
      "addr:street": "Rua Ruy Barbosa",
      "addr:suburb": "Centro",
      "building": "yes"
      },
      "geometry": {
         "type": "Point",
         "coordinates": [-40.6215168,-15.2413742]
      }
    },
    {
      "type": "Feature",
      "properties": { 
      "IBGE:COD_UNICO_ENDERECO": "26019385",
      "addr:housenumber": "397",
      "addr:postcode": "45140-000",
      "addr:street": "Rua Gentil Flores",
      "addr:suburb": "Centro",
      "building": "yes"
      },
      "geometry": {
         "type": "Point",
         "coordinates": [-40.6275925,-15.2441139]
      }
    },
    {
      "type": "Feature",
      "properties": { 
      "IBGE:COD_UNICO_ENDERECO": "24783638",
      "addr:housenumber": "50 B",
      "addr:postcode": "45140-000",
      "addr:street": "Fazenda Colônia",
      "addr:suburb": "São José do Colônia",
      "addr:unit": "Casa",
      "building": "yes",
      "fixme": "Verificar coordenadas",
      "note": "Sem setor ou quadra no bayface do IBGE 1500-0006P-0-68"
      },
      "geometry": {
         "type": "Point",
         "coordinates": [-40.125114,-15.047403]
      }
    },
    {
      "type": "Feature",
      "properties": { 
      "IBGE:COD_UNICO_ENDERECO": "24783392",
      "addr:housenumber": "34",
      "addr:postcode": "45140-000",
      "addr:street": "Rua Itororó",
      "addr:suburb": "São José",
      "addr:unit": "Casa",
      "building": "yes"
      },
      "geometry": {
         "type": "Point",
         "coordinates": [-40.1017276,-15.0881971]
      }
    },
    {
      "type": "Feature",
      "properties": { 
      "IBGE:COD_UNICO_ENDERECO": "26018803",
      "addr:housenumber": "425",
      "addr:postcode": "45140-000",
      "addr:street": "Travessa Edwardo Carvalho",
      "addr:suburb": "Bela Vista",
      "building": "yes"
      },
      "geometry": {
         "type": "Point",
         "coordinates": [-40.6249977,-15.245795]
      }
    },
    {
      "type": "Feature",
      "properties": { 
      "IBGE:COD_UNICO_ENDERECO": "26019414",
      "addr:housenumber": "65",
      "addr:postcode": "45140-000",
      "addr:street": "Avenida Castro Alves",
      "addr:suburb": "Centro",
      "building": "yes"
      },
      "geometry": {
         "type": "Point",
         "coordinates": [-40.6268859,-15.2442721]
      }
    },
    {
      "type": "Feature",
      "properties": { 
      "IBGE:COD_UNICO_ENDERECO": "112237415",
      "addr:housenumber": "76",
      "addr:postcode": "45140-000",
      "addr:street": "Rodovia BA-263",
      "addr:suburb": "Itambé",
      "building": "yes",
      "fixme": "Verificar coordenadas",
      "note": "Sem setor ou quadra no bayface do IBGE 0500-0020P-0-188"
      },
      "geometry": {
         "type": "Point",
         "coordinates": [-40.684738,-15.100092]
      }
    },
    {
      "type": "Feature",
      "properties": { 
      "IBGE:COD_UNICO_ENDERECO": "26019661",
      "addr:housenumber": "22",
      "addr:postcode": "45140-000",
      "addr:street": "Rua Régis Pacheco",
      "addr:suburb": "Centro",
      "building": "yes"
      },
      "geometry": {
         "type": "Point",
         "coordinates": [-40.6247031,-15.2384095]
      }
    },
    {
      "type": "Feature",
      "properties": { 
      "IBGE:COD_UNICO_ENDERECO": "112232785",
      "addr:housenumber": "1",
      "addr:postcode": "45140-000",
      "addr:street": "Estrada Brejinho",
      "addr:suburb": "Fazenda Santo Antônio",
      "building": "yes",
      "fixme": "Verificar coordenadas",
      "note": "Sem setor ou quadra no bayface do IBGE 0500-0048P-0-74"
      },
      "geometry": {
         "type": "Point",
         "coordinates": [-40.765352,-15.163012]
      }
    },
    {
      "type": "Feature",
      "properties": { 
      "IBGE:COD_UNICO_ENDERECO": "191362299",
      "addr:housenumber": "15",
      "addr:postcode": "45140-000",
      "addr:street": "Fazenda Fazenda José Jacinto",
      "addr:suburb": "José Jacinto",
      "building": "yes",
      "fixme": "Verificar coordenadas",
      "note": "Sem setor ou quadra no bayface do IBGE 0500-0047P-0-78"
      },
      "geometry": {
         "type": "Point",
         "coordinates": [-40.58558,-15.11335]
      }
    },
    {
      "type": "Feature",
      "properties": { 
      "IBGE:COD_UNICO_ENDERECO": "112235824",
      "addr:housenumber": "1",
      "addr:postcode": "45140-000",
      "addr:street": "Estrada de Itambé para Catolezinho",
      "addr:suburb": "Catolezinho",
      "building": "yes",
      "fixme": "Verificar coordenadas",
      "note": "Sem setor ou quadra no bayface do IBGE 0500-0052P-0-79"
      },
      "geometry": {
         "type": "Point",
         "coordinates": [-40.566996,-15.190861]
      }
    },
    {
      "type": "Feature",
      "properties": { 
      "IBGE:COD_UNICO_ENDERECO": "26013276",
      "addr:housenumber": "34",
      "addr:postcode": "45140-000",
      "addr:street": "Rua Padre Justino M Russolillo",
      "addr:suburb": "Centro",
      "amenity": "restaurant",
      "building": "yes",
      "cuisine": "barbecue",
      "name": "Açougue e Espetinho Jbs",
      "shop": "butcher"
      },
      "geometry": {
         "type": "Point",
         "coordinates": [-40.6225483,-15.2468091]
      }
    },
    {
      "type": "Feature",
      "properties": { 
      "IBGE:COD_UNICO_ENDERECO": "26017506",
      "addr:housenumber": "17",
      "addr:postcode": "45140-000",
      "addr:street": "Fazenda Ipanema",
      "addr:suburb": "Água Fria",
      "building": "yes",
      "fixme": "Verificar coordenadas",
      "note": "Sem setor ou quadra no bayface do IBGE 0500-0020P-0-11"
      },
      "geometry": {
         "type": "Point",
         "coordinates": [-40.689258,-15.086552]
      }
    },
    {
      "type": "Feature",
      "properties": { 
      "IBGE:COD_UNICO_ENDERECO": "26014764",
      "addr:housenumber": "119",
      "addr:postcode": "45140-000",
      "addr:street": "Rua Benjamim G de Sousa",
      "addr:suburb": "Centro",
      "building": "yes"
      },
      "geometry": {
         "type": "Point",
         "coordinates": [-40.6270672,-15.2417353]
      }
    },
    {
      "type": "Feature",
      "properties": { 
      "IBGE:COD_UNICO_ENDERECO": "26015889",
      "addr:housenumber": "93",
      "addr:postcode": "45140-000",
      "addr:street": "Rua Ruy Barbosa",
      "addr:suburb": "Centro",
      "building": "yes"
      },
      "geometry": {
         "type": "Point",
         "coordinates": [-40.6209332,-15.2423804]
      }
    },
    {
      "type": "Feature",
      "properties": { 
      "IBGE:COD_UNICO_ENDERECO": "26020008",
      "addr:housenumber": "120",
      "addr:postcode": "45140-000",
      "addr:street": "Rua Padre Pólito",
      "addr:suburb": "Centro",
      "building": "yes"
      },
      "geometry": {
         "type": "Point",
         "coordinates": [-40.6197094,-15.2468058]
      }
    },
    {
      "type": "Feature",
      "properties": { 
      "IBGE:COD_UNICO_ENDERECO": "112237745",
      "addr:housenumber": "15",
      "addr:postcode": "45140-000",
      "addr:street": "Estrada da Jussara",
      "addr:suburb": "Jussara",
      "building": "yes",
      "fixme": "Verificar coordenadas",
      "note": "Sem setor ou quadra no bayface do IBGE 0500-0020P-0-179"
      },
      "geometry": {
         "type": "Point",
         "coordinates": [-40.71448,-15.149875]
      }
    },
    {
      "type": "Feature",
      "properties": { 
      "IBGE:COD_UNICO_ENDERECO": "24783256",
      "addr:housenumber": "13",
      "addr:postcode": "45140-000",
      "addr:street": "Rua Francisco Gonçalves",
      "addr:suburb": "São José",
      "addr:unit": "Casa",
      "building": "yes"
      },
      "geometry": {
         "type": "Point",
         "coordinates": [-40.1011348,-15.0900879]
      }
    },
    {
      "type": "Feature",
      "properties": { 
      "IBGE:COD_UNICO_ENDERECO": "26020893;26020895;26020898",
      "addr:housenumber": "21",
      "addr:postcode": "45140-000",
      "addr:street": "Rua 07 de Setembro",
      "addr:suburb": "Catolezinho",
      "building": "yes"
      },
      "geometry": {
         "type": "Point",
         "coordinates": [-40.4448867,-15.1151615]
      }
    },
    {
      "type": "Feature",
      "properties": { 
      "IBGE:COD_UNICO_ENDERECO": "26015327",
      "addr:housenumber": "254",
      "addr:postcode": "45140-000",
      "addr:street": "Rua Josafá Azevedo",
      "addr:suburb": "Centro",
      "building": "yes"
      },
      "geometry": {
         "type": "Point",
         "coordinates": [-40.6256517,-15.2363976]
      }
    },
    {
      "type": "Feature",
      "properties": { 
      "IBGE:COD_UNICO_ENDERECO": "26013744",
      "addr:housenumber": "322",
      "addr:postcode": "45140-000",
      "addr:street": "Avenida Piauí",
      "addr:suburb": "Sidnei de Almeida",
      "building": "yes"
      },
      "geometry": {
         "type": "Point",
         "coordinates": [-40.6195776,-15.2489025]
      }
    },
    {
      "type": "Feature",
      "properties": { 
      "IBGE:COD_UNICO_ENDERECO": "26013912",
      "addr:housenumber": "491",
      "addr:postcode": "45140-000",
      "addr:street": "Avenida Itapetinga",
      "addr:suburb": "Sidnei de Almeida",
      "building": "yes"
      },
      "geometry": {
         "type": "Point",
         "coordinates": [-40.6183358,-15.251667]
      }
    },
    {
      "type": "Feature",
      "properties": { 
      "IBGE:COD_UNICO_ENDERECO": "191162873",
      "addr:housenumber": "45060923",
      "addr:postcode": "45140-000",
      "addr:street": "Estrada Rio Colônia",
      "addr:suburb": "São José do Colônia",
      "addr:unit": "Pipe",
      "building": "yes",
      "fixme": "Verificar coordenadas",
      "note": "Sem setor ou quadra no bayface do IBGE 1500-0006P-0-70"
      },
      "geometry": {
         "type": "Point",
         "coordinates": [-40.101066,-15.078831]
      }
    },
    {
      "type": "Feature",
      "properties": { 
      "IBGE:COD_UNICO_ENDERECO": "26021630",
      "addr:housenumber": "309",
      "addr:postcode": "45140-000",
      "addr:street": "Rua Cassiano Ferraz",
      "addr:suburb": "Centro",
      "addr:unit": "Casa B",
      "building": "yes"
      },
      "geometry": {
         "type": "Point",
         "coordinates": [-40.4439638,-15.115546]
      }
    },
    {
      "type": "Feature",
      "properties": { 
      "IBGE:COD_UNICO_ENDERECO": "26016219",
      "addr:housenumber": "50",
      "addr:postcode": "45140-000",
      "addr:street": "Alameda Paulo Achi",
      "addr:suburb": "Centro",
      "addr:unit": "Anexo A",
      "building": "yes",
      "description": "CNEFE 2022 Loja de Roupas",
      "shop": "clothes"
      },
      "geometry": {
         "type": "Point",
         "coordinates": [-40.6196963,-15.2440748]
      }
    },
    {
      "type": "Feature",
      "properties": { 
      "IBGE:COD_UNICO_ENDERECO": "216621253",
      "addr:housenumber": "361",
      "addr:postcode": "45140-000",
      "addr:street": "Rua Manoel Alves Texeira",
      "addr:suburb": "Centro",
      "building": "yes"
      },
      "geometry": {
         "type": "Point",
         "coordinates": [-40.6222143,-15.2469005]
      }
    },
    {
      "type": "Feature",
      "properties": { 
      "IBGE:COD_UNICO_ENDERECO": "223882463",
      "addr:housenumber": "258",
      "addr:postcode": "45140-000",
      "addr:street": "Rua Barão A",
      "addr:suburb": "Bela Vista",
      "building": "yes",
      "hairdresser": "barber",
      "name": "Barbearia Vitória",
      "shop": "hairdresser"
      },
      "geometry": {
         "type": "Point",
         "coordinates": [-40.6291658,-15.2440821]
      }
    },
    {
      "type": "Feature",
      "properties": { 
      "IBGE:COD_UNICO_ENDERECO": "191157818",
      "addr:housenumber": "110",
      "addr:postcode": "45140-000",
      "addr:street": "Rua 1 das Populares",
      "addr:suburb": "Durvalina Andrade",
      "building": "yes",
      "fixme": "Verificar coordenadas",
      "note": "Sem face no bayface do IBGE 0500-0009P-17-1"
      },
      "geometry": {
         "type": "Point",
         "coordinates": [-40.628618,-15.243584]
      }
    },
    {
      "type": "Feature",
      "properties": { 
      "IBGE:COD_UNICO_ENDERECO": "24783283",
      "addr:housenumber": "13",
      "addr:postcode": "45140-000",
      "addr:street": "Rua Itororó",
      "addr:suburb": "São José",
      "building": "yes"
      },
      "geometry": {
         "type": "Point",
         "coordinates": [-40.1009625,-15.0881658]
      }
    },
    {
      "type": "Feature",
      "properties": { 
      "IBGE:COD_UNICO_ENDERECO": "191157969",
      "addr:housenumber": "240",
      "addr:postcode": "45145-000",
      "addr:street": "Rua P",
      "addr:suburb": "Jardim Vitória",
      "building": "construction",
      "fixme": "Verificar coordenadas",
      "note": "Sem face no bayface do IBGE 0500-0009P-19-11"
      },
      "geometry": {
         "type": "Point",
         "coordinates": [-40.629729,-15.240402]
      }
    },
    {
      "type": "Feature",
      "properties": { 
      "IBGE:COD_UNICO_ENDERECO": "26016373",
      "addr:housenumber": "16",
      "addr:postcode": "45140-000",
      "addr:street": "Rua Paraná",
      "addr:suburb": "Felipe Achy",
      "building": "yes"
      },
      "geometry": {
         "type": "Point",
         "coordinates": [-40.6257723,-15.2554183]
      }
    },
    {
      "type": "Feature",
      "properties": { 
      "IBGE:COD_UNICO_ENDERECO": "26019460",
      "addr:housenumber": "180",
      "addr:postcode": "45140-000",
      "addr:street": "Rua Manuel Novais",
      "addr:suburb": "Centro",
      "building": "yes"
      },
      "geometry": {
         "type": "Point",
         "coordinates": [-40.6276393,-15.2456043]
      }
    },
    {
      "type": "Feature",
      "properties": { 
      "IBGE:COD_UNICO_ENDERECO": "223703582",
      "addr:housenumber": "33 C",
      "addr:postcode": "45140-000",
      "addr:street": "Rua das Populares",
      "addr:suburb": "Centro",
      "building": "yes"
      },
      "geometry": {
         "type": "Point",
         "coordinates": [-40.628396,-15.2437146]
      }
    },
    {
      "type": "Feature",
      "properties": { 
      "IBGE:COD_UNICO_ENDERECO": "26013756",
      "addr:housenumber": "311",
      "addr:postcode": "45140-000",
      "addr:street": "Avenida Piauí",
      "addr:suburb": "Sidnei de Almeida",
      "building": "yes"
      },
      "geometry": {
         "type": "Point",
         "coordinates": [-40.61972,-15.2487307]
      }
    },
    {
      "type": "Feature",
      "properties": { 
      "IBGE:COD_UNICO_ENDERECO": "112238457",
      "addr:housenumber": "13",
      "addr:postcode": "45140-000",
      "addr:street": "Estrada da Patagônia",
      "addr:suburb": "Jussara",
      "building": "yes",
      "fixme": "Verificar coordenadas",
      "note": "Sem setor ou quadra no bayface do IBGE 0500-0020P-0-182"
      },
      "geometry": {
         "type": "Point",
         "coordinates": [-40.708534,-15.140632]
      }
    },
    {
      "type": "Feature",
      "properties": { 
      "IBGE:COD_UNICO_ENDERECO": "26016259",
      "addr:housenumber": "64",
      "addr:postcode": "45140-000",
      "addr:street": "Rua Rua Brasília",
      "addr:suburb": "Felipe Achy",
      "building": "yes"
      },
      "geometry": {
         "type": "Point",
         "coordinates": [-40.6266042,-15.2532617]
      }
    },
    {
      "type": "Feature",
      "properties": { 
      "IBGE:COD_UNICO_ENDERECO": "26020864",
      "addr:housenumber": "28",
      "addr:postcode": "45140-000",
      "addr:street": "Travessa do Oriente",
      "addr:suburb": "Catolezinho",
      "building": "yes"
      },
      "geometry": {
         "type": "Point",
         "coordinates": [-40.4437017,-15.1136877]
      }
    },
    {
      "type": "Feature",
      "properties": { 
      "IBGE:COD_UNICO_ENDERECO": "89980140",
      "addr:housenumber": "532",
      "addr:postcode": "45140-000",
      "addr:street": "Rua Capitão Veloso",
      "addr:suburb": "Felipe Achy",
      "building": "yes"
      },
      "geometry": {
         "type": "Point",
         "coordinates": [-40.6273604,-15.2565292]
      }
    },
    {
      "type": "Feature",
      "properties": { 
      "IBGE:COD_UNICO_ENDERECO": "219556684",
      "addr:housenumber": "96",
      "addr:postcode": "45140-000",
      "addr:street": "Rua Domício Teixeira",
      "addr:suburb": "Felipe Achy",
      "building": "yes"
      },
      "geometry": {
         "type": "Point",
         "coordinates": [-40.624704,-15.2540413]
      }
    },
    {
      "type": "Feature",
      "properties": { 
      "IBGE:COD_UNICO_ENDERECO": "26018832",
      "addr:housenumber": "64",
      "addr:postcode": "45140-000",
      "addr:street": "Rua Auterives Maciel",
      "addr:suburb": "Bela Vista",
      "building": "yes"
      },
      "geometry": {
         "type": "Point",
         "coordinates": [-40.6261832,-15.2463449]
      }
    },
    {
      "type": "Feature",
      "properties": { 
      "IBGE:COD_UNICO_ENDERECO": "26021072",
      "addr:housenumber": "17",
      "addr:postcode": "45140-000",
      "addr:street": "Rua 07 de Setembro",
      "addr:suburb": "Catolezinho",
      "building": "yes"
      },
      "geometry": {
         "type": "Point",
         "coordinates": [-40.4445928,-15.1154898]
      }
    },
    {
      "type": "Feature",
      "properties": { 
      "IBGE:COD_UNICO_ENDERECO": "26014460",
      "addr:housenumber": "39",
      "addr:postcode": "45140-000",
      "addr:street": "Travessa Otávio Mangabeira",
      "addr:suburb": "Bela Vista",
      "building": "yes"
      },
      "geometry": {
         "type": "Point",
         "coordinates": [-40.6262535,-15.24536]
      }
    },
    {
      "type": "Feature",
      "properties": { 
      "IBGE:COD_UNICO_ENDERECO": "26014606",
      "addr:housenumber": "890",
      "addr:postcode": "45140-000",
      "addr:street": "Rua Rogério Gusmão",
      "addr:suburb": "Centro",
      "building": "yes"
      },
      "geometry": {
         "type": "Point",
         "coordinates": [-40.6271962,-15.2393774]
      }
    },
    {
      "type": "Feature",
      "properties": { 
      "IBGE:COD_UNICO_ENDERECO": "26013666",
      "addr:housenumber": "266",
      "addr:postcode": "45140-000",
      "addr:street": "Avenida Padre Juraci Mendes",
      "addr:suburb": "Sidnei de Almeida",
      "building": "yes"
      },
      "geometry": {
         "type": "Point",
         "coordinates": [-40.6182167,-15.2496404]
      }
    },
    {
      "type": "Feature",
      "properties": { 
      "IBGE:COD_UNICO_ENDERECO": "191162962",
      "addr:housenumber": "13",
      "addr:postcode": "45140-000",
      "addr:street": "Fazenda Cajazeira",
      "addr:suburb": "São José do Colônia",
      "addr:unit": "Casa",
      "building": "yes",
      "fixme": "Verificar coordenadas",
      "name": "Cajazeira",
      "note": "Sem setor ou quadra no bayface do IBGE 1500-0006P-0-75"
      },
      "geometry": {
         "type": "Point",
         "coordinates": [-40.10567,-15.070969]
      }
    },
    {
      "type": "Feature",
      "properties": { 
      "IBGE:COD_UNICO_ENDERECO": "26014607",
      "addr:housenumber": "826",
      "addr:postcode": "45140-000",
      "addr:street": "Rua Rogério Gusmão",
      "addr:suburb": "Centro",
      "building": "yes"
      },
      "geometry": {
         "type": "Point",
         "coordinates": [-40.6270929,-15.2396069]
      }
    },
    {
      "type": "Feature",
      "properties": { 
      "IBGE:COD_UNICO_ENDERECO": "26015840",
      "addr:housenumber": "25",
      "addr:postcode": "45140-000",
      "addr:street": "Rua Edvaldo Flores",
      "addr:suburb": "Centro",
      "building": "yes"
      },
      "geometry": {
         "type": "Point",
         "coordinates": [-40.6224355,-15.2416026]
      }
    },
    {
      "type": "Feature",
      "properties": { 
      "IBGE:COD_UNICO_ENDERECO": "216621150",
      "addr:housenumber": "9",
      "addr:postcode": "45140-000",
      "addr:street": "Rua Manoel Alves Texeira",
      "addr:suburb": "Centro",
      "building": "yes"
      },
      "geometry": {
         "type": "Point",
         "coordinates": [-40.6194469,-15.2455729]
      }
    },
    {
      "type": "Feature",
      "properties": { 
      "IBGE:COD_UNICO_ENDERECO": "26014729",
      "addr:housenumber": "597",
      "addr:postcode": "45140-000",
      "addr:street": "Rua Rogério Gusmão",
      "addr:suburb": "Centro",
      "building": "yes"
      },
      "geometry": {
         "type": "Point",
         "coordinates": [-40.6262322,-15.2412058]
      }
    },
    {
      "type": "Feature",
      "properties": { 
      "IBGE:COD_UNICO_ENDERECO": "26016478",
      "addr:housenumber": "8",
      "addr:postcode": "45140-000",
      "addr:street": "Rua Manuel Menezes",
      "addr:suburb": "Felipe Achy",
      "amenity": "place_of_worship",
      "building": "yes",
      "name": "Congrgacao Cristã no Brasil"
      },
      "geometry": {
         "type": "Point",
         "coordinates": [-40.6269765,-15.2537717]
      }
    },
    {
      "type": "Feature",
      "properties": { 
      "IBGE:COD_UNICO_ENDERECO": "26013357",
      "addr:housenumber": "67",
      "addr:postcode": "45140-000",
      "addr:street": "Avenida Esperança",
      "addr:suburb": "Centro",
      "addr:unit": "Casa",
      "building": "yes"
      },
      "geometry": {
         "type": "Point",
         "coordinates": [-40.6235737,-15.2497775]
      }
    },
    {
      "type": "Feature",
      "properties": { 
      "IBGE:COD_UNICO_ENDERECO": "26013334",
      "addr:housenumber": "71",
      "addr:postcode": "45140-000",
      "addr:street": "Rua Francisco Vasconcelos",
      "addr:suburb": "Centro",
      "building": "yes"
      },
      "geometry": {
         "type": "Point",
         "coordinates": [-40.6243533,-15.2500417]
      }
    },
    {
      "type": "Feature",
      "properties": { 
      "IBGE:COD_UNICO_ENDERECO": "190957515",
      "addr:housenumber": "635",
      "addr:postcode": "45140-000",
      "addr:street": "Rua Dom Pedro II",
      "addr:suburb": "São José",
      "building": "yes"
      },
      "geometry": {
         "type": "Point",
         "coordinates": [-40.1008153,-15.0863473]
      }
    },
    {
      "type": "Feature",
      "properties": { 
      "IBGE:COD_UNICO_ENDERECO": "190956447",
      "addr:housenumber": "163",
      "addr:postcode": "45140-000",
      "addr:street": "Rua Benjamim G de Sousa",
      "addr:suburb": "Centro",
      "building": "yes"
      },
      "geometry": {
         "type": "Point",
         "coordinates": [-40.6274421,-15.2420762]
      }
    },
    {
      "type": "Feature",
      "properties": { 
      "IBGE:COD_UNICO_ENDERECO": "26014699",
      "addr:housenumber": "90",
      "addr:postcode": "45140-000",
      "addr:street": "Rua Castro Alves",
      "addr:suburb": "Centro",
      "building": "yes"
      },
      "geometry": {
         "type": "Point",
         "coordinates": [-40.6244957,-15.2424609]
      }
    },
    {
      "type": "Feature",
      "properties": { 
      "IBGE:COD_UNICO_ENDERECO": "26017024",
      "addr:housenumber": "60",
      "addr:postcode": "45140-000",
      "addr:street": "Fazenda Dois Rios Forte Lida",
      "addr:suburb": "Catolezinha",
      "addr:unit": "Casa",
      "building": "yes",
      "fixme": "Verificar coordenadas",
      "note": "Sem setor ou quadra no bayface do IBGE 0500-0016P-0-16"
      },
      "geometry": {
         "type": "Point",
         "coordinates": [-40.475585,-15.105035]
      }
    },
    {
      "type": "Feature",
      "properties": { 
      "IBGE:COD_UNICO_ENDERECO": "26019186",
      "addr:housenumber": "35",
      "addr:postcode": "45140-000",
      "addr:street": "Rua Josefina Ferraz",
      "addr:suburb": "Centro",
      "building": "yes"
      },
      "geometry": {
         "type": "Point",
         "coordinates": [-40.6262508,-15.2388703]
      }
    },