{
  "type": "FeatureCollection",
  "source": "IBGE CNEFE + Faces de Logradouros - 2022",
  "generator": "CSV-CNEFE2GeoJSON.lua 1.5.7 - fidelis.assis@gmail.com",
  "date": "2025-02-02T09:40:53-0300",
  "features": [
    {
      "type": "Feature",
      "properties": { 
      "IBGE:COD_UNICO_ENDERECO": "192686361",
      "addr:housenumber": "90",
      "addr:postcode": "44150-000",
      "addr:street": "Rua Quinta sem Denominação",
      "addr:suburb": "Pedra do Fogo",
      "building": "yes",
      "fixme": "Verificar coordenadas",
      "note": "Sem setor ou quadra no bayface do IBGE 0500-0012P-0-114"
      },
      "geometry": {
         "type": "Point",
         "coordinates": [-38.9861,-11.934608]
      }
    },
    {
      "type": "Feature",
      "properties": { 
      "IBGE:COD_UNICO_ENDERECO": "192201262",
      "addr:housenumber": "4",
      "addr:postcode": "44150-000",
      "addr:street": "Estrada BR-324",
      "addr:suburb": "Saco do Capitão",
      "building": "yes",
      "fixme": "Verificar coordenadas",
      "note": "Sem setor ou quadra no bayface do IBGE 0500-0025P-0-51"
      },
      "geometry": {
         "type": "Point",
         "coordinates": [-39.002028,-12.041538]
      }
    },
    {
      "type": "Feature",
      "properties": { 
      "IBGE:COD_UNICO_ENDERECO": "29543638",
      "addr:housenumber": "50",
      "addr:postcode": "44150-000",
      "addr:street": "Rua João Venerável de Oliveira",
      "addr:suburb": "Matadouro",
      "building": "yes"
      },
      "geometry": {
         "type": "Point",
         "coordinates": [-38.9769488,-11.9576288]
      }
    },
    {
      "type": "Feature",
      "properties": { 
      "IBGE:COD_UNICO_ENDERECO": "29543934",
      "addr:housenumber": "8",
      "addr:postcode": "44150-000",
      "addr:street": "Rua Édna de Lima Pires",
      "addr:suburb": "Terra Santa",
      "building": "yes"
      },
      "geometry": {
         "type": "Point",
         "coordinates": [-38.976737,-11.9451053]
      }
    },
    {
      "type": "Feature",
      "properties": { 
      "IBGE:COD_UNICO_ENDERECO": "29544341",
      "addr:housenumber": "223",
      "addr:postcode": "44150-000",
      "addr:street": "Rua José Alves dos Santos",
      "addr:suburb": "Centro",
      "building": "yes"
      },
      "geometry": {
         "type": "Point",
         "coordinates": [-38.9739222,-11.9539125]
      }
    },
    {
      "type": "Feature",
      "properties": { 
      "IBGE:COD_UNICO_ENDERECO": "29543001",
      "addr:housenumber": "527",
      "addr:postcode": "44150-000",
      "addr:street": "Rua Horácio Gomes do Espírito Santo",
      "addr:suburb": "Matadouro",
      "building": "yes"
      },
      "geometry": {
         "type": "Point",
         "coordinates": [-38.9758394,-11.9582385]
      }
    },
    {
      "type": "Feature",
      "properties": { 
      "IBGE:COD_UNICO_ENDERECO": "29438446",
      "addr:housenumber": "76",
      "addr:postcode": "44150-000",
      "addr:street": "Praça do Lavrador",
      "addr:suburb": "Centro",
      "building": "yes",
      "fixme": "Verificar coordenadas",
      "note": "Sem face no bayface do IBGE 0500-0001P-4-2"
      },
      "geometry": {
         "type": "Point",
         "coordinates": [-38.974624,-11.95691]
      }
    },
    {
      "type": "Feature",
      "properties": { 
      "IBGE:COD_UNICO_ENDERECO": "29543643",
      "addr:housenumber": "90",
      "addr:postcode": "44150-000",
      "addr:street": "Rua João Venerável de Oliveira",
      "addr:suburb": "Matadouro",
      "building": "yes"
      },
      "geometry": {
         "type": "Point",
         "coordinates": [-38.9773588,-11.9576279]
      }
    },
    {
      "type": "Feature",
      "properties": { 
      "IBGE:COD_UNICO_ENDERECO": "29545847",
      "addr:housenumber": "170",
      "addr:postcode": "44150-000",
      "addr:street": "Estrada do Mandacaru e Malhadinha",
      "addr:suburb": "Mandacaru",
      "building": "yes",
      "fixme": "Verificar coordenadas",
      "note": "Sem setor ou quadra no bayface do IBGE 0500-0013P-0-6"
      },
      "geometry": {
         "type": "Point",
         "coordinates": [-38.99577,-11.909355]
      }
    },
    {
      "type": "Feature",
      "properties": { 
      "IBGE:COD_UNICO_ENDERECO": "108935810",
      "addr:housenumber": "30",
      "addr:postcode": "44150-000",
      "addr:street": "Avenida Jocelin Oliveira Campos",
      "addr:suburb": "Matadouro",
      "building": "yes",
      "fixme": "Verificar coordenadas",
      "note": "Sem face no bayface do IBGE 0500-0026P-22-3"
      },
      "geometry": {
         "type": "Point",
         "coordinates": [-38.976927,-11.952465]
      }
    },
    {
      "type": "Feature",
      "properties": { 
      "IBGE:COD_UNICO_ENDERECO": "29544499",
      "addr:housenumber": "516",
      "addr:postcode": "44150-000",
      "addr:suburb": "Kalili",
      "addr:unit": "Fundos",
      "building": "yes"
      },
      "geometry": {
         "type": "Point",
         "coordinates": [-38.9713328,-11.9529881]
      }
    },
    {
      "type": "Feature",
      "properties": { 
      "IBGE:COD_UNICO_ENDERECO": "29549184",
      "addr:housenumber": "140",
      "addr:postcode": "44150-000",
      "addr:street": "2ª Travessa da Rua Maria Maia Freitas",
      "addr:suburb": "Centro",
      "building": "yes",
      "fixme": "Verificar coordenadas",
      "note": "Sem dados para mover para dentro da quadra 0500-0027P-8-2"
      },
      "geometry": {
         "type": "Point",
         "coordinates": [-38.9728851,-11.950819]
      }
    },
    {
      "type": "Feature",
      "properties": { 
      "IBGE:COD_UNICO_ENDERECO": "29546949",
      "addr:housenumber": "180",
      "addr:postcode": "44150-000",
      "addr:street": "Estrada Sentido São Nicolau",
      "addr:suburb": "Candeal Pequeno",
      "building": "yes"
      },
      "geometry": {
         "type": "Point",
         "coordinates": [-38.9958716,-11.8401911]
      }
    },
    {
      "type": "Feature",
      "properties": { 
      "IBGE:COD_UNICO_ENDERECO": "29547401",
      "addr:housenumber": "27",
      "addr:postcode": "44150-000",
      "addr:street": "Aglomerado Fazenda Rogante",
      "addr:suburb": "Rogante",
      "addr:unit": "Fundos Casa C1",
      "building": "yes",
      "fixme": "Verificar coordenadas",
      "note": "Sem setor ou quadra no bayface do IBGE 0500-0040P-0-5"
      },
      "geometry": {
         "type": "Point",
         "coordinates": [-38.941994,-11.899523]
      }
    },
    {
      "type": "Feature",
      "properties": { 
      "IBGE:COD_UNICO_ENDERECO": "192690871",
      "addr:housenumber": "58 C4",
      "addr:postcode": "44150-000",
      "addr:street": "Corredor de Nelsinho",
      "addr:suburb": "Gravatá",
      "building": "yes",
      "fixme": "Verificar coordenadas",
      "note": "Sem face no bayface do IBGE 0500-0042P-16-19"
      },
      "geometry": {
         "type": "Point",
         "coordinates": [-38.98431,-11.983546]
      }
    },
    {
      "type": "Feature",
      "properties": { 
      "IBGE:COD_UNICO_ENDERECO": "29544732",
      "addr:housenumber": "4000",
      "addr:postcode": "44150-000",
      "addr:street": "Estrada Principal da Sucupira",
      "addr:suburb": "Tapera",
      "addr:unit": "Fundos",
      "building": "yes",
      "fixme": "Verificar coordenadas",
      "note": "Sem setor ou quadra no bayface do IBGE 0500-0036P-0-67"
      },
      "geometry": {
         "type": "Point",
         "coordinates": [-38.991832,-12.012975]
      }
    },
    {
      "type": "Feature",
      "properties": { 
      "IBGE:COD_UNICO_ENDERECO": "112646031",
      "addr:housenumber": "6",
      "addr:postcode": "44150-000",
      "addr:street": "Estrada Santa Bárbara Varinhas",
      "addr:suburb": "Varinhas",
      "addr:unit": "Fundos",
      "building": "yes",
      "fixme": "Verificar coordenadas",
      "note": "Sem setor ou quadra no bayface do IBGE 0500-0040P-0-126"
      },
      "geometry": {
         "type": "Point",
         "coordinates": [-38.947144,-11.897747]
      }
    },
    {
      "type": "Feature",
      "properties": { 
      "IBGE:COD_UNICO_ENDERECO": "29545546",
      "addr:housenumber": "3252",
      "addr:postcode": "44150-000",
      "addr:street": "Estrada da Boa Vista",
      "addr:suburb": "Boa Vista",
      "building": "yes",
      "fixme": "Verificar coordenadas",
      "note": "Sem setor ou quadra no bayface do IBGE 0500-0012P-0-132"
      },
      "geometry": {
         "type": "Point",
         "coordinates": [-39.028809,-11.934759]
      }
    },
    {
      "type": "Feature",
      "properties": { 
      "IBGE:COD_UNICO_ENDERECO": "29544237",
      "addr:housenumber": "5",
      "addr:postcode": "44150-000",
      "addr:street": "Rua Tito Nunes de Cerqueira",
      "addr:suburb": "Terra Santa",
      "building": "yes"
      },
      "geometry": {
         "type": "Point",
         "coordinates": [-38.9774492,-11.9463005]
      }
    },
    {
      "type": "Feature",
      "properties": { 
      "IBGE:COD_UNICO_ENDERECO": "223612969",
      "addr:housenumber": "20",
      "addr:postcode": "44150-000",
      "addr:street": "Rua Governador Lomanto Júnior",
      "addr:suburb": "Centro",
      "addr:unit": "1",
      "building": "yes"
      },
      "geometry": {
         "type": "Point",
         "coordinates": [-38.973936,-11.9607187]
      }
    },
    {
      "type": "Feature",
      "properties": { 
      "IBGE:COD_UNICO_ENDERECO": "29547405",
      "addr:housenumber": "25",
      "addr:postcode": "44150-000",
      "addr:street": "Fazenda Candeal Estrela",
      "addr:suburb": "Candeal Estrela",
      "addr:unit": "Fundos Casa",
      "building": "yes",
      "fixme": "Verificar coordenadas",
      "note": "Sem setor ou quadra no bayface do IBGE 0500-0040P-0-1"
      },
      "geometry": {
         "type": "Point",
         "coordinates": [-38.940042,-11.928399]
      }
    },
    {
      "type": "Feature",
      "properties": { 
      "IBGE:COD_UNICO_ENDERECO": "29549065",
      "addr:housenumber": "215",
      "addr:postcode": "44150-000",
      "addr:street": "5ª Travessa da Rua Daniel Costa",
      "addr:suburb": "Terra Santa",
      "addr:unit": "Fundos",
      "building": "yes",
      "fixme": "Verificar coordenadas",
      "note": "Sem face no bayface do IBGE 0500-0027P-26-12"
      },
      "geometry": {
         "type": "Point",
         "coordinates": [-38.974148,-11.944096]
      }
    },
    {
      "type": "Feature",
      "properties": { 
      "IBGE:COD_UNICO_ENDERECO": "29546633",
      "addr:housenumber": "111 Frente",
      "addr:postcode": "44150-000",
      "addr:street": "Rua Governador Lomanto Júnior",
      "addr:suburb": "Centro",
      "building": "yes"
      },
      "geometry": {
         "type": "Point",
         "coordinates": [-38.9742416,-11.9594734]
      }
    },
    {
      "type": "Feature",
      "properties": { 
      "IBGE:COD_UNICO_ENDERECO": "223798390",
      "addr:housenumber": "44",
      "addr:postcode": "44150-000",
      "addr:street": "Travessa Marcelina Maria de Jesus 2",
      "addr:suburb": "Terra Santa",
      "addr:unit": "Fundos",
      "building": "yes",
      "fixme": "Verificar coordenadas",
      "note": "Sem face no bayface do IBGE 0500-0027P-3-7"
      },
      "geometry": {
         "type": "Point",
         "coordinates": [-38.974833,-11.942526]
      }
    },
    {
      "type": "Feature",
      "properties": { 
      "IBGE:COD_UNICO_ENDERECO": "29545535",
      "addr:housenumber": "52",
      "addr:postcode": "44150-000",
      "addr:street": "Fazenda Boa Vista",
      "addr:suburb": "Boa Vista",
      "amenity": "school",
      "building": "yes",
      "fixme": "Verificar coordenadas",
      "name": "Escola João Venerável de Oliveira",
      "note": "Sem setor ou quadra no bayface do IBGE 0500-0012P-0-6"
      },
      "geometry": {
         "type": "Point",
         "coordinates": [-39.035237,-11.936754]
      }
    },
    {
      "type": "Feature",
      "properties": { 
      "IBGE:COD_UNICO_ENDERECO": "29546397",
      "addr:housenumber": "444",
      "addr:postcode": "44150-000",
      "addr:street": "Estrada Para São Nicolau",
      "addr:suburb": "Noventa",
      "building": "yes",
      "fixme": "Verificar coordenadas",
      "note": "Sem dados para mover para dentro da quadra 0500-0015P-2-7"
      },
      "geometry": {
         "type": "Point",
         "coordinates": [-39.023686,-11.8814163]
      }
    },
    {
      "type": "Feature",
      "properties": { 
      "IBGE:COD_UNICO_ENDERECO": "29546593",
      "addr:housenumber": "32",
      "addr:postcode": "44150-000",
      "addr:street": "Rua Governador Lomanto Júnior",
      "addr:suburb": "Centro",
      "addr:unit": "Fundos",
      "building": "yes"
      },
      "geometry": {
         "type": "Point",
         "coordinates": [-38.9745635,-11.9583908]
      }
    },
    {
      "type": "Feature",
      "properties": { 
      "IBGE:COD_UNICO_ENDERECO": "29439481",
      "addr:housenumber": "240",
      "addr:postcode": "44150-000",
      "addr:street": "Rua Luísa de Moraes de Carneiro",
      "addr:suburb": "Alto da Bela Vista",
      "building": "yes",
      "fixme": "Verificar coordenadas",
      "note": "Sem dados para mover para dentro da quadra 0500-0004P-4-36"
      },
      "geometry": {
         "type": "Point",
         "coordinates": [-38.9719974,-11.9640515]
      }
    },
    {
      "type": "Feature",
      "properties": { 
      "IBGE:COD_UNICO_ENDERECO": "29548302",
      "addr:housenumber": "29",
      "addr:postcode": "44150-000",
      "addr:street": "Estrada Moco",
      "addr:suburb": "Moco",
      "building": "yes",
      "fixme": "Verificar coordenadas",
      "note": "Sem setor ou quadra no bayface do IBGE 0500-0024P-0-9"
      },
      "geometry": {
         "type": "Point",
         "coordinates": [-38.932252,-11.996266]
      }
    },
    {
      "type": "Feature",
      "properties": { 
      "IBGE:COD_UNICO_ENDERECO": "29547829",
      "addr:housenumber": "69",
      "addr:postcode": "44150-000",
      "addr:street": "Povoado Desterro",
      "addr:suburb": "Desterro",
      "addr:unit": "Fundos",
      "building": "yes",
      "fixme": "Verificar coordenadas",
      "note": "Sem setor ou quadra no bayface do IBGE 0500-0022P-0-5"
      },
      "geometry": {
         "type": "Point",
         "coordinates": [-38.955431,-11.841486]
      }
    },
    {
      "type": "Feature",
      "properties": { 
      "IBGE:COD_UNICO_ENDERECO": "29545359",
      "addr:housenumber": "290 A",
      "addr:postcode": "44150-000",
      "addr:street": "Estrada da Boa Vista",
      "addr:suburb": "Santiago",
      "building": "yes",
      "fixme": "Verificar coordenadas",
      "note": "Sem setor ou quadra no bayface do IBGE 0500-0012P-0-126"
      },
      "geometry": {
         "type": "Point",
         "coordinates": [-39.002377,-11.937604]
      }
    },
    {
      "type": "Feature",
      "properties": { 
      "IBGE:COD_UNICO_ENDERECO": "112642369",
      "addr:housenumber": "49",
      "addr:postcode": "44150-000",
      "addr:street": "Estrada Moco",
      "addr:suburb": "Moco",
      "building": "yes",
      "fixme": "Verificar coordenadas",
      "note": "Sem setor ou quadra no bayface do IBGE 0500-0024P-0-9"
      },
      "geometry": {
         "type": "Point",
         "coordinates": [-38.953949,-12.000887]
      }
    },
    {
      "type": "Feature",
      "properties": { 
      "IBGE:COD_UNICO_ENDERECO": "29543880",
      "addr:housenumber": "205",
      "addr:postcode": "44150-000",
      "addr:street": "Avenida Augusto Simões de Freitas",
      "addr:suburb": "Terra Santa",
      "building": "yes"
      },
      "geometry": {
         "type": "Point",
         "coordinates": [-38.9765512,-11.9440577]
      }
    },
    {
      "type": "Feature",
      "properties": { 
      "IBGE:COD_UNICO_ENDERECO": "192685876",
      "addr:housenumber": "12 C1",
      "addr:postcode": "44150-000",
      "addr:street": "Campo Limpo",
      "addr:suburb": "Campo Limpo",
      "building": "yes",
      "fixme": "Verificar coordenadas",
      "note": "Sem setor ou quadra no bayface do IBGE 0500-0012P-0-8"
      },
      "geometry": {
         "type": "Point",
         "coordinates": [-38.997009,-11.963961]
      }
    },
    {
      "type": "Feature",
      "properties": { 
      "IBGE:COD_UNICO_ENDERECO": "29548731",
      "addr:housenumber": "155",
      "addr:postcode": "44150-000",
      "addr:street": "Rua Isabel Oliveira Lima",
      "addr:suburb": "Matadouro",
      "building": "yes"
      },
      "geometry": {
         "type": "Point",
         "coordinates": [-38.9793162,-11.956861]
      }
    },
    {
      "type": "Feature",
      "properties": { 
      "IBGE:COD_UNICO_ENDERECO": "29546522",
      "addr:housenumber": "616",
      "addr:postcode": "44150-000",
      "addr:street": "Avenida Juscelino Oliveira Campos",
      "addr:suburb": "Centro",
      "building": "yes",
      "name": "Oficina e Borracharia",
      "repair": "yes",
      "shop": "tyres"
      },
      "geometry": {
         "type": "Point",
         "coordinates": [-38.9755678,-11.9573903]
      }
    },
    {
      "type": "Feature",
      "properties": { 
      "IBGE:COD_UNICO_ENDERECO": "29542964",
      "addr:housenumber": "25",
      "addr:postcode": "44150-000",
      "addr:street": "Travessa João Maia",
      "addr:suburb": "Matadouro",
      "building": "yes"
      },
      "geometry": {
         "type": "Point",
         "coordinates": [-38.9763445,-11.9575952]
      }
    },
    {
      "type": "Feature",
      "properties": { 
      "IBGE:COD_UNICO_ENDERECO": "29545445",
      "addr:housenumber": "372 A",
      "addr:postcode": "44150-000",
      "addr:street": "Estrada do Campo Limpo",
      "addr:suburb": "Campo Limpo",
      "building": "yes",
      "fixme": "Verificar coordenadas",
      "note": "Sem setor ou quadra no bayface do IBGE 0500-0012P-0-149"
      },
      "geometry": {
         "type": "Point",
         "coordinates": [-38.993354,-11.9587]
      }
    },
    {
      "type": "Feature",
      "properties": { 
      "IBGE:COD_UNICO_ENDERECO": "29543117",
      "addr:housenumber": "235",
      "addr:postcode": "44150-000",
      "addr:street": "Rua Durvalina Carvalho de Oliveira",
      "addr:suburb": "Centro",
      "building": "yes"
      },
      "geometry": {
         "type": "Point",
         "coordinates": [-38.9792039,-11.959411]
      }
    },
    {
      "type": "Feature",
      "properties": { 
      "IBGE:COD_UNICO_ENDERECO": "29547409",
      "addr:housenumber": "32",
      "addr:postcode": "44150-000",
      "addr:street": "Aglomerado Fazenda Rogante",
      "addr:suburb": "Rogante",
      "addr:unit": "Casa C1",
      "building": "yes",
      "fixme": "Verificar coordenadas",
      "note": "Sem setor ou quadra no bayface do IBGE 0500-0040P-0-5"
      },
      "geometry": {
         "type": "Point",
         "coordinates": [-38.938761,-11.897747]
      }
    },
    {
      "type": "Feature",
      "properties": { 
      "IBGE:COD_UNICO_ENDERECO": "221200598",
      "addr:housenumber": "14",
      "addr:postcode": "44150-000",
      "addr:street": "Rua Luís Pereira de Sousa",
      "addr:suburb": "Matadouro",
      "building": "yes"
      },
      "geometry": {
         "type": "Point",
         "coordinates": [-38.9795124,-11.9585028]
      }
    },
    {
      "type": "Feature",
      "properties": { 
      "IBGE:COD_UNICO_ENDERECO": "192742406",
      "addr:housenumber": "5",
      "addr:postcode": "44150-000",
      "addr:street": "Aglomerado Fazenda Rogante",
      "addr:suburb": "Rogante",
      "building": "yes",
      "fixme": "Verificar coordenadas",
      "note": "Sem setor ou quadra no bayface do IBGE 0500-0040P-0-5"
      },
      "geometry": {
         "type": "Point",
         "coordinates": [-38.939081,-11.89612]
      }
    },
    {
      "type": "Feature",
      "properties": { 
      "IBGE:COD_UNICO_ENDERECO": "29439547-29439548",
      "addr:housenumber": "80",
      "addr:postcode": "44150-000",
      "addr:street": "Rua Antônio Carlos Bonfim Leão",
      "addr:suburb": "Alto da Bela Vista",
      "building": "yes"
      },
      "geometry": {
         "type": "Point",
         "coordinates": [-38.9725029,-11.9651846]
      }
    },
    {
      "type": "Feature",
      "properties": { 
      "IBGE:COD_UNICO_ENDERECO": "29439544",
      "addr:housenumber": "90",
      "addr:postcode": "44150-000",
      "addr:street": "Rua Luísa de Moraes de Carneiro",
      "addr:suburb": "Alto da Bela Vista",
      "building": "yes"
      },
      "geometry": {
         "type": "Point",
         "coordinates": [-38.9730064,-11.964471]
      }
    },
    {
      "type": "Feature",
      "properties": { 
      "IBGE:COD_UNICO_ENDERECO": "192740318",
      "addr:housenumber": "19 C6",
      "addr:postcode": "44150-000",
      "addr:street": "Estrada Para O Rogante",
      "addr:suburb": "Rogante",
      "building": "yes",
      "fixme": "Verificar coordenadas",
      "note": "Sem setor ou quadra no bayface do IBGE 0500-0029P-0-151"
      },
      "geometry": {
         "type": "Point",
         "coordinates": [-38.976113,-11.914906]
      }
    },
    {
      "type": "Feature",
      "properties": { 
      "IBGE:COD_UNICO_ENDERECO": "29543729",
      "addr:housenumber": "7",
      "addr:postcode": "44150-000",
      "addr:street": "Rua Daniel Costa Oliveira",
      "addr:suburb": "Terra Santa",
      "building": "yes"
      },
      "geometry": {
         "type": "Point",
         "coordinates": [-38.9758166,-11.943606]
      }
    },
    {
      "type": "Feature",
      "properties": { 
      "IBGE:COD_UNICO_ENDERECO": "112642663",
      "addr:housenumber": "11",
      "addr:postcode": "44150-000",
      "addr:street": "Estrada Boiadeira",
      "addr:suburb": "Fazenda Pindobeira",
      "building": "yes",
      "fixme": "Verificar coordenadas",
      "note": "Sem setor ou quadra no bayface do IBGE 0500-0012P-0-133"
      },
      "geometry": {
         "type": "Point",
         "coordinates": [-39.030341,-11.946101]
      }
    },
    {
      "type": "Feature",
      "properties": { 
      "IBGE:COD_UNICO_ENDERECO": "112645510",
      "addr:housenumber": "17",
      "addr:postcode": "44150-000",
      "addr:street": "Fazenda Juazeiro",
      "addr:suburb": "Juazeiro",
      "addr:unit": "Fundos",
      "amenity": "animal_breeding",
      "animal_breeding": "cow",
      "fixme": "Verificar coordenadas",
      "landuse": "farmyard",
      "name": "Criação de Bois Ivinos",
      "note": "Sem setor ou quadra no bayface do IBGE 0500-0022P-0-75"
      },
      "geometry": {
         "type": "Point",
         "coordinates": [-38.964986,-11.87988]
      }
    },
    {
      "type": "Feature",
      "properties": { 
      "IBGE:COD_UNICO_ENDERECO": "112640461",
      "addr:housenumber": "103",
      "addr:postcode": "44150-000",
      "addr:street": "Estrada Água Pequena",
      "addr:suburb": "Baixa do Cajueiro",
      "building": "yes",
      "fixme": "Verificar coordenadas",
      "note": "Sem setor ou quadra no bayface do IBGE 0500-0024P-0-113"
      },
      "geometry": {
         "type": "Point",
         "coordinates": [-38.965911,-11.988678]
      }
    },
    {
      "type": "Feature",
      "properties": { 
      "IBGE:COD_UNICO_ENDERECO": "192417739",
      "addr:housenumber": "222",
      "addr:postcode": "44150-000",
      "addr:street": "Rua José Alves dos Santos",
      "addr:suburb": "Centro",
      "building": "yes"
      },
      "geometry": {
         "type": "Point",
         "coordinates": [-38.9739016,-11.9539059]
      }
    },
    {
      "type": "Feature",
      "properties": { 
      "IBGE:COD_UNICO_ENDERECO": "112644094",
      "addr:housenumber": "21 C1",
      "addr:postcode": "44150-000",
      "addr:street": "Estrada Liga Mucambo 2 A Rocinha",
      "addr:suburb": "Mucambo 2",
      "building": "yes",
      "fixme": "Verificar coordenadas",
      "note": "Sem setor ou quadra no bayface do IBGE 0500-0029P-0-181"
      },
      "geometry": {
         "type": "Point",
         "coordinates": [-38.965296,-11.887723]
      }
    },
    {
      "type": "Feature",
      "properties": { 
      "IBGE:COD_UNICO_ENDERECO": "97443552",
      "addr:housenumber": "633",
      "addr:postcode": "44150-000",
      "addr:street": "Estrada Para Moco",
      "addr:suburb": "Moco",
      "building": "yes",
      "description": "CNEFE 2022 Sem Nome",
      "fixme": "Verificar coordenadas",
      "note": "Sem setor ou quadra no bayface do IBGE 0500-0030P-0-1"
      },
      "geometry": {
         "type": "Point",
         "coordinates": [-38.964512,-12.004929]
      }
    },
    {
      "type": "Feature",
      "properties": { 
      "IBGE:COD_UNICO_ENDERECO": "29547857",
      "addr:housenumber": "55",
      "addr:postcode": "44150-000",
      "addr:street": "Povoado Desterro",
      "addr:suburb": "Desterro",
      "building": "yes",
      "fixme": "Verificar coordenadas",
      "note": "Sem setor ou quadra no bayface do IBGE 0500-0022P-0-5"
      },
      "geometry": {
         "type": "Point",
         "coordinates": [-38.958302,-11.852621]
      }
    },
    {
      "type": "Feature",
      "properties": { 
      "IBGE:COD_UNICO_ENDERECO": "29545750",
      "addr:housenumber": "25",
      "addr:postcode": "44150-000",
      "addr:street": "Estrada Saco Barbosa",
      "addr:suburb": "Zona Rural",
      "building": "yes",
      "fixme": "Verificar coordenadas",
      "note": "Sem setor ou quadra no bayface do IBGE 0500-0013P-0-2"
      },
      "geometry": {
         "type": "Point",
         "coordinates": [-39.012597,-11.918907]
      }
    },
    {
      "type": "Feature",
      "properties": { 
      "IBGE:COD_UNICO_ENDERECO": "100951872",
      "addr:housenumber": "577",
      "addr:postcode": "44150-000",
      "addr:street": "Rua Manuel Leonildo de Almeida",
      "addr:suburb": "Centro",
      "building": "yes"
      },
      "geometry": {
         "type": "Point",
         "coordinates": [-38.9804361,-11.9586568]
      }
    },
    {
      "type": "Feature",
      "properties": { 
      "IBGE:COD_UNICO_ENDERECO": "192685682",
      "addr:housenumber": "27",
      "addr:postcode": "44150-000",
      "addr:street": "Fazenda Boa Vista",
      "addr:suburb": "Boa Vista",
      "building": "yes",
      "fixme": "Verificar coordenadas",
      "note": "Sem setor ou quadra no bayface do IBGE 0500-0012P-0-6"
      },
      "geometry": {
         "type": "Point",
         "coordinates": [-39.034625,-11.936836]
      }
    },
    {
      "type": "Feature",
      "properties": { 
      "IBGE:COD_UNICO_ENDERECO": "29543561",
      "addr:housenumber": "4",
      "addr:postcode": "44150-000",
      "addr:street": "Avenida Joscelin Oliveira Campos",
      "addr:suburb": "Matadouro",
      "building": "yes",
      "description": "CNEFE 2022 Oficina de Moto",
      "shop": "motorcycle_repair"
      },
      "geometry": {
         "type": "Point",
         "coordinates": [-38.9764694,-11.9554711]
      }
    },
    {
      "type": "Feature",
      "properties": { 
      "IBGE:COD_UNICO_ENDERECO": "29438991",
      "addr:housenumber": "8",
      "addr:postcode": "44150-000",
      "addr:street": "Rua Lomanto Júnior",
      "addr:suburb": "Centro",
      "addr:unit": "Fundos",
      "building": "yes"
      },
      "geometry": {
         "type": "Point",
         "coordinates": [-38.9738964,-11.9599496]
      }
    },
    {
      "type": "Feature",
      "properties": { 
      "IBGE:COD_UNICO_ENDERECO": "218028660",
      "addr:housenumber": "39",
      "addr:postcode": "44150-000",
      "addr:street": "Rua Antônio Barros Evangelista",
      "addr:suburb": "Centro",
      "building": "yes"
      },
      "geometry": {
         "type": "Point",
         "coordinates": [-38.9739166,-11.9583508]
      }
    },
    {
      "type": "Feature",
      "properties": { 
      "IBGE:COD_UNICO_ENDERECO": "98658041",
      "addr:housenumber": "10",
      "addr:postcode": "44150-000",
      "addr:street": "Estrada Para Chapada",
      "addr:suburb": "Chapada",
      "building": "yes",
      "fixme": "Verificar coordenadas",
      "note": "Sem setor ou quadra no bayface do IBGE 0500-0030P-0-2"
      },
      "geometry": {
         "type": "Point",
         "coordinates": [-38.956775,-12.02047]
      }
    },
    {
      "type": "Feature",
      "properties": { 
      "IBGE:COD_UNICO_ENDERECO": "29439368",
      "addr:housenumber": "10",
      "addr:postcode": "44150-000",
      "addr:street": "Rua Izaltina Campos",
      "addr:suburb": "Alto da Bela Vista",
      "building": "yes"
      },
      "geometry": {
         "type": "Point",
         "coordinates": [-38.9730521,-11.9639531]
      }
    },
    {
      "type": "Feature",
      "properties": { 
      "IBGE:COD_UNICO_ENDERECO": "29545685",
      "addr:housenumber": "310",
      "addr:postcode": "44150-000",
      "addr:street": "Pedra Fogo",
      "addr:suburb": "Zona Rural",
      "building": "yes",
      "fixme": "Verificar coordenadas",
      "note": "Sem setor ou quadra no bayface do IBGE 0500-0013P-0-1"
      },
      "geometry": {
         "type": "Point",
         "coordinates": [-38.987218,-11.930938]
      }
    },
    {
      "type": "Feature",
      "properties": { 
      "IBGE:COD_UNICO_ENDERECO": "29545626;29545666",
      "addr:housenumber": "11",
      "addr:postcode": "44150-000",
      "addr:street": "Pedra Fogo",
      "addr:suburb": "Zona Rural",
      "building": "yes",
      "fixme": "Verificar coordenadas",
      "note": "Sem setor ou quadra no bayface do IBGE 0500-0013P-0-1"
      },
      "geometry": {
         "type": "Point",
         "coordinates": [-38.987255,-11.9309225]
      }
    },
    {
      "type": "Feature",
      "properties": { 
      "IBGE:COD_UNICO_ENDERECO": "29438981",
      "addr:housenumber": "60",
      "addr:postcode": "44150-000",
      "addr:street": "Rua Lomanto Júnior",
      "addr:suburb": "Centro",
      "building": "yes"
      },
      "geometry": {
         "type": "Point",
         "coordinates": [-38.9739732,-11.9598672]
      }
    },
    {
      "type": "Feature",
      "properties": { 
      "IBGE:COD_UNICO_ENDERECO": "29546060",
      "addr:housenumber": "5",
      "addr:postcode": "44150-000",
      "addr:street": "Estrada Malhada Nova",
      "addr:suburb": "Malhada Nova",
      "building": "yes",
      "fixme": "Verificar coordenadas",
      "note": "Sem setor ou quadra no bayface do IBGE 0500-0038P-0-6"
      },
      "geometry": {
         "type": "Point",
         "coordinates": [-39.024728,-11.873965]
      }
    },
    {
      "type": "Feature",
      "properties": { 
      "IBGE:COD_UNICO_ENDERECO": "29439005",
      "addr:housenumber": "218",
      "addr:postcode": "44150-000",
      "addr:street": "Avenida Antônio Ribeiro Cunha",
      "addr:suburb": "Centro",
      "building": "yes",
      "description": "CNEFE 2022 Loja de Materiais de Construção",
      "shop": "hardware"
      },
      "geometry": {
         "type": "Point",
         "coordinates": [-38.97362,-11.9595623]
      }
    },
    {
      "type": "Feature",
      "properties": { 
      "IBGE:COD_UNICO_ENDERECO": "29548476",
      "addr:housenumber": "12",
      "addr:postcode": "44150-000",
      "addr:street": "Estrada Estrada Saco Capitão",
      "addr:suburb": "Saco Capitão",
      "addr:unit": "Fundos",
      "building": "yes",
      "fixme": "Verificar coordenadas",
      "note": "Sem setor ou quadra no bayface do IBGE 0500-0025P-0-2"
      },
      "geometry": {
         "type": "Point",
         "coordinates": [-39.003986,-12.044499]
      }
    },
    {
      "type": "Feature",
      "properties": { 
      "IBGE:COD_UNICO_ENDERECO": "29548637",
      "addr:housenumber": "14",
      "addr:postcode": "44150-000",
      "addr:street": "Travessa Joana Angélica 2",
      "addr:suburb": "Matadouro",
      "building": "yes"
      },
      "geometry": {
         "type": "Point",
         "coordinates": [-38.9785052,-11.9563942]
      }
    },
    {
      "type": "Feature",
      "properties": { 
      "IBGE:COD_UNICO_ENDERECO": "108935611",
      "addr:housenumber": "33",
      "addr:postcode": "44150-000",
      "addr:street": "Travessa do Imperador 2",
      "addr:suburb": "Matadouro",
      "building": "yes"
      },
      "geometry": {
         "type": "Point",
         "coordinates": [-38.9772804,-11.9551565]
      }
    },
    {
      "type": "Feature",
      "properties": { 
      "IBGE:COD_UNICO_ENDERECO": "192686756",
      "addr:housenumber": "48",
      "addr:postcode": "44150-000",
      "addr:street": "Estrada da Boa Vista",
      "addr:suburb": "Santiago",
      "amenity": "school",
      "building": "yes",
      "fixme": "Verificar coordenadas",
      "name": "Escola Municipal Nossa Senhora das Graças",
      "note": "Sem setor ou quadra no bayface do IBGE 0500-0012P-0-126"
      },
      "geometry": {
         "type": "Point",
         "coordinates": [-39.00253,-11.937053]
      }
    },
    {
      "type": "Feature",
      "properties": { 
      "IBGE:COD_UNICO_ENDERECO": "29544536",
      "addr:housenumber": "900",
      "addr:postcode": "44150-000",
      "addr:suburb": "Baixada de Carlitao",
      "addr:unit": "Casa",
      "building": "yes",
      "fixme": "Verificar coordenadas",
      "note": "Sem setor ou quadra no bayface do IBGE 0500-0009P-19-3"
      },
      "geometry": {
         "type": "Point",
         "coordinates": [-38.970665,-11.953945]
      }
    },
    {
      "type": "Feature",
      "properties": { 
      "IBGE:COD_UNICO_ENDERECO": "216317649",
      "addr:housenumber": "309",
      "addr:postcode": "44150-000",
      "addr:street": "Rua Lídio de Sousa Estrela",
      "addr:suburb": "Tanque da Nação",
      "building": "yes",
      "fixme": "Verificar coordenadas",
      "note": "Muito afastado da face: 213m 0500-0043P-20-2"
      },
      "geometry": {
         "type": "Point",
         "coordinates": [-38.983334,-11.967997]
      }
    },
    {
      "type": "Feature",
      "properties": { 
      "IBGE:COD_UNICO_ENDERECO": "29641541",
      "addr:housenumber": "12",
      "addr:postcode": "44150-000",
      "addr:street": "Rua do Loteamento Eduardo Santana Lima",
      "addr:suburb": "São Nicolau",
      "building": "yes"
      },
      "geometry": {
         "type": "Point",
         "coordinates": [-39.0637615,-11.8365144]
      }
    },
    {
      "type": "Feature",
      "properties": { 
      "IBGE:COD_UNICO_ENDERECO": "221200555",
      "addr:housenumber": "8",
      "addr:postcode": "44150-000",
      "addr:street": "Travessa Durvalina Carvalho de Oliveira",
      "addr:suburb": "Matadouro",
      "building": "yes"
      },
      "geometry": {
         "type": "Point",
         "coordinates": [-38.9765239,-11.9596291]
      }
    },
    {
      "type": "Feature",
      "properties": { 
      "IBGE:COD_UNICO_ENDERECO": "91163896",
      "addr:housenumber": "77",
      "addr:postcode": "44150-000",
      "addr:street": "Estrada Para Chapada",
      "addr:suburb": "Chapada",
      "addr:unit": "Fundos",
      "building": "yes",
      "fixme": "Verificar coordenadas",
      "note": "Sem setor ou quadra no bayface do IBGE 0500-0030P-0-2"
      },
      "geometry": {
         "type": "Point",
         "coordinates": [-38.95638,-12.018005]
      }
    },
    {
      "type": "Feature",
      "properties": { 
      "IBGE:COD_UNICO_ENDERECO": "29548808",
      "addr:housenumber": "51",
      "addr:postcode": "44150-000",
      "addr:street": "Travessa Isabel Oliveira Lima 2",
      "addr:suburb": "Matadouro",
      "building": "yes"
      },
      "geometry": {
         "type": "Point",
         "coordinates": [-38.9798087,-11.9559809]
      }
    },
    {
      "type": "Feature",
      "properties": { 
      "IBGE:COD_UNICO_ENDERECO": "29546298",
      "addr:housenumber": "15",
      "addr:postcode": "44150-000",
      "addr:street": "Estrada da Curva",
      "addr:suburb": "Borda da Mata",
      "addr:unit": "Anexo 2",
      "amenity": "pub",
      "building": "yes",
      "fixme": "Verificar coordenadas",
      "name": "Bar Hell do Grau",
      "note": "Sem setor ou quadra no bayface do IBGE 0500-0038P-0-11"
      },
      "geometry": {
         "type": "Point",
         "coordinates": [-38.98495,-11.912031]
      }
    },
    {
      "type": "Feature",
      "properties": { 
      "IBGE:COD_UNICO_ENDERECO": "29546926",
      "addr:housenumber": "57",
      "addr:postcode": "44150-000",
      "addr:street": "Estrada Sentido São Nicolau",
      "addr:suburb": "Candeal Pequeno",
      "building": "yes"
      },
      "geometry": {
         "type": "Point",
         "coordinates": [-38.9988816,-11.8386094]
      }
    },
    {
      "type": "Feature",
      "properties": { 
      "IBGE:COD_UNICO_ENDERECO": "29544326",
      "addr:housenumber": "151",
      "addr:postcode": "44150-000",
      "addr:street": "Rua Maria Maia Freitas",
      "addr:suburb": "Kalili",
      "building": "yes"
      },
      "geometry": {
         "type": "Point",
         "coordinates": [-38.9711995,-11.9510782]
      }
    },
    {
      "type": "Feature",
      "properties": { 
      "IBGE:COD_UNICO_ENDERECO": "29438976",
      "addr:housenumber": "14",
      "addr:postcode": "44150-000",
      "addr:street": "Rua Jorge Ribeiro Araújo",
      "addr:suburb": "Centro",
      "addr:unit": "Fundos",
      "building": "public",
      "government": "education",
      "name": "Secretaria Municipal de Educação",
      "office": "government"
      },
      "geometry": {
         "type": "Point",
         "coordinates": [-38.9735513,-11.9616731]
      }
    },
    {
      "type": "Feature",
      "properties": { 
      "IBGE:COD_UNICO_ENDERECO": "192686126",
      "addr:housenumber": "123",
      "addr:postcode": "44150-000",
      "addr:street": "Rua Segunda sem Denominação",
      "addr:suburb": "Pedra do Fogo",
      "building": "yes",
      "fixme": "Verificar coordenadas",
      "note": "Sem setor ou quadra no bayface do IBGE 0500-0012P-0-110"
      },
      "geometry": {
         "type": "Point",
         "coordinates": [-38.986585,-11.935819]
      }
    },
    {
      "type": "Feature",
      "properties": { 
      "IBGE:COD_UNICO_ENDERECO": "29438593",
      "addr:housenumber": "14 Lado",
      "addr:postcode": "44150-000",
      "addr:street": "Rua Carlos da Silva",
      "addr:suburb": "Centro",
      "building": "yes"
      },
      "geometry": {
         "type": "Point",
         "coordinates": [-38.9705099,-11.9560278]
      }
    },
    {
      "type": "Feature",
      "properties": { 
      "IBGE:COD_UNICO_ENDERECO": "29543183",
      "addr:housenumber": "365",
      "addr:postcode": "44150-000",
      "addr:street": "Rua Nossa Senhora do Rosário",
      "addr:suburb": "Centro",
      "building": "yes"
      },
      "geometry": {
         "type": "Point",
         "coordinates": [-38.9783224,-11.9599922]
      }
    },
    {
      "type": "Feature",
      "properties": { 
      "IBGE:COD_UNICO_ENDERECO": "222464021",
      "addr:housenumber": "20",
      "addr:postcode": "44150-000",
      "addr:street": "Avenida Augusto Simões de Freitas",
      "addr:suburb": "Terra Santa",
      "building": "yes"
      },
      "geometry": {
         "type": "Point",
         "coordinates": [-38.9759687,-11.9463419]
      }
    },
    {
      "type": "Feature",
      "properties": { 
      "IBGE:COD_UNICO_ENDERECO": "29547487",
      "addr:housenumber": "45",
      "addr:postcode": "44150-000",
      "addr:street": "Fazenda Lagedo",
      "addr:suburb": "Lajedo",
      "addr:unit": "Casa",
      "building": "yes",
      "fixme": "Verificar coordenadas",
      "note": "Sem setor ou quadra no bayface do IBGE 0500-0041P-0-3"
      },
      "geometry": {
         "type": "Point",
         "coordinates": [-38.940212,-11.866713]
      }
    },
    {
      "type": "Feature",
      "properties": { 
      "IBGE:COD_UNICO_ENDERECO": "29439310",
      "addr:housenumber": "110",
      "addr:postcode": "44150-000",
      "addr:street": "Travessa Jaime Azevedo",
      "addr:suburb": "Centro",
      "building": "yes"
      },
      "geometry": {
         "type": "Point",
         "coordinates": [-38.9697723,-11.9608198]
      }
    },
    {
      "type": "Feature",
      "properties": { 
      "IBGE:COD_UNICO_ENDERECO": "29546817",
      "addr:housenumber": "270",
      "addr:postcode": "44150-000",
      "addr:street": "Estrada Faz Serra",
      "addr:suburb": "Candeal Pequeno",
      "building": "yes",
      "fixme": "Verificar coordenadas",
      "note": "Sem setor ou quadra no bayface do IBGE 0500-0017P-0-9"
      },
      "geometry": {
         "type": "Point",
         "coordinates": [-39.004996,-11.82735]
      }
    },
    {
      "type": "Feature",
      "properties": { 
      "IBGE:COD_UNICO_ENDERECO": "29547148",
      "addr:housenumber": "1100",
      "addr:postcode": "44150-000",
      "addr:street": "Estrada Borda da Mata do Milagre",
      "addr:suburb": "Borda da Mata do Milagre",
      "building": "yes",
      "fixme": "Verificar coordenadas",
      "note": "Sem setor ou quadra no bayface do IBGE 0500-0019P-0-3"
      },
      "geometry": {
         "type": "Point",
         "coordinates": [-38.982136,-11.903554]
      }
    },
    {
      "type": "Feature",
      "properties": { 
      "IBGE:COD_UNICO_ENDERECO": "29544436",
      "addr:housenumber": "457",
      "addr:postcode": "44150-000",
      "addr:suburb": "Centro",
      "building": "yes"
      },
      "geometry": {
         "type": "Point",
         "coordinates": [-38.9726512,-11.9537433]
      }
    },
    {
      "type": "Feature",
      "properties": { 
      "IBGE:COD_UNICO_ENDERECO": "29439123",
      "addr:housenumber": "30",
      "addr:postcode": "44150-000",
      "addr:street": "Rua Jaime Azevedo",
      "addr:suburb": "Centro",
      "addr:unit": "Fundos",
      "building": "yes"
      },
      "geometry": {
         "type": "Point",
         "coordinates": [-38.9730384,-11.9612312]
      }
    },
    {
      "type": "Feature",
      "properties": { 
      "IBGE:COD_UNICO_ENDERECO": "223798427",
      "addr:housenumber": "495",
      "addr:postcode": "44150-000",
      "addr:street": "Rua Manaus",
      "addr:suburb": "Centro",
      "addr:unit": "Fundos",
      "building": "construction"
      },
      "geometry": {
         "type": "Point",
         "coordinates": [-38.9714037,-11.9498771]
      }
    },
    {
      "type": "Feature",
      "properties": { 
      "IBGE:COD_UNICO_ENDERECO": "222463928",
      "addr:housenumber": "78",
      "addr:postcode": "44150-000",
      "addr:street": "Rua Daniel Costa Oliveira",
      "addr:suburb": "Terra Santa",
      "building": "construction"
      },
      "geometry": {
         "type": "Point",
         "coordinates": [-38.9759228,-11.9431798]
      }
    },
    {
      "type": "Feature",
      "properties": { 
      "IBGE:COD_UNICO_ENDERECO": "29547858",
      "addr:housenumber": "180",
      "addr:postcode": "44150-000",
      "addr:street": "Povoado Sítio das Flores",
      "addr:suburb": "Sítio das Flores",
      "building": "yes",
      "fixme": "Verificar coordenadas",
      "note": "Sem setor ou quadra no bayface do IBGE 0500-0022P-0-6"
      },
      "geometry": {
         "type": "Point",
         "coordinates": [-38.944486,-11.841299]
      }
    },
    {
      "type": "Feature",
      "properties": { 
      "IBGE:COD_UNICO_ENDERECO": "192413756",
      "addr:housenumber": "199",
      "addr:postcode": "44150-000",
      "addr:street": "Estrada Sucupira Tapera",
      "addr:suburb": "Sucupira",
      "building": "yes",
      "fixme": "Verificar coordenadas",
      "note": "Sem setor ou quadra no bayface do IBGE 0500-0028P-0-50"
      },
      "geometry": {
         "type": "Point",
         "coordinates": [-38.99775,-12.011793]
      }
    },
    {
      "type": "Feature",
      "properties": { 
      "IBGE:COD_UNICO_ENDERECO": "29548432",
      "addr:housenumber": "32",
      "addr:postcode": "44150-000",
      "addr:street": "Estrada Estrada Saco Capitão",
      "addr:suburb": "Saco Capitão",
      "building": "yes",
      "fixme": "Verificar coordenadas",
      "note": "Sem setor ou quadra no bayface do IBGE 0500-0025P-0-2"
      },
      "geometry": {
         "type": "Point",
         "coordinates": [-39.001481,-12.049057]
      }
    },
    {
      "type": "Feature",
      "properties": { 
      "IBGE:COD_UNICO_ENDERECO": "112641101",
      "addr:housenumber": "34",
      "addr:postcode": "44150-000",
      "addr:street": "Estrada Santa Bárbara Varinhas",
      "addr:suburb": "Boqueirão",
      "building": "yes",
      "fixme": "Verificar coordenadas",
      "note": "Sem setor ou quadra no bayface do IBGE 0500-0029P-0-194"
      },
      "geometry": {
         "type": "Point",
         "coordinates": [-38.954205,-11.867334]
      }
    },
    {
      "type": "Feature",
      "properties": { 
      "IBGE:COD_UNICO_ENDERECO": "29549041",
      "addr:housenumber": "70",
      "addr:postcode": "44150-000",
      "addr:street": "Rua Daniel Costa Oliveira",
      "addr:suburb": "Terra Santa",
      "building": "yes"
      },
      "geometry": {
         "type": "Point",
         "coordinates": [-38.9753301,-11.9455002]
      }
    },
    {
      "type": "Feature",
      "properties": { 
      "IBGE:COD_UNICO_ENDERECO": "29544397",
      "addr:housenumber": "370",
      "addr:postcode": "44150-000",
      "addr:street": "Rua Maria Maia Freitas",
      "addr:suburb": "Centro",
      "building": "yes"
      },
      "geometry": {
         "type": "Point",
         "coordinates": [-38.9723403,-11.9516535]
      }
    },
    {
      "type": "Feature",
      "properties": { 
      "IBGE:COD_UNICO_ENDERECO": "217793008",
      "addr:housenumber": "4",
      "addr:postcode": "44150-000",
      "addr:street": "Estrada Para Santa Bárbara",
      "addr:suburb": "Sítio das Flores",
      "building": "yes"
      },
      "geometry": {
         "type": "Point",
         "coordinates": [-38.939813,-11.8429708]
      }
    },
    {
      "type": "Feature",
      "properties": { 
      "IBGE:COD_UNICO_ENDERECO": "29438660",
      "addr:housenumber": "164",
      "addr:postcode": "44150-000",
      "addr:street": "Rua Luís Antônio Araújo Lima",
      "addr:suburb": "Centro",
      "building": "yes",
      "fixme": "Verificar coordenadas",
      "note": "Sem face no bayface do IBGE 0500-0001P-22-5"
      },
      "geometry": {
         "type": "Point",
         "coordinates": [-38.971904,-11.959276]
      }
    },
    {
      "type": "Feature",
      "properties": { 
      "IBGE:COD_UNICO_ENDERECO": "192418010",
      "addr:housenumber": "29",
      "addr:postcode": "44150-000",
      "addr:street": "2ª Travessa da Rua Carlos da Silva",
      "addr:suburb": "Baixada de Carlitao",
      "addr:unit": "Fundos",
      "building": "yes"
      },
      "geometry": {
         "type": "Point",
         "coordinates": [-38.9714731,-11.9550228]
      }
    },
    {
      "type": "Feature",
      "properties": { 
      "IBGE:COD_UNICO_ENDERECO": "29543198",
      "addr:housenumber": "205",
      "addr:postcode": "44150-000",
      "addr:street": "Rua Nossa Senhora do Rosário",
      "addr:suburb": "Centro",
      "building": "yes"
      },
      "geometry": {
         "type": "Point",
         "coordinates": [-38.9765554,-11.9599643]
      }
    },
    {
      "type": "Feature",
      "properties": { 
      "IBGE:COD_UNICO_ENDERECO": "29439393",
      "addr:housenumber": "215",
      "addr:postcode": "44150-000",
      "addr:street": "Rua Luísa de Moraes de Carneiro",
      "addr:suburb": "Alto da Bela Vista",
      "building": "yes"
      },
      "geometry": {
         "type": "Point",
         "coordinates": [-38.9723145,-11.9640529]
      }
    },
    {
      "type": "Feature",
      "properties": { 
      "IBGE:COD_UNICO_ENDERECO": "29544026",
      "addr:housenumber": "3",
      "addr:postcode": "44150-000",
      "addr:street": "Praça Antônio Apolinário Lima",
      "addr:suburb": "Areal",
      "building": "yes"
      },
      "geometry": {
         "type": "Point",
         "coordinates": [-38.9773055,-11.9470434]
      }
    },
    {
      "type": "Feature",
      "properties": { 
      "IBGE:COD_UNICO_ENDERECO": "29546204",
      "addr:housenumber": "8",
      "addr:postcode": "44150-000",
      "addr:street": "Estrada Para São Nicolau",
      "addr:suburb": "Tomba",
      "building": "yes",
      "fixme": "Verificar coordenadas",
      "note": "Sem setor ou quadra no bayface do IBGE 0500-0038P-0-153"
      },
      "geometry": {
         "type": "Point",
         "coordinates": [-39.053652,-11.847486]
      }
    },
    {
      "type": "Feature",
      "properties": { 
      "IBGE:COD_UNICO_ENDERECO": "29547299",
      "addr:housenumber": "500",
      "addr:postcode": "44150-000",
      "addr:street": "Fazenda Mucambo 1",
      "addr:suburb": "Fazenda Mucambo 1",
      "addr:unit": "Casa C1",
      "amenity": "animal_breeding",
      "animal_breeding": "poultry",
      "building": "yes",
      "description": "CNEFE 2022 Sem Denominação Criação de Aves",
      "fixme": "Verificar coordenadas",
      "note": "Sem setor ou quadra no bayface do IBGE 0500-0040P-0-3"
      },
      "geometry": {
         "type": "Point",
         "coordinates": [-38.950127,-11.880093]
      }
    },
    {
      "type": "Feature",
      "properties": { 
      "IBGE:COD_UNICO_ENDERECO": "108935847",
      "addr:housenumber": "72",
      "addr:postcode": "44150-000",
      "addr:street": "Conjunto Renascer Rua D",
      "addr:suburb": "Matadouro",
      "building": "yes"
      },
      "geometry": {
         "type": "Point",
         "coordinates": [-38.9777153,-11.9531395]
      }
    },
    {
      "type": "Feature",
      "properties": { 
      "IBGE:COD_UNICO_ENDERECO": "29548832",
      "addr:housenumber": "191",
      "addr:postcode": "44150-000",
      "addr:street": "Travessa Isabel Oliveira Lima 3",
      "addr:suburb": "Matadouro",
      "building": "yes"
      },
      "geometry": {
         "type": "Point",
         "coordinates": [-38.9808634,-11.9563199]
      }
    },
    {
      "type": "Feature",
      "properties": { 
      "IBGE:COD_UNICO_ENDERECO": "192416000",
      "addr:housenumber": "365",
      "addr:postcode": "44150-000",
      "addr:street": "Travessa Izaltina Campos",
      "addr:suburb": "Alto da Bela Vista",
      "building": "yes",
      "fixme": "Verificar coordenadas",
      "note": "Sem dados para mover para dentro da quadra 0500-0004P-21-2"
      },
      "geometry": {
         "type": "Point",
         "coordinates": [-38.969672,-11.9637992]
      }
    },
    {
      "type": "Feature",
      "properties": { 
      "IBGE:COD_UNICO_ENDERECO": "29438608",
      "addr:housenumber": "352",
      "addr:postcode": "44150-000",
      "addr:street": "Rua Carlos da Silva",
      "addr:suburb": "Centro",
      "building": "yes"
      },
      "geometry": {
         "type": "Point",
         "coordinates": [-38.9698263,-11.9558898]
      }
    },
    {
      "type": "Feature",
      "properties": { 
      "IBGE:COD_UNICO_ENDERECO": "192413345",
      "addr:housenumber": "54",
      "addr:postcode": "44150-000",
      "addr:street": "Estrada Gravatar",
      "addr:suburb": "Gravatá",
      "building": "yes",
      "fixme": "Verificar coordenadas",
      "note": "Sem setor ou quadra no bayface do IBGE 0500-0028P-0-45"
      },
      "geometry": {
         "type": "Point",
         "coordinates": [-38.993451,-11.98009]
      }
    },
    {
      "type": "Feature",
      "properties": { 
      "IBGE:COD_UNICO_ENDERECO": "192687415",
      "addr:housenumber": "6 C5",
      "addr:postcode": "44150-000",
      "addr:street": "Loteamento Alto da Pojuca",
      "addr:suburb": "Morro do Urubu",
      "building": "construction",
      "fixme": "Verificar coordenadas",
      "note": "Sem setor ou quadra no bayface do IBGE 0500-0012P-0-148"
      },
      "geometry": {
         "type": "Point",
         "coordinates": [-38.985592,-11.95046]
      }
    },
    {
      "type": "Feature",
      "properties": { 
      "IBGE:COD_UNICO_ENDERECO": "192413372",
      "addr:housenumber": "22",
      "addr:postcode": "44150-000",
      "addr:street": "Estrada Gravatar",
      "addr:suburb": "Gravatá",
      "building": "construction",
      "fixme": "Verificar coordenadas",
      "note": "Sem setor ou quadra no bayface do IBGE 0500-0028P-0-45"
      },
      "geometry": {
         "type": "Point",
         "coordinates": [-39.002321,-11.993294]
      }
    },
    {
      "type": "Feature",
      "properties": { 
      "IBGE:COD_UNICO_ENDERECO": "222395347",
      "addr:housenumber": "49",
      "addr:postcode": "44150-000",
      "addr:street": "Rua Édna Lima Pires",
      "addr:suburb": "Terra Santa",
      "amenity": "community_centre",
      "building": "civic",
      "name": "Associação Comunitária do Bairro Terra Santa",
      "office": "association"
      },
      "geometry": {
         "type": "Point",
         "coordinates": [-38.9766265,-11.9458378]
      }
    },
    {
      "type": "Feature",
      "properties": { 
      "IBGE:COD_UNICO_ENDERECO": "29439231",
      "addr:housenumber": "108",
      "addr:postcode": "44150-000",
      "addr:street": "Rua Aírton Senna",
      "addr:suburb": "Centro",
      "building": "yes"
      },
      "geometry": {
         "type": "Point",
         "coordinates": [-38.971807,-11.9611506]
      }
    },
    {
      "type": "Feature",
      "properties": { 
      "IBGE:COD_UNICO_ENDERECO": "29439047",
      "addr:housenumber": "40",
      "addr:postcode": "44150-000",
      "addr:street": "Rua Lomanto Júnior",
      "addr:suburb": "Centro",
      "addr:unit": "Fundos",
      "building": "yes"
      },
      "geometry": {
         "type": "Point",
         "coordinates": [-38.9743498,-11.9582267]
      }
    },
    {
      "type": "Feature",
      "properties": { 
      "IBGE:COD_UNICO_ENDERECO": "29438716",
      "addr:housenumber": "150",
      "addr:postcode": "44150-000",
      "addr:street": "Rua Joaquim Alves Mascarenhas",
      "addr:suburb": "Centro",
      "amenity": "car_wash",
      "building": "yes",
      "description": "CNEFE 2022 Lava a jato"
      },
      "geometry": {
         "type": "Point",
         "coordinates": [-38.9752878,-11.9531887]
      }
    },
    {
      "type": "Feature",
      "properties": { 
      "IBGE:COD_UNICO_ENDERECO": "29547093",
      "addr:housenumber": "6",
      "addr:postcode": "44150-000",
      "addr:street": "Estrada da Calunga",
      "addr:suburb": "Calunga",
      "building": "yes",
      "fixme": "Verificar coordenadas",
      "note": "Sem setor ou quadra no bayface do IBGE 0500-0019P-0-2"
      },
      "geometry": {
         "type": "Point",
         "coordinates": [-38.976829,-11.908478]
      }
    },
    {
      "type": "Feature",
      "properties": { 
      "IBGE:COD_UNICO_ENDERECO": "29544445;192417794",
      "addr:housenumber": "461",
      "addr:postcode": "44150-000",
      "addr:suburb": "Centro",
      "building": "yes"
      },
      "geometry": {
         "type": "Point",
         "coordinates": [-38.9723843,-11.9540079]
      }
    },
    {
      "type": "Feature",
      "properties": { 
      "IBGE:COD_UNICO_ENDERECO": "29439534",
      "addr:housenumber": "246",
      "addr:postcode": "44150-000",
      "addr:street": "Rua Antônio Carlos Bonfim Leão",
      "addr:suburb": "Alto da Bela Vista",
      "building": "yes"
      },
      "geometry": {
         "type": "Point",
         "coordinates": [-38.9721279,-11.967076]
      }
    },
    {
      "type": "Feature",
      "properties": { 
      "IBGE:COD_UNICO_ENDERECO": "222464052",
      "addr:housenumber": "135",
      "addr:postcode": "44150-000",
      "addr:street": "Rua Catarino Afonso Amaral",
      "addr:suburb": "Terra Santa",
      "building": "yes"
      },
      "geometry": {
         "type": "Point",
         "coordinates": [-38.9758197,-11.9455911]
      }
    },
    {
      "type": "Feature",
      "properties": { 
      "IBGE:COD_UNICO_ENDERECO": "222464024",
      "addr:housenumber": "152",
      "addr:postcode": "44150-000",
      "addr:street": "Avenida Augusto Simões de Freitas",
      "addr:suburb": "Terra Santa",
      "building": "yes"
      },
      "geometry": {
         "type": "Point",
         "coordinates": [-38.9759775,-11.9463624]
      }
    },
    {
      "type": "Feature",
      "properties": { 
      "IBGE:COD_UNICO_ENDERECO": "29546466",
      "addr:housenumber": "90",
      "addr:postcode": "44150-000",
      "addr:street": "Praça Ozório Machado",
      "addr:suburb": "Centro",
      "building": "yes"
      },
      "geometry": {
         "type": "Point",
         "coordinates": [-38.9744155,-11.961592]
      }
    },
    {
      "type": "Feature",
      "properties": { 
      "IBGE:COD_UNICO_ENDERECO": "29544205",
      "addr:housenumber": "87",
      "addr:postcode": "44150-000",
      "addr:street": "Rua Édna Lima Pires",
      "addr:suburb": "Terra Santa",
      "building": "yes"
      },
      "geometry": {
         "type": "Point",
         "coordinates": [-38.9765668,-11.9461152]
      }
    },
    {
      "type": "Feature",
      "properties": { 
      "IBGE:COD_UNICO_ENDERECO": "29544498",
      "addr:housenumber": "560",
      "addr:postcode": "44150-000",
      "addr:suburb": "Kalili",
      "addr:unit": "Fundos",
      "building": "yes"
      },
      "geometry": {
         "type": "Point",
         "coordinates": [-38.971321,-11.9530637]
      }
    },
    {
      "type": "Feature",
      "properties": { 
      "IBGE:COD_UNICO_ENDERECO": "108935732",
      "addr:housenumber": "186",
      "addr:postcode": "44150-000",
      "addr:street": "Loteamento Pojuca Travessa 3 sem Denominação",
      "addr:suburb": "Matadouro",
      "building": "yes"
      },
      "geometry": {
         "type": "Point",
         "coordinates": [-38.9829063,-11.9574855]
      }
    },
    {
      "type": "Feature",
      "properties": { 
      "IBGE:COD_UNICO_ENDERECO": "29548252",
      "addr:housenumber": "18",
      "addr:postcode": "44150-000",
      "addr:street": "Estrada Sítio da Luzia",
      "addr:suburb": "Sítio da Luzia",
      "addr:unit": "Fundos",
      "building": "yes",
      "fixme": "Verificar coordenadas",
      "note": "Sem setor ou quadra no bayface do IBGE 0500-0024P-0-8"
      },
      "geometry": {
         "type": "Point",
         "coordinates": [-38.925692,-12.012394]
      }
    },
    {
      "type": "Feature",
      "properties": { 
      "IBGE:COD_UNICO_ENDERECO": "29548442",
      "addr:housenumber": "7",
      "addr:postcode": "44150-000",
      "addr:street": "Estrada Estrada Saco Capitão",
      "addr:suburb": "Saco Capitão",
      "addr:unit": "Fundos",
      "building": "yes",
      "fixme": "Verificar coordenadas",
      "note": "Sem setor ou quadra no bayface do IBGE 0500-0025P-0-2"
      },
      "geometry": {
         "type": "Point",
         "coordinates": [-39.004256,-12.045986]
      }
    },
    {
      "type": "Feature",
      "properties": { 
      "IBGE:COD_UNICO_ENDERECO": "29545961",
      "addr:housenumber": "32",
      "addr:postcode": "44150-000",
      "addr:street": "Estrada Para Santa Bárbara",
      "addr:suburb": "Mandacaru",
      "building": "yes",
      "fixme": "Verificar coordenadas",
      "note": "Sem setor ou quadra no bayface do IBGE 0500-0013P-0-11"
      },
      "geometry": {
         "type": "Point",
         "coordinates": [-38.994955,-11.910732]
      }
    },
    {
      "type": "Feature",
      "properties": { 
      "IBGE:COD_UNICO_ENDERECO": "29439096",
      "addr:housenumber": "450",
      "addr:postcode": "44150-000",
      "addr:street": "Praça Clodoaldo Campos",
      "addr:suburb": "Centro",
      "amenity": "restaurant",
      "building": "yes",
      "cuisine": "pizza",
      "name": "Pizzaria Rosalva"
      },
      "geometry": {
         "type": "Point",
         "coordinates": [-38.9732014,-11.9608706]
      }
    },
    {
      "type": "Feature",
      "properties": { 
      "IBGE:COD_UNICO_ENDERECO": "222464112",
      "addr:housenumber": "179",
      "addr:postcode": "44150-000",
      "addr:street": "Avenida Augusto Simões de Freitas",
      "addr:suburb": "Terra Santa",
      "building": "yes"
      },
      "geometry": {
         "type": "Point",
         "coordinates": [-38.9764433,-11.9444076]
      }
    },
    {
      "type": "Feature",
      "properties": { 
      "IBGE:COD_UNICO_ENDERECO": "108935827",
      "addr:housenumber": "84",
      "addr:postcode": "44150-000",
      "addr:street": "Travessa do Imperador",
      "addr:suburb": "Matadouro",
      "building": "yes",
      "description": "CNEFE 2022 Mercadinho",
      "shop": "convenience"
      },
      "geometry": {
         "type": "Point",
         "coordinates": [-38.9775043,-11.9549725]
      }
    },
    {
      "type": "Feature",
      "properties": { 
      "IBGE:COD_UNICO_ENDERECO": "29547379",
      "addr:housenumber": "15",
      "addr:postcode": "44150-000",
      "addr:street": "Aglomerado Fazenda Rogante",
      "addr:suburb": "Rogante",
      "addr:unit": "Fundos Casa",
      "description": "CNEFE 2022 Sítio",
      "fixme": "Verificar coordenadas",
      "landuse": "farmland;farmyard;orchard",
      "note": "Sem setor ou quadra no bayface do IBGE 0500-0040P-0-5"
      },
      "geometry": {
         "type": "Point",
         "coordinates": [-38.943934,-11.906531]
      }
    },
    {
      "type": "Feature",
      "properties": { 
      "IBGE:COD_UNICO_ENDERECO": "29547637",
      "addr:housenumber": "9941",
      "addr:postcode": "44150-000",
      "addr:street": "Rua BA-788",
      "addr:suburb": "Sítio das Flores",
      "addr:unit": "Casa",
      "building": "yes"
      },
      "geometry": {
         "type": "Point",
         "coordinates": [-38.9394315,-11.8419878]
      }
    },
    {
      "type": "Feature",
      "properties": { 
      "IBGE:COD_UNICO_ENDERECO": "223798498",
      "addr:housenumber": "36 Fundos Térreo Casa 2",
      "addr:postcode": "44150-000",
      "addr:street": "2ª Travessa da Avenida Jocelim Oliveira Campos",
      "addr:suburb": "Centro",
      "building": "yes"
      },
      "geometry": {
         "type": "Point",
         "coordinates": [-38.9763799,-11.9501889]
      }
    },
    {
      "type": "Feature",
      "properties": { 
      "IBGE:COD_UNICO_ENDERECO": "192685844",
      "addr:housenumber": "34",
      "addr:postcode": "44150-000",
      "addr:street": "Campo Limpo",
      "addr:suburb": "Campo Limpo",
      "building": "yes",
      "fixme": "Verificar coordenadas",
      "note": "Sem setor ou quadra no bayface do IBGE 0500-0012P-0-8"
      },
      "geometry": {
         "type": "Point",
         "coordinates": [-39.001391,-11.95789]
      }
    },
    {
      "type": "Feature",
      "properties": { 
      "IBGE:COD_UNICO_ENDERECO": "29543201",
      "addr:housenumber": "185",
      "addr:postcode": "44150-000",
      "addr:street": "Rua Nossa Senhora do Rosário",
      "addr:suburb": "Centro",
      "building": "yes"
      },
      "geometry": {
         "type": "Point",
         "coordinates": [-38.9764232,-11.9599622]
      }
    },
    {
      "type": "Feature",
      "properties": { 
      "IBGE:COD_UNICO_ENDERECO": "29543081",
      "addr:housenumber": "45",
      "addr:postcode": "44150-000",
      "addr:street": "Rua Horácio Gomes do Espírito Santo",
      "addr:suburb": "Matadouro",
      "building": "construction"
      },
      "geometry": {
         "type": "Point",
         "coordinates": [-38.9760675,-11.959593]
      }
    },
    {
      "type": "Feature",
      "properties": { 
      "IBGE:COD_UNICO_ENDERECO": "29544902",
      "addr:housenumber": "68",
      "addr:postcode": "44150-000",
      "addr:street": "Estrada Fazenda Bordão",
      "addr:suburb": "Bordão",
      "building": "yes",
      "fixme": "Verificar coordenadas",
      "note": "Sem setor ou quadra no bayface do IBGE 0500-0036P-0-6"
      },
      "geometry": {
         "type": "Point",
         "coordinates": [-38.983357,-12.024604]
      }
    },
    {
      "type": "Feature",
      "properties": { 
      "IBGE:COD_UNICO_ENDERECO": "29546585",
      "addr:housenumber": "236",
      "addr:postcode": "44150-000",
      "addr:street": "Rua Governador Lomanto Júnior",
      "addr:suburb": "Centro",
      "building": "yes"
      },
      "geometry": {
         "type": "Point",
         "coordinates": [-38.9747147,-11.9576833]
      }
    },
    {
      "type": "Feature",
      "properties": { 
      "IBGE:COD_UNICO_ENDERECO": "108935806",
      "addr:housenumber": "192",
      "addr:postcode": "44150-000",
      "addr:street": "Rua Matadouro Novo",
      "addr:suburb": "Matadouro",
      "building": "yes",
      "fixme": "Verificar coordenadas",
      "note": "Sem face no bayface do IBGE 0500-0026P-22-1"
      },
      "geometry": {
         "type": "Point",
         "coordinates": [-38.978263,-11.948377]
      }
    },
    {
      "type": "Feature",
      "properties": { 
      "IBGE:COD_UNICO_ENDERECO": "29543725",
      "addr:housenumber": "220",
      "addr:postcode": "44150-000",
      "addr:street": "Rua Catarino Afonso Amaral",
      "addr:suburb": "Terra Santa",
      "building": "yes",
      "description": "CNEFE 2022 Sem Nome"
      },
      "geometry": {
         "type": "Point",
         "coordinates": [-38.9761009,-11.9434005]
      }
    },
    {
      "type": "Feature",
      "properties": { 
      "IBGE:COD_UNICO_ENDERECO": "29546486",
      "addr:housenumber": "2010",
      "addr:postcode": "44150-000",
      "addr:street": "Avenida Juscelino Oliveira Campos",
      "addr:suburb": "Centro",
      "addr:unit": "Loja",
      "building": "yes",
      "name": "Empório do Norte",
      "shop": "convenience"
      },
      "geometry": {
         "type": "Point",
         "coordinates": [-38.9751684,-11.9592461]
      }
    },
    {
      "type": "Feature",
      "properties": { 
      "IBGE:COD_UNICO_ENDERECO": "218029336",
      "addr:housenumber": "154",
      "addr:postcode": "44150-000",
      "addr:street": "Rua Luís Antônio Araújo Lima",
      "addr:suburb": "Centro",
      "building": "yes",
      "fixme": "Verificar coordenadas",
      "note": "Sem face no bayface do IBGE 0500-0001P-22-5"
      },
      "geometry": {
         "type": "Point",
         "coordinates": [-38.971858,-11.959287]
      }
    },
    {
      "type": "Feature",
      "properties": { 
      "IBGE:COD_UNICO_ENDERECO": "29544060",
      "addr:housenumber": "45",
      "addr:postcode": "44150-000",
      "addr:street": "Rua Juvenal Alves Mascarenhas",
      "addr:suburb": "Terra Santa",
      "building": "yes"
      },
      "geometry": {
         "type": "Point",
         "coordinates": [-38.9766836,-11.947244]
      }
    },
    {
      "type": "Feature",
      "properties": { 
      "IBGE:COD_UNICO_ENDERECO": "29543122",
      "addr:housenumber": "205",
      "addr:postcode": "44150-000",
      "addr:street": "Rua Durvalina Carvalho de Oliveira",
      "addr:suburb": "Centro",
      "addr:unit": "1",
      "building": "yes"
      },
      "geometry": {
         "type": "Point",
         "coordinates": [-38.9787464,-11.9593919]
      }
    },
    {
      "type": "Feature",
      "properties": { 
      "IBGE:COD_UNICO_ENDERECO": "29547154",
      "addr:housenumber": "27",
      "addr:postcode": "44150-000",
      "addr:street": "Estrada Borda da Mata do Milagre",
      "addr:suburb": "Borda da Mata do Milagre",
      "addr:unit": "Fundos",
      "building": "construction",
      "fixme": "Verificar coordenadas",
      "note": "Sem setor ou quadra no bayface do IBGE 0500-0019P-0-3"
      },
      "geometry": {
         "type": "Point",
         "coordinates": [-38.981704,-11.901717]
      }
    },
    {
      "type": "Feature",
      "properties": { 
      "IBGE:COD_UNICO_ENDERECO": "222463981",
      "addr:housenumber": "8",
      "addr:postcode": "44150-000",
      "addr:street": "Rua Daniel Costa Oliveira",
      "addr:suburb": "Terra Santa",
      "building": "yes"
      },
      "geometry": {
         "type": "Point",
         "coordinates": [-38.9755384,-11.9451656]
      }
    },
    {
      "type": "Feature",
      "properties": { 
      "IBGE:COD_UNICO_ENDERECO": "29439318",
      "addr:housenumber": "682",
      "addr:postcode": "44150-000",
      "addr:street": "Travessa Jaime Azevedo",
      "addr:suburb": "Centro",
      "building": "yes"
      },
      "geometry": {
         "type": "Point",
         "coordinates": [-38.9685861,-11.9601179]
      }
    },
    {
      "type": "Feature",
      "properties": { 
      "IBGE:COD_UNICO_ENDERECO": "192686213",
      "addr:housenumber": "40 A",
      "addr:postcode": "44150-000",
      "addr:street": "Rua Quarta sem Denominação",
      "addr:suburb": "Pedra do Fogo",
      "building": "yes",
      "fixme": "Verificar coordenadas",
      "note": "Sem setor ou quadra no bayface do IBGE 0500-0012P-0-113"
      },
      "geometry": {
         "type": "Point",
         "coordinates": [-38.985786,-11.934845]
      }
    },
    {
      "type": "Feature",
      "properties": { 
      "IBGE:COD_UNICO_ENDERECO": "29549650",
      "addr:housenumber": "29 E",
      "addr:postcode": "44150-000",
      "addr:street": "Estrada Para as Varinhas",
      "addr:suburb": "Boqueirão",
      "building": "yes",
      "fixme": "Verificar coordenadas",
      "note": "Sem setor ou quadra no bayface do IBGE 0500-0029P-0-2"
      },
      "geometry": {
         "type": "Point",
         "coordinates": [-38.958847,-11.87163]
      }
    },
    {
      "type": "Feature",
      "properties": { 
      "IBGE:COD_UNICO_ENDERECO": "29438560",
      "addr:housenumber": "9",
      "addr:postcode": "44150-000",
      "addr:street": "Avenida Patrício São Paulo",
      "addr:suburb": "Centro",
      "building": "yes",
      "name": "Pousada da Tia Zinha",
      "tourism": "guest_house"
      },
      "geometry": {
         "type": "Point",
         "coordinates": [-38.9728783,-11.958192]
      }
    },
    {
      "type": "Feature",
      "properties": { 
      "IBGE:COD_UNICO_ENDERECO": "29546611",
      "addr:housenumber": "177",
      "addr:postcode": "44150-000",
      "addr:street": "Rua Governador Lomanto Júnior",
      "addr:suburb": "Centro",
      "building": "yes"
      },
      "geometry": {
         "type": "Point",
         "coordinates": [-38.9744081,-11.9588205]
      }
    },
    {
      "type": "Feature",
      "properties": { 
      "IBGE:COD_UNICO_ENDERECO": "109976477",
      "addr:housenumber": "17",
      "addr:postcode": "44150-000",
      "addr:street": "Estrada Carioca",
      "addr:suburb": "Carioca",
      "addr:unit": "Casa 3",
      "building": "yes",
      "fixme": "Verificar coordenadas",
      "note": "Sem setor ou quadra no bayface do IBGE 0500-0011P-0-2"
      },
      "geometry": {
         "type": "Point",
         "coordinates": [-39.03689,-11.982329]
      }
    },
    {
      "type": "Feature",
      "properties": { 
      "IBGE:COD_UNICO_ENDERECO": "192419417",
      "addr:housenumber": "680",
      "addr:postcode": "44150-000",
      "addr:street": "Estrada Borda da Mata",
      "addr:suburb": "Rocinha",
      "building": "yes",
      "fixme": "Verificar coordenadas",
      "note": "Sem setor ou quadra no bayface do IBGE 0500-0019P-0-28"
      },
      "geometry": {
         "type": "Point",
         "coordinates": [-38.978941,-11.901104]
      }
    },
    {
      "type": "Feature",
      "properties": { 
      "IBGE:COD_UNICO_ENDERECO": "29547393",
      "addr:housenumber": "50",
      "addr:postcode": "44150-000",
      "addr:street": "Aglomerado Fazenda Rogante",
      "addr:suburb": "Rogante",
      "addr:unit": "Casa C1",
      "building": "yes",
      "fixme": "Verificar coordenadas",
      "note": "Sem setor ou quadra no bayface do IBGE 0500-0040P-0-5"
      },
      "geometry": {
         "type": "Point",
         "coordinates": [-38.938905,-11.895987]
      }
    },
    {
      "type": "Feature",
      "properties": { 
      "IBGE:COD_UNICO_ENDERECO": "192741231",
      "addr:housenumber": "20 E",
      "addr:postcode": "44150-000",
      "addr:street": "Entrada Boqueirão para Sítio das Flores",
      "addr:suburb": "Boqueirão",
      "building": "yes",
      "fixme": "Verificar coordenadas",
      "note": "Sem setor ou quadra no bayface do IBGE 0500-0029P-0-196"
      },
      "geometry": {
         "type": "Point",
         "coordinates": [-38.958449,-11.868268]
      }
    },
    {
      "type": "Feature",
      "properties": { 
      "IBGE:COD_UNICO_ENDERECO": "222464193",
      "addr:housenumber": "144",
      "addr:postcode": "44150-000",
      "addr:street": "Rua Juvenal Alves Mascarenhas",
      "addr:suburb": "Terra Santa",
      "building": "yes"
      },
      "geometry": {
         "type": "Point",
         "coordinates": [-38.9771236,-11.944528]
      }
    },
    {
      "type": "Feature",
      "properties": { 
      "IBGE:COD_UNICO_ENDERECO": "29545471",
      "addr:housenumber": "280 B",
      "addr:postcode": "44150-000",
      "addr:street": "Estrada Boiadeira",
      "addr:suburb": "Santiago",
      "building": "yes",
      "fixme": "Verificar coordenadas",
      "note": "Sem setor ou quadra no bayface do IBGE 0500-0012P-0-128"
      },
      "geometry": {
         "type": "Point",
         "coordinates": [-39.014416,-11.943592]
      }
    },
    {
      "type": "Feature",
      "properties": { 
      "IBGE:COD_UNICO_ENDERECO": "29439313",
      "addr:housenumber": "510",
      "addr:postcode": "44150-000",
      "addr:street": "Rua Jaime Azevedo",
      "addr:suburb": "Centro",
      "building": "yes"
      },
      "geometry": {
         "type": "Point",
         "coordinates": [-38.9692974,-11.9597372]
      }
    },
    {
      "type": "Feature",
      "properties": { 
      "IBGE:COD_UNICO_ENDERECO": "29544153",
      "addr:housenumber": "17 B",
      "addr:postcode": "44150-000",
      "addr:street": "Rua Daniel Costa Oliveira",
      "addr:suburb": "Terra Santa",
      "building": "industrial",
      "man_made": "works",
      "name": "Fábrica de Bolsa"
      },
      "geometry": {
         "type": "Point",
         "coordinates": [-38.9751182,-11.9473056]
      }
    },
    {
      "type": "Feature",
      "properties": { 
      "IBGE:COD_UNICO_ENDERECO": "112637291",
      "addr:housenumber": "24",
      "addr:postcode": "44150-000",
      "addr:street": "Estrada Santa Bárbara Varinhas",
      "addr:suburb": "Varinhas",
      "addr:unit": "Fundos",
      "building": "yes",
      "fixme": "Verificar coordenadas",
      "note": "Sem setor ou quadra no bayface do IBGE 0500-0040P-0-126"
      },
      "geometry": {
         "type": "Point",
         "coordinates": [-38.948003,-11.897401]
      }
    },
    {
      "type": "Feature",
      "properties": { 
      "IBGE:COD_UNICO_ENDERECO": "29544278",
      "addr:housenumber": "93",
      "addr:postcode": "44150-000",
      "addr:street": "Avenida Augusto Simões de Freitas",
      "addr:suburb": "Terra Santa",
      "building": "yes"
      },
      "geometry": {
         "type": "Point",
         "coordinates": [-38.9761395,-11.9461392]
      }
    },
    {
      "type": "Feature",
      "properties": { 
      "IBGE:COD_UNICO_ENDERECO": "29439099",
      "addr:housenumber": "464",
      "addr:postcode": "44150-000",
      "addr:street": "Praça Clodoaldo Campos",
      "addr:suburb": "Centro",
      "building": "yes",
      "name": "Açaiteria Açaí Shalom",
      "shop": "açaí"
      },
      "geometry": {
         "type": "Point",
         "coordinates": [-38.9730987,-11.9608169]
      }
    },
    {
      "type": "Feature",
      "properties": { 
      "IBGE:COD_UNICO_ENDERECO": "192685757",
      "addr:housenumber": "12",
      "addr:postcode": "44150-000",
      "addr:street": "Estrada Pindobeira",
      "addr:suburb": "Fazenda Pindobeira",
      "building": "yes",
      "fixme": "Verificar coordenadas",
      "note": "Sem setor ou quadra no bayface do IBGE 0500-0012P-0-7"
      },
      "geometry": {
         "type": "Point",
         "coordinates": [-39.036496,-11.944388]
      }
    },
    {
      "type": "Feature",
      "properties": { 
      "IBGE:COD_UNICO_ENDERECO": "29545082",
      "addr:housenumber": "65",
      "addr:postcode": "44150-000",
      "addr:street": "Estrada Penha Velha",
      "addr:suburb": "Fazenda Penha Velha",
      "building": "yes",
      "fixme": "Verificar coordenadas",
      "note": "Sem setor ou quadra no bayface do IBGE 0500-0011P-0-5"
      },
      "geometry": {
         "type": "Point",
         "coordinates": [-39.055817,-11.999335]
      }
    },
    {
      "type": "Feature",
      "properties": { 
      "IBGE:COD_UNICO_ENDERECO": "223798844",
      "addr:housenumber": "44",
      "addr:postcode": "44150-000",
      "addr:street": "Travessa Marcelina Maria de Jesus 2",
      "addr:suburb": "Terra Santa",
      "building": "yes",
      "fixme": "Verificar coordenadas",
      "name": "Oficina São Carlos",
      "note": "Sem face no bayface do IBGE 0500-0027P-30-3",
      "shop": "car_repair"
      },
      "geometry": {
         "type": "Point",
         "coordinates": [-38.974677,-11.942836]
      }
    },
    {
      "type": "Feature",
      "properties": { 
      "IBGE:COD_UNICO_ENDERECO": "29547885",
      "addr:housenumber": "70",
      "addr:postcode": "44150-000",
      "addr:street": "Fazenda Escurial",
      "addr:suburb": "Fazenda Escurial",
      "building": "yes",
      "fixme": "Verificar coordenadas",
      "note": "Sem setor ou quadra no bayface do IBGE 0500-0023P-0-2"
      },
      "geometry": {
         "type": "Point",
         "coordinates": [-38.917161,-11.962048]
      }
    },
    {
      "type": "Feature",
      "properties": { 
      "IBGE:COD_UNICO_ENDERECO": "192070940",
      "addr:housenumber": "12 A",
      "addr:postcode": "44150-000",
      "addr:street": "Povoado Mandacaru",
      "addr:suburb": "Mandacaru",
      "building": "yes",
      "fixme": "Verificar coordenadas",
      "note": "Sem setor ou quadra no bayface do IBGE 0500-0038P-0-136"
      },
      "geometry": {
         "type": "Point",
         "coordinates": [-38.99333,-11.911295]
      }
    },
    {
      "type": "Feature",
      "properties": { 
      "IBGE:COD_UNICO_ENDERECO": "29543587",
      "addr:housenumber": "210 B",
      "addr:postcode": "44150-000",
      "addr:street": "Rua João Maia",
      "addr:suburb": "Matadouro",
      "building": "yes",
      "name": "Mercadinho Bm",
      "shop": "convenience"
      },
      "geometry": {
         "type": "Point",
         "coordinates": [-38.9777151,-11.9572569]
      }
    },
    {
      "type": "Feature",
      "properties": { 
      "IBGE:COD_UNICO_ENDERECO": "29439379",
      "addr:housenumber": "120",
      "addr:postcode": "44150-000",
      "addr:street": "Rua Izaltina Campos",
      "addr:suburb": "Alto da Bela Vista",
      "building": "yes"
      },
      "geometry": {
         "type": "Point",
         "coordinates": [-38.9720611,-11.9635627]
      }
    },
    {
      "type": "Feature",
      "properties": { 
      "IBGE:COD_UNICO_ENDERECO": "29548721",
      "addr:housenumber": "23",
      "addr:postcode": "44150-000",
      "addr:street": "Travessa do Imperador",
      "addr:suburb": "Matadouro",
      "building": "yes"
      },
      "geometry": {
         "type": "Point",
         "coordinates": [-38.9768201,-11.955162]
      }
    },
    {
      "type": "Feature",
      "properties": { 
      "IBGE:COD_UNICO_ENDERECO": "29438851",
      "addr:housenumber": "6",
      "addr:postcode": "44150-000",
      "addr:street": "Rua Dom Pedro II",
      "addr:suburb": "Centro",
      "building": "yes"
      },
      "geometry": {
         "type": "Point",
         "coordinates": [-38.9755395,-11.9552343]
      }
    },
    {
      "type": "Feature",
      "properties": { 
      "IBGE:COD_UNICO_ENDERECO": "29544229",
      "addr:housenumber": "18",
      "addr:postcode": "44150-000",
      "addr:street": "Rua Juvenal Alves Mascarenhas",
      "addr:suburb": "Terra Santa",
      "addr:unit": "Fundos",
      "building": "yes"
      },
      "geometry": {
         "type": "Point",
         "coordinates": [-38.9769901,-11.9460825]
      }
    },
    {
      "type": "Feature",
      "properties": { 
      "IBGE:COD_UNICO_ENDERECO": "192689849",
      "addr:housenumber": "44",
      "addr:postcode": "44150-000",
      "addr:street": "Fazenda Lagedo",
      "addr:suburb": "Lajedo",
      "addr:unit": "Fundos",
      "amenity": "animal_breeding",
      "animal_breeding": "sheep",
      "fixme": "Confirmar nome;Verificar coordenadas",
      "landuse": "farmyard",
      "name": "Criação de Ovinos sem Denominação",
      "note": "Sem setor ou quadra no bayface do IBGE 0500-0041P-0-3"
      },
      "geometry": {
         "type": "Point",
         "coordinates": [-38.945015,-11.867393]
      }
    },
    {
      "type": "Feature",
      "properties": { 
      "IBGE:COD_UNICO_ENDERECO": "216790989",
      "addr:housenumber": "140",
      "addr:postcode": "44150-000",
      "addr:street": "Rua Dom Pedro II",
      "addr:suburb": "Centro",
      "building": "yes"
      },
      "geometry": {
         "type": "Point",
         "coordinates": [-38.9756203,-11.9547987]
      }
    },
    {
      "type": "Feature",
      "properties": { 
      "IBGE:COD_UNICO_ENDERECO": "29549185",
      "addr:housenumber": "344",
      "addr:postcode": "44150-000",
      "addr:street": "2ª Travessa da Rua Maria Maia Freitas",
      "addr:suburb": "Centro",
      "addr:unit": "Fundos",
      "building": "yes",
      "fixme": "Verificar coordenadas",
      "note": "Sem dados para mover para dentro da quadra 0500-0027P-8-2"
      },
      "geometry": {
         "type": "Point",
         "coordinates": [-38.9728926,-11.9507944]
      }
    },
    {
      "type": "Feature",
      "properties": { 
      "IBGE:COD_UNICO_ENDERECO": "29547870-29547871",
      "addr:housenumber": "32",
      "addr:postcode": "44150-000",
      "addr:street": "Fazenda Escurial",
      "addr:suburb": "Fazenda Escurial",
      "building": "yes",
      "fixme": "Verificar coordenadas",
      "note": "Sem setor ou quadra no bayface do IBGE 0500-0023P-0-2"
      },
      "geometry": {
         "type": "Point",
         "coordinates": [-38.9184595,-11.9565145]
      }
    },
    {
      "type": "Feature",
      "properties": { 
      "IBGE:COD_UNICO_ENDERECO": "192685510",
      "addr:housenumber": "18",
      "addr:postcode": "44150-000",
      "addr:street": "Estrada Santa Bárbara para Santiago",
      "addr:suburb": "Morro do Urubu",
      "building": "yes",
      "fixme": "Verificar coordenadas",
      "note": "Sem setor ou quadra no bayface do IBGE 0500-0012P-0-1"
      },
      "geometry": {
         "type": "Point",
         "coordinates": [-38.989446,-11.942577]
      }
    },
    {
      "type": "Feature",
      "properties": { 
      "IBGE:COD_UNICO_ENDERECO": "29549180",
      "addr:housenumber": "208",
      "addr:postcode": "44150-000",
      "addr:street": "Rua Manaus",
      "addr:suburb": "Centro",
      "building": "yes",
      "fixme": "Verificar coordenadas",
      "note": "Sem face no bayface do IBGE 0500-0027P-8-3"
      },
      "geometry": {
         "type": "Point",
         "coordinates": [-38.972302,-11.951017]
      }
    },
    {
      "type": "Feature",
      "properties": { 
      "IBGE:COD_UNICO_ENDERECO": "29546989",
      "addr:housenumber": "2371",
      "addr:postcode": "44150-000",
      "addr:street": "Estrada Para Matão",
      "addr:suburb": "Candeal Pequeno",
      "building": "yes"
      },
      "geometry": {
         "type": "Point",
         "coordinates": [-38.9950361,-11.8399838]
      }
    },
    {
      "type": "Feature",
      "properties": { 
      "IBGE:COD_UNICO_ENDERECO": "29439641",
      "addr:housenumber": "1190",
      "addr:postcode": "44150-000",
      "addr:street": "Avenida Jocelin Oliveira Campos",
      "addr:suburb": "Alto da Bela Vista",
      "building": "yes",
      "fixme": "Confirmar nome",
      "name": "Gonzaga Auto Peças",
      "shop": "car_parts"
      },
      "geometry": {
         "type": "Point",
         "coordinates": [-38.9736758,-11.9653561]
      }
    },
    {
      "type": "Feature",
      "properties": { 
      "IBGE:COD_UNICO_ENDERECO": "192200183",
      "addr:housenumber": "21 A",
      "addr:postcode": "44150-000",
      "addr:suburb": "Noventa",
      "building": "yes",
      "fixme": "Verificar coordenadas",
      "note": "Sem dados para mover para dentro da quadra 0500-0015P-3-3"
      },
      "geometry": {
         "type": "Point",
         "coordinates": [-39.0227228,-11.8827245]
      }
    },
    {
      "type": "Feature",
      "properties": { 
      "IBGE:COD_UNICO_ENDERECO": "29546186",
      "addr:housenumber": "230",
      "addr:postcode": "44150-000",
      "addr:street": "Estrada Para O Tomba",
      "addr:suburb": "Tomba",
      "building": "yes",
      "fixme": "Verificar coordenadas",
      "note": "Sem dados para mover para dentro da quadra 0500-0039P-3-5"
      },
      "geometry": {
         "type": "Point",
         "coordinates": [-39.0501945,-11.8504961]
      }
    },
    {
      "type": "Feature",
      "properties": { 
      "IBGE:COD_UNICO_ENDERECO": "29548658",
      "addr:housenumber": "99",
      "addr:postcode": "44150-000",
      "addr:street": "Rua Luís Ceriaco Cerqueira",
      "addr:suburb": "Matadouro",
      "building": "yes"
      },
      "geometry": {
         "type": "Point",
         "coordinates": [-38.9789134,-11.9569786]
      }
    },
    {
      "type": "Feature",
      "properties": { 
      "IBGE:COD_UNICO_ENDERECO": "29545373",
      "addr:housenumber": "52",
      "addr:postcode": "44150-000",
      "addr:street": "Estrada Boiadeira",
      "addr:suburb": "Tabuleiro",
      "addr:unit": "Fundos",
      "building": "yes",
      "fixme": "Verificar coordenadas",
      "note": "Sem setor ou quadra no bayface do IBGE 0500-0012P-0-129"
      },
      "geometry": {
         "type": "Point",
         "coordinates": [-38.999531,-11.947476]
      }
    },
    {
      "type": "Feature",
      "properties": { 
      "IBGE:COD_UNICO_ENDERECO": "192418164",
      "addr:housenumber": "70",
      "addr:postcode": "44150-000",
      "addr:suburb": "Baixada de Carlitao",
      "building": "yes",
      "fixme": "Verificar coordenadas",
      "note": "Sem face no bayface do IBGE 0500-0009P-25-1"
      },
      "geometry": {
         "type": "Point",
         "coordinates": [-38.970938,-11.953244]
      }
    },
    {
      "type": "Feature",
      "properties": { 
      "IBGE:COD_UNICO_ENDERECO": "222464125",
      "addr:housenumber": "8",
      "addr:postcode": "44150-000",
      "addr:street": "Travessa Quinta Ts",
      "addr:suburb": "Terra Santa",
      "building": "yes"
      },
      "geometry": {
         "type": "Point",
         "coordinates": [-38.9765271,-11.9445735]
      }
    },
    {
      "type": "Feature",
      "properties": { 
      "IBGE:COD_UNICO_ENDERECO": "29546549",
      "addr:housenumber": "44",
      "addr:postcode": "44150-000",
      "addr:street": "Rua Calazans",
      "addr:suburb": "Centro",
      "addr:unit": "Fundos",
      "building": "yes"
      },
      "geometry": {
         "type": "Point",
         "coordinates": [-38.9749841,-11.9572655]
      }
    },
    {
      "type": "Feature",
      "properties": { 
      "IBGE:COD_UNICO_ENDERECO": "29543335",
      "addr:housenumber": "500 B",
      "addr:postcode": "44150-000",
      "addr:street": "Fazenda Gravatá",
      "addr:suburb": "Gravatá",
      "building": "yes",
      "fixme": "Verificar coordenadas",
      "note": "Muito afastado da face: 76m 0500-0042P-18-2"
      },
      "geometry": {
         "type": "Point",
         "coordinates": [-38.988647,-11.982735]
      }
    },
    {
      "type": "Feature",
      "properties": { 
      "IBGE:COD_UNICO_ENDERECO": "192423737",
      "addr:housenumber": "89",
      "addr:postcode": "44150-000",
      "addr:street": "Estrada Moco",
      "addr:suburb": "Moco",
      "building": "yes",
      "fixme": "Verificar coordenadas",
      "note": "Sem setor ou quadra no bayface do IBGE 0500-0030P-0-106"
      },
      "geometry": {
         "type": "Point",
         "coordinates": [-38.970163,-12.008557]
      }
    },
    {
      "type": "Feature",
      "properties": { 
      "IBGE:COD_UNICO_ENDERECO": "29547912",
      "addr:housenumber": "74",
      "addr:postcode": "44150-000",
      "addr:street": "Fazenda Candeal Estrela",
      "addr:suburb": "Candeal Estrela",
      "building": "yes",
      "fixme": "Verificar coordenadas",
      "note": "Sem setor ou quadra no bayface do IBGE 0500-0023P-0-4"
      },
      "geometry": {
         "type": "Point",
         "coordinates": [-38.933048,-11.937084]
      }
    },
    {
      "type": "Feature",
      "properties": { 
      "IBGE:COD_UNICO_ENDERECO": "108935600",
      "addr:housenumber": "140",
      "addr:postcode": "44150-000",
      "addr:street": "Rua do Imperador",
      "addr:suburb": "Matadouro",
      "building": "yes"
      },
      "geometry": {
         "type": "Point",
         "coordinates": [-38.9774335,-11.9555025]
      }
    },
    {
      "type": "Feature",
      "properties": { 
      "IBGE:COD_UNICO_ENDERECO": "112637460",
      "addr:housenumber": "8",
      "addr:postcode": "44150-000",
      "addr:street": "Rua Quinta sem Denominação",
      "addr:suburb": "Pedra do Fogo",
      "addr:unit": "Fundos",
      "building": "yes",
      "fixme": "Verificar coordenadas",
      "note": "Sem setor ou quadra no bayface do IBGE 0500-0012P-0-114"
      },
      "geometry": {
         "type": "Point",
         "coordinates": [-38.987136,-11.933968]
      }
    },
    {
      "type": "Feature",
      "properties": { 
      "IBGE:COD_UNICO_ENDERECO": "29548871",
      "addr:housenumber": "290",
      "addr:postcode": "44150-000",
      "addr:street": "Rua Nova Jerusalém",
      "addr:suburb": "Matadouro",
      "building": "yes"
      },
      "geometry": {
         "type": "Point",
         "coordinates": [-38.9789627,-11.9552616]
      }
    },
    {
      "type": "Feature",
      "properties": { 
      "IBGE:COD_UNICO_ENDERECO": "29544064",
      "addr:housenumber": "17 A",
      "addr:postcode": "44150-000",
      "addr:street": "Rua Juvenal Alves Mascarenhas",
      "addr:suburb": "Terra Santa",
      "building": "yes"
      },
      "geometry": {
         "type": "Point",
         "coordinates": [-38.9766275,-11.9474998]
      }
    },
    {
      "type": "Feature",
      "properties": { 
      "IBGE:COD_UNICO_ENDERECO": "29549770",
      "addr:housenumber": "21",
      "addr:postcode": "44150-000",
      "addr:street": "Estrada Para O Rogante",
      "addr:suburb": "Rocinha",
      "addr:unit": "Fundos",
      "building": "yes",
      "fixme": "Verificar coordenadas",
      "note": "Sem setor ou quadra no bayface do IBGE 0500-0029P-0-8"
      },
      "geometry": {
         "type": "Point",
         "coordinates": [-38.965986,-11.89653]
      }
    },
    {
      "type": "Feature",
      "properties": { 
      "IBGE:COD_UNICO_ENDERECO": "112645667",
      "addr:housenumber": "2120",
      "addr:postcode": "44150-000",
      "addr:street": "Entrada BR-324 km 10 para km 4",
      "addr:suburb": "Varginha",
      "amenity": "animal_breeding",
      "animal_breeding": "cow",
      "description": "CNEFE 2022 Criação de Bovino",
      "fixme": "Verificar coordenadas",
      "landuse": "farmyard",
      "note": "Sem setor ou quadra no bayface do IBGE 0500-0025P-0-56"
      },
      "geometry": {
         "type": "Point",
         "coordinates": [-39.046683,-12.019622]
      }
    },
    {
      "type": "Feature",
      "properties": { 
      "IBGE:COD_UNICO_ENDERECO": "29548645",
      "addr:housenumber": "239",
      "addr:postcode": "44150-000",
      "addr:street": "Rua Joana Angélica",
      "addr:suburb": "Matadouro",
      "building": "yes"
      },
      "geometry": {
         "type": "Point",
         "coordinates": [-38.9780529,-11.9561555]
      }
    },
    {
      "type": "Feature",
      "properties": { 
      "IBGE:COD_UNICO_ENDERECO": "192184583",
      "addr:housenumber": "16",
      "addr:postcode": "44150-000",
      "addr:street": "Estrada Carioca",
      "addr:suburb": "Carioca",
      "building": "yes",
      "fixme": "Verificar coordenadas",
      "note": "Sem setor ou quadra no bayface do IBGE 0500-0011P-0-2"
      },
      "geometry": {
         "type": "Point",
         "coordinates": [-39.037257,-11.982732]
      }
    },
    {
      "type": "Feature",
      "properties": { 
      "IBGE:COD_UNICO_ENDERECO": "100951886",
      "addr:housenumber": "49",
      "addr:postcode": "44150-000",
      "addr:street": "Rua Leonildo",
      "addr:suburb": "Centro",
      "building": "yes"
      },
      "geometry": {
         "type": "Point",
         "coordinates": [-38.9804636,-11.9589377]
      }
    },
    {
      "type": "Feature",
      "properties": { 
      "IBGE:COD_UNICO_ENDERECO": "29543571",
      "addr:housenumber": "165",
      "addr:postcode": "44150-000",
      "addr:street": "Rua Dorivald 0 Cunha de Oliveira",
      "addr:suburb": "Matadouro",
      "building": "yes"
      },
      "geometry": {
         "type": "Point",
         "coordinates": [-38.9775186,-11.9564178]
      }
    },
    {
      "type": "Feature",
      "properties": { 
      "IBGE:COD_UNICO_ENDERECO": "108935715",
      "addr:housenumber": "686",
      "addr:postcode": "44150-000",
      "addr:street": "Estrada Para Conga",
      "addr:suburb": "Matadouro",
      "building": "yes"
      },
      "geometry": {
         "type": "Point",
         "coordinates": [-38.9830623,-11.9587088]
      }
    },
    {
      "type": "Feature",
      "properties": { 
      "IBGE:COD_UNICO_ENDERECO": "29548740",
      "addr:housenumber": "89",
      "addr:postcode": "44150-000",
      "addr:street": "Rua Isabel Oliveira Lima",
      "addr:suburb": "Matadouro",
      "building": "yes"
      },
      "geometry": {
         "type": "Point",
         "coordinates": [-38.9794818,-11.9574525]
      }
    },
    {
      "type": "Feature",
      "properties": { 
      "IBGE:COD_UNICO_ENDERECO": "29543126",
      "addr:housenumber": "145 Frente",
      "addr:postcode": "44150-000",
      "addr:street": "Rua Durvalina Carvalho de Oliveira",
      "addr:suburb": "Centro",
      "building": "yes"
      },
      "geometry": {
         "type": "Point",
         "coordinates": [-38.9784365,-11.9593742]
      }
    },
    {
      "type": "Feature",
      "properties": { 
      "IBGE:COD_UNICO_ENDERECO": "112643927",
      "addr:housenumber": "18",
      "addr:postcode": "44150-000",
      "addr:street": "Estrada Tabuleiro",
      "addr:suburb": "Baixa do Cajueiro",
      "building": "yes",
      "fixme": "Verificar coordenadas",
      "note": "Sem setor ou quadra no bayface do IBGE 0500-0024P-0-115"
      },
      "geometry": {
         "type": "Point",
         "coordinates": [-38.966915,-11.994804]
      }
    },
    {
      "type": "Feature",
      "properties": { 
      "IBGE:COD_UNICO_ENDERECO": "29543288",
      "addr:housenumber": "10",
      "addr:postcode": "44150-000",
      "addr:street": "Fazenda Água Pequena",
      "addr:suburb": "Água Pequena",
      "addr:unit": "Fundos",
      "building": "yes"
      },
      "geometry": {
         "type": "Point",
         "coordinates": [-38.9723672,-11.9816895]
      }
    },
    {
      "type": "Feature",
      "properties": { 
      "IBGE:COD_UNICO_ENDERECO": "217961961",
      "addr:housenumber": "164",
      "addr:postcode": "44150-000",
      "addr:street": "Rua São José",
      "addr:suburb": "Centro",
      "building": "yes",
      "name": "Supermercado Super Bom Fim",
      "shop": "supermarket"
      },
      "geometry": {
         "type": "Point",
         "coordinates": [-38.9734226,-11.962928]
      }
    },
    {
      "type": "Feature",
      "properties": { 
      "IBGE:COD_UNICO_ENDERECO": "192070321",
      "addr:housenumber": "64",
      "addr:postcode": "44150-000",
      "addr:street": "Estrada do Mandacaru e Malhadinha",
      "addr:suburb": "Mandacaru",
      "building": "yes",
      "fixme": "Verificar coordenadas",
      "note": "Sem setor ou quadra no bayface do IBGE 0500-0038P-0-15"
      },
      "geometry": {
         "type": "Point",
         "coordinates": [-39.000789,-11.894124]
      }
    },
    {
      "type": "Feature",
      "properties": { 
      "IBGE:COD_UNICO_ENDERECO": "29439361",
      "addr:housenumber": "1290",
      "addr:postcode": "44150-000",
      "addr:street": "Avenida Jocelin Oliveira Campos",
      "addr:suburb": "Alto da Bela Vista",
      "building": "yes"
      },
      "geometry": {
         "type": "Point",
         "coordinates": [-38.9738742,-11.9644215]
      }
    },
    {
      "type": "Feature",
      "properties": { 
      "IBGE:COD_UNICO_ENDERECO": "29544666;29544670",
      "addr:housenumber": "33",
      "addr:postcode": "44150-000",
      "addr:street": "Estrada Principal da Sucupira",
      "addr:suburb": "Sucupira",
      "addr:unit": "Fundos",
      "building": "yes",
      "fixme": "Verificar coordenadas",
      "note": "Sem setor ou quadra no bayface do IBGE 0500-0037P-0-4"
      },
      "geometry": {
         "type": "Point",
         "coordinates": [-38.99471,-11.9953875]
      }
    },
    {
      "type": "Feature",
      "properties": { 
      "IBGE:COD_UNICO_ENDERECO": "192686120",
      "addr:housenumber": "121",
      "addr:postcode": "44150-000",
      "addr:street": "Rua Segunda sem Denominação",
      "addr:suburb": "Pedra do Fogo",
      "building": "yes",
      "fixme": "Verificar coordenadas",
      "note": "Sem setor ou quadra no bayface do IBGE 0500-0012P-0-110"
      },
      "geometry": {
         "type": "Point",
         "coordinates": [-38.986611,-11.93586]
      }
    },
    {
      "type": "Feature",
      "properties": { 
      "IBGE:COD_UNICO_ENDERECO": "29546596",
      "addr:housenumber": "243",
      "addr:postcode": "44150-000",
      "addr:street": "Rua Governador Lomanto Júnior",
      "addr:suburb": "Centro",
      "building": "yes"
      },
      "geometry": {
         "type": "Point",
         "coordinates": [-38.9745917,-11.9581454]
      }
    },
    {
      "type": "Feature",
      "properties": { 
      "IBGE:COD_UNICO_ENDERECO": "29543442",
      "addr:housenumber": "15",
      "addr:postcode": "44150-000",
      "addr:suburb": "Matadouro",
      "building": "yes"
      },
      "geometry": {
         "type": "Point",
         "coordinates": [-38.9788475,-11.9583217]
      }
    },
    {
      "type": "Feature",
      "properties": { 
      "IBGE:COD_UNICO_ENDERECO": "29439165",
      "addr:housenumber": "44",
      "addr:postcode": "44150-000",
      "addr:street": "Rua Jaime Azevedo",
      "addr:suburb": "Centro",
      "building": "yes"
      },
      "geometry": {
         "type": "Point",
         "coordinates": [-38.9729551,-11.9611286]
      }
    },
    {
      "type": "Feature",
      "properties": { 
      "IBGE:COD_UNICO_ENDERECO": "29438998",
      "addr:housenumber": "45",
      "addr:postcode": "44150-000",
      "addr:street": "Avenida Antônio Ribeiro Cunha",
      "addr:suburb": "Centro",
      "building": "yes",
      "name": "Material de Construção Terra Santa",
      "shop": "hardware"
      },
      "geometry": {
         "type": "Point",
         "coordinates": [-38.9736779,-11.9594508]
      }
    },