{
  "type": "FeatureCollection",
  "generator": "CSV-CNEFE2GeoJSON.lua 1.5.7 - fidelis.assis@gmail.com",
  "source": "IBGE CNEFE + Faces de Logradouros - 2022",
  "date": "2025-02-02T09:05:22-0300",
  "features": [
    {
      "type": "Feature",
      "properties": { 
      "IBGE:COD_UNICO_ENDERECO": "27361757",
      "addr:housenumber": "413",
      "addr:postcode": "48601-070",
      "addr:street": "Rua São Francisco",
      "addr:suburb": "Centro",
      "building": "yes"
      },
      "geometry": {
         "type": "Point",
         "coordinates": [-38.2167186,-9.4042862]
      }
    },
    {
      "type": "Feature",
      "properties": { 
      "IBGE:COD_UNICO_ENDERECO": "27305440-27305441",
      "addr:housenumber": "29",
      "addr:postcode": "48608-600",
      "addr:street": "Rua Dom Avelar Brandão Vilela",
      "addr:suburb": "Centro",
      "building": "yes"
      },
      "geometry": {
         "type": "Point",
         "coordinates": [-38.2064374,-9.4074702]
      }
    },
    {
      "type": "Feature",
      "properties": { 
      "IBGE:COD_UNICO_ENDERECO": "27416744",
      "addr:housenumber": "183",
      "addr:postcode": "48601-012",
      "addr:street": "Rua Recanto Feliz",
      "addr:suburb": "Centro",
      "building": "yes",
      "fixme": "Verificar coordenadas",
      "note": "Sem face no bayface do IBGE 0500-0129P-2-6"
      },
      "geometry": {
         "type": "Point",
         "coordinates": [-38.215524,-9.408956]
      }
    },
    {
      "type": "Feature",
      "properties": { 
      "IBGE:COD_UNICO_ENDERECO": "27306663",
      "addr:housenumber": "206",
      "addr:postcode": "48602-150",
      "addr:street": "Rua da Grécia",
      "addr:suburb": "Centro",
      "building": "yes"
      },
      "geometry": {
         "type": "Point",
         "coordinates": [-38.2231162,-9.4055]
      }
    },
    {
      "type": "Feature",
      "properties": { 
      "IBGE:COD_UNICO_ENDERECO": "27301414",
      "addr:housenumber": "52",
      "addr:postcode": "48602-125",
      "addr:suburb": "Centro",
      "building": "yes"
      },
      "geometry": {
         "type": "Point",
         "coordinates": [-38.2195866,-9.4020021]
      }
    },
    {
      "type": "Feature",
      "properties": { 
      "IBGE:COD_UNICO_ENDERECO": "27355584",
      "addr:housenumber": "1138",
      "addr:postcode": "48601-320",
      "addr:street": "Avenida José Hemetério de Carvalho",
      "addr:suburb": "Centro",
      "building": "yes"
      },
      "geometry": {
         "type": "Point",
         "coordinates": [-38.2202715,-9.4105503]
      }
    },
    {
      "type": "Feature",
      "properties": { 
      "IBGE:COD_UNICO_ENDERECO": "27297971",
      "addr:housenumber": "87 Térreo",
      "addr:postcode": "48601-570",
      "addr:street": "Rua Vereador Moisés Pereira",
      "addr:suburb": "Centro",
      "building": "yes"
      },
      "geometry": {
         "type": "Point",
         "coordinates": [-38.2197686,-9.4055795]
      }
    },
    {
      "type": "Feature",
      "properties": { 
      "IBGE:COD_UNICO_ENDERECO": "27300970",
      "addr:housenumber": "151 Térreo Lado 1",
      "addr:postcode": "48602-220",
      "addr:street": "Rua São Luís",
      "addr:suburb": "Centro",
      "building": "yes"
      },
      "geometry": {
         "type": "Point",
         "coordinates": [-38.220966,-9.4041498]
      }
    },
    {
      "type": "Feature",
      "properties": { 
      "IBGE:COD_UNICO_ENDERECO": "27298043",
      "addr:housenumber": "38",
      "addr:postcode": "48601-410",
      "addr:street": "Rua Manoel Novais",
      "addr:suburb": "Centro",
      "building": "yes",
      "fixme": "Verificar coordenadas",
      "note": "Sem dados para mover para dentro da quadra 0500-0002P-2-6"
      },
      "geometry": {
         "type": "Point",
         "coordinates": [-38.2196226,-9.4052749]
      }
    },
    {
      "type": "Feature",
      "properties": { 
      "IBGE:COD_UNICO_ENDERECO": "27304012",
      "addr:housenumber": "179",
      "addr:postcode": "48601-160",
      "addr:street": "Rua da Glória",
      "addr:suburb": "Centro",
      "addr:unit": "25 1 Fundos Casa 5",
      "building": "yes"
      },
      "geometry": {
         "type": "Point",
         "coordinates": [-38.2234218,-9.3998005]
      }
    },
    {
      "type": "Feature",
      "properties": { 
      "IBGE:COD_UNICO_ENDERECO": "27297545",
      "addr:housenumber": "251",
      "addr:postcode": "48602-180",
      "addr:street": "Rua Tiradentes",
      "addr:suburb": "Centro",
      "building": "yes"
      },
      "geometry": {
         "type": "Point",
         "coordinates": [-38.2190319,-9.4044278]
      }
    },
    {
      "type": "Feature",
      "properties": { 
      "IBGE:COD_UNICO_ENDERECO": "27301638",
      "addr:housenumber": "66 Lado",
      "addr:postcode": "48602-490",
      "addr:street": "Avenida Ministro Landulfo Alves",
      "addr:suburb": "Centro",
      "building": "yes",
      "name": "Lcell"
      },
      "geometry": {
         "type": "Point",
         "coordinates": [-38.2190452,-9.4004923]
      }
    },
    {
      "type": "Feature",
      "properties": { 
      "IBGE:COD_UNICO_ENDERECO": "27305436;217778106",
      "addr:housenumber": "33",
      "addr:postcode": "48608-600",
      "addr:street": "Rua Dom Avelar Brandão Vilela",
      "addr:suburb": "Centro",
      "building": "yes"
      },
      "geometry": {
         "type": "Point",
         "coordinates": [-38.2061848,-9.4066712]
      }
    },
    {
      "type": "Feature",
      "properties": { 
      "IBGE:COD_UNICO_ENDERECO": "109862974",
      "addr:housenumber": "13",
      "addr:postcode": "48602-220",
      "addr:street": "Rua São Luís",
      "addr:suburb": "Centro",
      "addr:unit": "Casa",
      "building": "construction"
      },
      "geometry": {
         "type": "Point",
         "coordinates": [-38.2213645,-9.4036206]
      }
    },
    {
      "type": "Feature",
      "properties": { 
      "IBGE:COD_UNICO_ENDERECO": "27367923",
      "addr:housenumber": "62",
      "addr:postcode": "48601-150",
      "addr:street": "Rua Pedro Álvares Cabral",
      "addr:suburb": "Centro",
      "building": "yes",
      "fixme": "Verificar coordenadas",
      "note": "Sem face no bayface do IBGE 0500-0083P-1-3"
      },
      "geometry": {
         "type": "Point",
         "coordinates": [-38.216447,-9.411352]
      }
    },
    {
      "type": "Feature",
      "properties": { 
      "IBGE:COD_UNICO_ENDERECO": "27305602",
      "addr:housenumber": "52",
      "addr:postcode": "48601-080",
      "addr:street": "Rua José de Alencar",
      "addr:suburb": "Centro",
      "building": "yes"
      },
      "geometry": {
         "type": "Point",
         "coordinates": [-38.2178183,-9.4117257]
      }
    },
    {
      "type": "Feature",
      "properties": { 
      "IBGE:COD_UNICO_ENDERECO": "27298892",
      "addr:housenumber": "68",
      "addr:postcode": "48601-070",
      "addr:street": "Rua São Francisco",
      "addr:suburb": "Centro",
      "building": "yes",
      "name": "Loja Globo Esporte",
      "shop": "yes"
      },
      "geometry": {
         "type": "Point",
         "coordinates": [-38.2180839,-9.4012188]
      }
    },
    {
      "type": "Feature",
      "properties": { 
      "IBGE:COD_UNICO_ENDERECO": "27302856",
      "addr:housenumber": "213 Térreo",
      "addr:postcode": "48601-030",
      "addr:street": "Rua Padre Cícero",
      "addr:suburb": "Centro",
      "building": "yes",
      "fixme": "Verificar coordenadas",
      "note": "Sem face no bayface do IBGE 0500-0019P-2-4"
      },
      "geometry": {
         "type": "Point",
         "coordinates": [-38.215388,-9.410518]
      }
    },
    {
      "type": "Feature",
      "properties": { 
      "IBGE:COD_UNICO_ENDERECO": "27298929",
      "addr:housenumber": "88",
      "addr:postcode": "48611-038",
      "addr:street": "Rua Santo Antônio",
      "addr:suburb": "Centro",
      "building": "yes"
      },
      "geometry": {
         "type": "Point",
         "coordinates": [-38.2180686,-9.4023138]
      }
    },
    {
      "type": "Feature",
      "properties": { 
      "IBGE:COD_UNICO_ENDERECO": "27302629",
      "addr:housenumber": "772",
      "addr:postcode": "48601-070",
      "addr:street": "Rua São Francisco",
      "addr:suburb": "Centro",
      "building": "warehouse",
      "description": "CNEFE 2022 Depósito"
      },
      "geometry": {
         "type": "Point",
         "coordinates": [-38.2156725,-9.407556]
      }
    },
    {
      "type": "Feature",
      "properties": { 
      "IBGE:COD_UNICO_ENDERECO": "27300030;27300032",
      "addr:housenumber": "312",
      "addr:postcode": "48601-450",
      "addr:street": "Rua Castro Alves",
      "addr:suburb": "Centro",
      "building": "yes"
      },
      "geometry": {
         "type": "Point",
         "coordinates": [-38.2177375,-9.4081185]
      }
    },
    {
      "type": "Feature",
      "properties": { 
      "IBGE:COD_UNICO_ENDERECO": "27300752",
      "addr:housenumber": "90",
      "addr:postcode": "48602-220",
      "addr:street": "Rua São Luís",
      "addr:suburb": "Centro",
      "building": "yes"
      },
      "geometry": {
         "type": "Point",
         "coordinates": [-38.2214216,-9.4037938]
      }
    },
    {
      "type": "Feature",
      "properties": { 
      "IBGE:COD_UNICO_ENDERECO": "223930095",
      "addr:housenumber": "41",
      "addr:postcode": "48601-510",
      "addr:street": "Rua Otávio Drumond",
      "addr:suburb": "Centro",
      "building": "garage",
      "description": "CNEFE 2022 Garagem"
      },
      "geometry": {
         "type": "Point",
         "coordinates": [-38.22037,-9.408106]
      }
    },
    {
      "type": "Feature",
      "properties": { 
      "IBGE:COD_UNICO_ENDERECO": "27302767",
      "addr:housenumber": "216",
      "addr:postcode": "48611-030",
      "addr:street": "Rua Padre Cícero",
      "addr:suburb": "Centro",
      "building": "yes"
      },
      "geometry": {
         "type": "Point",
         "coordinates": [-38.2153162,-9.4106129]
      }
    },
    {
      "type": "Feature",
      "properties": { 
      "IBGE:COD_UNICO_ENDERECO": "27303110",
      "addr:housenumber": "10",
      "addr:postcode": "48610-604",
      "addr:street": "Rua São Benedito",
      "addr:suburb": "Centro",
      "building": "yes",
      "fixme": "Verificar coordenadas",
      "note": "Sem face no bayface do IBGE 0500-0020P-2-8"
      },
      "geometry": {
         "type": "Point",
         "coordinates": [-38.21853,-9.409589]
      }
    },
    {
      "type": "Feature",
      "properties": { 
      "IBGE:COD_UNICO_ENDERECO": "27303443",
      "addr:housenumber": "336",
      "addr:postcode": "48610-492",
      "addr:street": "Rua Alto Novo",
      "addr:suburb": "Centro",
      "building": "yes"
      },
      "geometry": {
         "type": "Point",
         "coordinates": [-38.2222627,-9.4056042]
      }
    },
    {
      "type": "Feature",
      "properties": { 
      "IBGE:COD_UNICO_ENDERECO": "109047092",
      "addr:housenumber": "270 A",
      "addr:postcode": "48602-490",
      "addr:street": "Avenida Ministro Landulfo Alves",
      "addr:suburb": "Centro",
      "building": "yes",
      "name": "Show de Preço"
      },
      "geometry": {
         "type": "Point",
         "coordinates": [-38.2200924,-9.4008029]
      }
    },
    {
      "type": "Feature",
      "properties": { 
      "IBGE:COD_UNICO_ENDERECO": "27301698",
      "addr:housenumber": "410",
      "addr:postcode": "48602-490",
      "addr:street": "Avenida Ministro Landulfo Alves",
      "addr:suburb": "Centro",
      "building": "yes",
      "name": "Ilha Auto Peças",
      "shop": "car_parts"
      },
      "geometry": {
         "type": "Point",
         "coordinates": [-38.2212204,-9.4011376]
      }
    },
    {
      "type": "Feature",
      "properties": { 
      "IBGE:COD_UNICO_ENDERECO": "216814641",
      "addr:housenumber": "15",
      "addr:postcode": "48602-150",
      "addr:street": "Rua da Grécia",
      "addr:suburb": "Centro",
      "building": "yes",
      "description": "CNEFE 2022 Ponto Comercial",
      "shop": "yes"
      },
      "geometry": {
         "type": "Point",
         "coordinates": [-38.222035,-9.4051056]
      }
    },
    {
      "type": "Feature",
      "properties": { 
      "IBGE:COD_UNICO_ENDERECO": "27298758",
      "addr:housenumber": "462",
      "addr:postcode": "48601-000",
      "addr:street": "Avenida Getúlio Vargas",
      "addr:suburb": "Centro",
      "building": "yes",
      "name": "Loja Rio Malhas",
      "shop": "yes"
      },
      "geometry": {
         "type": "Point",
         "coordinates": [-38.2167277,-9.4031368]
      }
    },
    {
      "type": "Feature",
      "properties": { 
      "IBGE:COD_UNICO_ENDERECO": "27302775",
      "addr:housenumber": "236",
      "addr:postcode": "48611-030",
      "addr:street": "Rua Padre Cícero",
      "addr:suburb": "Centro",
      "building": "yes"
      },
      "geometry": {
         "type": "Point",
         "coordinates": [-38.2151555,-9.4107269]
      }
    },
    {
      "type": "Feature",
      "properties": { 
      "IBGE:COD_UNICO_ENDERECO": "27299558",
      "addr:housenumber": "315",
      "addr:postcode": "48601-480",
      "addr:street": "Rua Barão do Rio Branco",
      "addr:suburb": "Centro",
      "building": "yes"
      },
      "geometry": {
         "type": "Point",
         "coordinates": [-38.2171662,-9.4076818]
      }
    },
    {
      "type": "Feature",
      "properties": { 
      "IBGE:COD_UNICO_ENDERECO": "27367970",
      "addr:housenumber": "39",
      "addr:postcode": "48601-080",
      "addr:street": "Rua José de Alencar",
      "addr:suburb": "Centro",
      "building": "yes",
      "fixme": "Verificar coordenadas",
      "note": "Sem face no bayface do IBGE 0500-0083P-2-2"
      },
      "geometry": {
         "type": "Point",
         "coordinates": [-38.216408,-9.412339]
      }
    },
    {
      "type": "Feature",
      "properties": { 
      "IBGE:COD_UNICO_ENDERECO": "27298197",
      "addr:housenumber": "43",
      "addr:postcode": "48602-180",
      "addr:street": "Rua Tiradentes",
      "addr:suburb": "Centro",
      "building": "yes"
      },
      "geometry": {
         "type": "Point",
         "coordinates": [-38.2202158,-9.4030091]
      }
    },
    {
      "type": "Feature",
      "properties": { 
      "IBGE:COD_UNICO_ENDERECO": "27302594",
      "addr:housenumber": "145 Térreo Apartamento 1",
      "addr:postcode": "48601-055",
      "addr:street": "Rua Padre João Evangelista",
      "addr:suburb": "Centro",
      "building": "yes"
      },
      "geometry": {
         "type": "Point",
         "coordinates": [-38.2163772,-9.4076239]
      }
    },
    {
      "type": "Feature",
      "properties": { 
      "IBGE:COD_UNICO_ENDERECO": "27305966",
      "addr:housenumber": "178 Sobrado Térreo Casa 2",
      "addr:postcode": "48601-470",
      "addr:street": "Rua da Alegria",
      "addr:suburb": "Centro",
      "building": "yes"
      },
      "geometry": {
         "type": "Point",
         "coordinates": [-38.2200107,-9.4097387]
      }
    },
    {
      "type": "Feature",
      "properties": { 
      "IBGE:COD_UNICO_ENDERECO": "27303610",
      "addr:housenumber": "146",
      "addr:postcode": "48602-200",
      "addr:street": "Rua Alto da Boa Vista",
      "addr:suburb": "Centro",
      "building": "yes"
      },
      "geometry": {
         "type": "Point",
         "coordinates": [-38.221358,-9.4048146]
      }
    },
    {
      "type": "Feature",
      "properties": { 
      "IBGE:COD_UNICO_ENDERECO": "27306672",
      "addr:housenumber": "107",
      "addr:postcode": "48609-202",
      "addr:street": "Rua Duque de Caxias",
      "addr:suburb": "Centro",
      "building": "yes",
      "fixme": "Verificar coordenadas",
      "note": "Sem face no bayface do IBGE 0500-0033P-8-4"
      },
      "geometry": {
         "type": "Point",
         "coordinates": [-38.223715,-9.404757]
      }
    },
    {
      "type": "Feature",
      "properties": { 
      "IBGE:COD_UNICO_ENDERECO": "27416065",
      "addr:housenumber": "675",
      "addr:postcode": "48602-595",
      "addr:street": "Avenida Otaviano Leandro de Moraes",
      "addr:suburb": "Centro",
      "building": "yes",
      "name": "Venda de Laticínios Queijo e Leite",
      "shop": "dairy"
      },
      "geometry": {
         "type": "Point",
         "coordinates": [-38.2234434,-9.4024894]
      }
    },
    {
      "type": "Feature",
      "properties": { 
      "IBGE:COD_UNICO_ENDERECO": "27306462",
      "addr:housenumber": "12 Sobrado Térreo",
      "addr:postcode": "48609-492",
      "addr:street": "Rua Curitiba",
      "addr:suburb": "Centro",
      "building": "yes"
      },
      "geometry": {
         "type": "Point",
         "coordinates": [-38.2256288,-9.40369]
      }
    },
    {
      "type": "Feature",
      "properties": { 
      "IBGE:COD_UNICO_ENDERECO": "218691956",
      "addr:housenumber": "64",
      "addr:postcode": "48601-012",
      "addr:street": "Rua Recanto Feliz",
      "addr:suburb": "Centro",
      "building": "yes",
      "fixme": "Verificar coordenadas",
      "note": "Sem face no bayface do IBGE 0500-0129P-1-4"
      },
      "geometry": {
         "type": "Point",
         "coordinates": [-38.215417,-9.409084]
      }
    },
    {
      "type": "Feature",
      "properties": { 
      "IBGE:COD_UNICO_ENDERECO": "27305887",
      "addr:housenumber": "183",
      "addr:postcode": "48601-430",
      "addr:street": "Rua dos Navegantes",
      "addr:suburb": "Centro",
      "building": "yes"
      },
      "geometry": {
         "type": "Point",
         "coordinates": [-38.220278,-9.4081901]
      }
    },
    {
      "type": "Feature",
      "properties": { 
      "IBGE:COD_UNICO_ENDERECO": "27300703",
      "addr:housenumber": "100 Térreo",
      "addr:postcode": "48602-190",
      "addr:street": "Rua Rui Barbosa",
      "addr:suburb": "Centro",
      "building": "yes"
      },
      "geometry": {
         "type": "Point",
         "coordinates": [-38.2210141,-9.4037289]
      }
    },
    {
      "type": "Feature",
      "properties": { 
      "IBGE:COD_UNICO_ENDERECO": "27307350",
      "addr:housenumber": "1093",
      "addr:postcode": "48601-210",
      "addr:street": "Rua Marechal Floriano Peixoto",
      "addr:suburb": "Centro",
      "building": "yes",
      "healthcare": "yes",
      "name": "Cim Centro Integrado de Medicina"
      },
      "geometry": {
         "type": "Point",
         "coordinates": [-38.2301192,-9.3997704]
      }
    },
    {
      "type": "Feature",
      "properties": { 
      "IBGE:COD_UNICO_ENDERECO": "27303384",
      "addr:housenumber": "274",
      "addr:postcode": "48601-350",
      "addr:street": "Rua Tamandaré",
      "addr:suburb": "Centro",
      "building": "yes"
      },
      "geometry": {
         "type": "Point",
         "coordinates": [-38.2201703,-9.4077477]
      }
    },
    {
      "type": "Feature",
      "properties": { 
      "IBGE:COD_UNICO_ENDERECO": "191728080",
      "addr:housenumber": "232 A",
      "addr:postcode": "48602-190",
      "addr:street": "Rua Rui Barbosa",
      "addr:suburb": "Centro",
      "building": "yes"
      },
      "geometry": {
         "type": "Point",
         "coordinates": [-38.2202365,-9.4045851]
      }
    },
    {
      "type": "Feature",
      "properties": { 
      "IBGE:COD_UNICO_ENDERECO": "27301753",
      "addr:housenumber": "24",
      "addr:postcode": "48602-520",
      "addr:street": "Travessa Santos Dumont",
      "addr:suburb": "Centro",
      "building": "yes"
      },
      "geometry": {
         "type": "Point",
         "coordinates": [-38.2214698,-9.4000709]
      }
    },
    {
      "type": "Feature",
      "properties": { 
      "IBGE:COD_UNICO_ENDERECO": "27299423",
      "addr:housenumber": "67",
      "addr:postcode": "48601-550",
      "addr:street": "Beco da Alegria",
      "addr:suburb": "Centro",
      "building": "construction"
      },
      "geometry": {
         "type": "Point",
         "coordinates": [-38.2170876,-9.4062319]
      }
    },
    {
      "type": "Feature",
      "properties": { 
      "IBGE:COD_UNICO_ENDERECO": "27306486",
      "addr:housenumber": "855",
      "addr:postcode": "48602-120",
      "addr:street": "Rua Noé Pires de Carvalho",
      "addr:suburb": "Centro",
      "building": "yes"
      },
      "geometry": {
         "type": "Point",
         "coordinates": [-38.225155,-9.4030603]
      }
    },
    {
      "type": "Feature",
      "properties": { 
      "IBGE:COD_UNICO_ENDERECO": "218003256",
      "addr:housenumber": "62 D",
      "addr:postcode": "48601-280",
      "addr:street": "Rua Cabo Antônio Luís Brito",
      "addr:suburb": "Centro",
      "building": "yes"
      },
      "geometry": {
         "type": "Point",
         "coordinates": [-38.2218541,-9.400288]
      }
    },
    {
      "type": "Feature",
      "properties": { 
      "IBGE:COD_UNICO_ENDERECO": "27307150",
      "addr:housenumber": "617",
      "addr:postcode": "48601-210",
      "addr:street": "Rua Marechal Floriano Peixoto",
      "addr:suburb": "Centro",
      "amenity": "dentist",
      "building": "yes",
      "description": "CNEFE 2022 Laboratório de Prótese Dentária",
      "healthcare": "laboratory"
      },
      "geometry": {
         "type": "Point",
         "coordinates": [-38.225868,-9.3997026]
      }
    },
    {
      "type": "Feature",
      "properties": { 
      "IBGE:COD_UNICO_ENDERECO": "27303528",
      "addr:housenumber": "188",
      "addr:postcode": "48602-060",
      "addr:street": "Rua Padre Lourenço",
      "addr:suburb": "Centro",
      "building": "yes"
      },
      "geometry": {
         "type": "Point",
         "coordinates": [-38.2217724,-9.4052999]
      }
    },
    {
      "type": "Feature",
      "properties": { 
      "IBGE:COD_UNICO_ENDERECO": "27302943",
      "addr:housenumber": "1109",
      "addr:postcode": "48601-070",
      "addr:street": "Rua São Francisco",
      "addr:suburb": "Centro",
      "building": "yes"
      },
      "geometry": {
         "type": "Point",
         "coordinates": [-38.2145592,-9.4106309]
      }
    },
    {
      "type": "Feature",
      "properties": { 
      "IBGE:COD_UNICO_ENDERECO": "27367689",
      "addr:housenumber": "298 Térreo",
      "addr:postcode": "48601-045",
      "addr:street": "Rua São João",
      "addr:suburb": "Centro",
      "building": "yes"
      },
      "geometry": {
         "type": "Point",
         "coordinates": [-38.2172412,-9.4094345]
      }
    },
    {
      "type": "Feature",
      "properties": { 
      "IBGE:COD_UNICO_ENDERECO": "27302974",
      "addr:housenumber": "115 B",
      "addr:postcode": "48610-604",
      "addr:street": "Rua São Benedito",
      "addr:suburb": "Centro",
      "building": "yes",
      "fixme": "Verificar coordenadas",
      "note": "Sem face no bayface do IBGE 0500-0020P-1-28"
      },
      "geometry": {
         "type": "Point",
         "coordinates": [-38.218868,-9.410195]
      }
    },
    {
      "type": "Feature",
      "properties": { 
      "IBGE:COD_UNICO_ENDERECO": "27367967;191735752",
      "addr:housenumber": "203",
      "addr:postcode": "48601-080",
      "addr:street": "Rua José de Alencar",
      "addr:suburb": "Centro",
      "building": "yes",
      "fixme": "Verificar coordenadas",
      "note": "Sem face no bayface do IBGE 0500-0083P-2-2"
      },
      "geometry": {
         "type": "Point",
         "coordinates": [-38.215713,-9.4120975]
      }
    },
    {
      "type": "Feature",
      "properties": { 
      "IBGE:COD_UNICO_ENDERECO": "27301202",
      "addr:housenumber": "415",
      "addr:postcode": "48602-005",
      "addr:street": "Avenida Otaviano Leandro de Moraes",
      "addr:suburb": "Centro",
      "addr:unit": "Casa",
      "building": "yes",
      "fixme": "Verificar coordenadas",
      "note": "Sem face no bayface do IBGE 0500-0013P-1-1"
      },
      "geometry": {
         "type": "Point",
         "coordinates": [-38.221384,-9.401767]
      }
    },
    {
      "type": "Feature",
      "properties": { 
      "IBGE:COD_UNICO_ENDERECO": "191530915;191530917;191530919;191530923",
      "addr:housenumber": "57",
      "addr:postcode": "48601-570",
      "addr:street": "Rua Vereador Moisés Pereira",
      "addr:suburb": "Centro",
      "building": "yes"
      },
      "geometry": {
         "type": "Point",
         "coordinates": [-38.2198686,-9.4053029]
      }
    },
    {
      "type": "Feature",
      "properties": { 
      "IBGE:COD_UNICO_ENDERECO": "223505243",
      "addr:housenumber": "114",
      "addr:postcode": "48601-370",
      "addr:street": "Rua São Benedito",
      "addr:suburb": "Centro",
      "building": "yes"
      },
      "geometry": {
         "type": "Point",
         "coordinates": [-38.2196667,-9.4103774]
      }
    },
    {
      "type": "Feature",
      "properties": { 
      "IBGE:COD_UNICO_ENDERECO": "27298741",
      "addr:housenumber": "378 Térreo",
      "addr:postcode": "48601-000",
      "addr:street": "Avenida Getúlio Vargas",
      "addr:suburb": "Centro",
      "building": "yes",
      "name": "Artimika Confecções",
      "shop": "clothes"
      },
      "geometry": {
         "type": "Point",
         "coordinates": [-38.216983,-9.4024667]
      }
    },
    {
      "type": "Feature",
      "properties": { 
      "IBGE:COD_UNICO_ENDERECO": "27367960",
      "addr:housenumber": "304",
      "addr:postcode": "48601-080",
      "addr:street": "Rua José de Alencar",
      "addr:suburb": "Centro",
      "building": "yes",
      "fixme": "Verificar coordenadas",
      "note": "Sem face no bayface do IBGE 0500-0083P-2-2"
      },
      "geometry": {
         "type": "Point",
         "coordinates": [-38.215283,-9.411871]
      }
    },
    {
      "type": "Feature",
      "properties": { 
      "IBGE:COD_UNICO_ENDERECO": "27307376",
      "addr:housenumber": "1765",
      "addr:postcode": "48601-210",
      "addr:street": "Rua Marechal Floriano Peixoto",
      "addr:suburb": "Centro",
      "addr:unit": "Anexo",
      "building": "yes",
      "name": "Vendinha Caipiro",
      "shop": "convenience"
      },
      "geometry": {
         "type": "Point",
         "coordinates": [-38.230848,-9.3997789]
      }
    },
    {
      "type": "Feature",
      "properties": { 
      "IBGE:COD_UNICO_ENDERECO": "27298481",
      "addr:housenumber": "47",
      "addr:postcode": "48602-005",
      "addr:street": "Avenida Otaviano Leandro de Morais",
      "addr:suburb": "Centro",
      "building": "warehouse",
      "description": "CNEFE 2022 Depósito Farmácia"
      },
      "geometry": {
         "type": "Point",
         "coordinates": [-38.2180681,-9.4007238]
      }
    },
    {
      "type": "Feature",
      "properties": { 
      "IBGE:COD_UNICO_ENDERECO": "27361965",
      "addr:housenumber": "729",
      "addr:postcode": "48608-030",
      "addr:suburb": "Centro",
      "building": "yes",
      "name": "Bbc Advogados",
      "office": "lawyer"
      },
      "geometry": {
         "type": "Point",
         "coordinates": [-38.2266778,-9.3978035]
      }
    },
    {
      "type": "Feature",
      "properties": { 
      "IBGE:COD_UNICO_ENDERECO": "27301659",
      "addr:housenumber": "202",
      "addr:postcode": "48602-490",
      "addr:street": "Avenida Ministro Landulfo Alves",
      "addr:suburb": "Centro",
      "building": "yes"
      },
      "geometry": {
         "type": "Point",
         "coordinates": [-38.2194813,-9.4006217]
      }
    },
    {
      "type": "Feature",
      "properties": { 
      "IBGE:COD_UNICO_ENDERECO": "27361830",
      "addr:housenumber": "689 Térreo",
      "addr:postcode": "48601-070",
      "addr:street": "Rua São Francisco",
      "addr:suburb": "Centro",
      "building": "yes",
      "name": "Diógenes Comunicação Visual"
      },
      "geometry": {
         "type": "Point",
         "coordinates": [-38.2158886,-9.4066781]
      }
    },
    {
      "type": "Feature",
      "properties": { 
      "IBGE:COD_UNICO_ENDERECO": "27367641",
      "addr:housenumber": "136 Térreo",
      "addr:postcode": "48601-010",
      "addr:street": "Rua Santa Rosa",
      "addr:suburb": "Centro",
      "building": "yes",
      "fixme": "Verificar coordenadas",
      "note": "Sem face no bayface do IBGE 0500-0080P-2-5"
      },
      "geometry": {
         "type": "Point",
         "coordinates": [-38.215903,-9.409355]
      }
    },
    {
      "type": "Feature",
      "properties": { 
      "IBGE:COD_UNICO_ENDERECO": "109047088",
      "addr:housenumber": "172",
      "addr:postcode": "48602-490",
      "addr:street": "Avenida Ministro Landulfo Alves",
      "addr:suburb": "Centro",
      "amenity": "prep_school",
      "building": "yes",
      "name": "Prepara Cursos"
      },
      "geometry": {
         "type": "Point",
         "coordinates": [-38.2191875,-9.4005345]
      }
    },
    {
      "type": "Feature",
      "properties": { 
      "IBGE:COD_UNICO_ENDERECO": "27416701",
      "addr:housenumber": "89",
      "addr:postcode": "48601-045",
      "addr:street": "Rua São João",
      "addr:suburb": "Centro",
      "building": "yes"
      },
      "geometry": {
         "type": "Point",
         "coordinates": [-38.2158921,-9.408032]
      }
    },
    {
      "type": "Feature",
      "properties": { 
      "IBGE:COD_UNICO_ENDERECO": "27303320",
      "addr:housenumber": "457",
      "addr:postcode": "48602-100",
      "addr:street": "Rua Presidente Médici",
      "addr:suburb": "Centro",
      "building": "yes"
      },
      "geometry": {
         "type": "Point",
         "coordinates": [-38.2215362,-9.406639]
      }
    },
    {
      "type": "Feature",
      "properties": { 
      "IBGE:COD_UNICO_ENDERECO": "27307309",
      "addr:housenumber": "1515",
      "addr:postcode": "48601-210",
      "addr:street": "Rua Marechal Floriano Peixoto",
      "addr:suburb": "Centro",
      "addr:unit": "Casa 1515",
      "building": "yes"
      },
      "geometry": {
         "type": "Point",
         "coordinates": [-38.2287826,-9.3997445]
      }
    },
    {
      "type": "Feature",
      "properties": { 
      "IBGE:COD_UNICO_ENDERECO": "27302804",
      "addr:housenumber": "171",
      "addr:postcode": "48601-052",
      "addr:street": "Rua General Dutra",
      "addr:suburb": "Centro",
      "building": "yes"
      },
      "geometry": {
         "type": "Point",
         "coordinates": [-38.2159689,-9.4108091]
      }
    },
    {
      "type": "Feature",
      "properties": { 
      "IBGE:COD_UNICO_ENDERECO": "191535395",
      "addr:housenumber": "186",
      "addr:postcode": "48601-120",
      "addr:street": "Rua da Paz",
      "addr:suburb": "Centro",
      "building": "yes"
      },
      "geometry": {
         "type": "Point",
         "coordinates": [-38.2176879,-9.4109882]
      }
    },
    {
      "type": "Feature",
      "properties": { 
      "IBGE:COD_UNICO_ENDERECO": "27298906",
      "addr:housenumber": "152",
      "addr:postcode": "48601-070",
      "addr:street": "Rua São Francisco",
      "addr:suburb": "Centro",
      "building": "yes"
      },
      "geometry": {
         "type": "Point",
         "coordinates": [-38.2177859,-9.4019418]
      }
    },
    {
      "type": "Feature",
      "properties": { 
      "IBGE:COD_UNICO_ENDERECO": "27300506",
      "addr:housenumber": "317 Térreo",
      "addr:postcode": "48601-375",
      "addr:street": "Rua General Dutra",
      "addr:suburb": "Centro",
      "building": "yes"
      },
      "geometry": {
         "type": "Point",
         "coordinates": [-38.2189559,-9.4087837]
      }
    },
    {
      "type": "Feature",
      "properties": { 
      "IBGE:COD_UNICO_ENDERECO": "27297834",
      "addr:housenumber": "240",
      "addr:postcode": "48602-010",
      "addr:street": "Rua Alonso Maciel",
      "addr:suburb": "Centro",
      "building": "yes"
      },
      "geometry": {
         "type": "Point",
         "coordinates": [-38.2181021,-9.4028998]
      }
    },
    {
      "type": "Feature",
      "properties": { 
      "IBGE:COD_UNICO_ENDERECO": "27304249",
      "addr:housenumber": "120 Térreo",
      "addr:postcode": "48601-280",
      "addr:street": "Rua Cabo Antônio Luís Brito",
      "addr:suburb": "Centro",
      "building": "yes",
      "name": "Escritório Déa Advocacia",
      "office": "lawyer"
      },
      "geometry": {
         "type": "Point",
         "coordinates": [-38.2220608,-9.39972]
      }
    },
    {
      "type": "Feature",
      "properties": { 
      "IBGE:COD_UNICO_ENDERECO": "27299962",
      "addr:housenumber": "143",
      "addr:postcode": "48601-540",
      "addr:street": "Rua do Sol",
      "addr:suburb": "Centro",
      "building": "yes",
      "fixme": "Verificar coordenadas",
      "note": "Sem face no bayface do IBGE 0500-0008P-1-8"
      },
      "geometry": {
         "type": "Point",
         "coordinates": [-38.218653,-9.407074]
      }
    },
    {
      "type": "Feature",
      "properties": { 
      "IBGE:COD_UNICO_ENDERECO": "27367680",
      "addr:housenumber": "248",
      "addr:postcode": "48601-045",
      "addr:street": "Rua São João",
      "addr:suburb": "Centro",
      "building": "yes"
      },
      "geometry": {
         "type": "Point",
         "coordinates": [-38.2169274,-9.4090202]
      }
    },
    {
      "type": "Feature",
      "properties": { 
      "IBGE:COD_UNICO_ENDERECO": "27303373",
      "addr:housenumber": "234",
      "addr:postcode": "48601-350",
      "addr:street": "Rua Tamandaré",
      "addr:suburb": "Centro",
      "building": "yes"
      },
      "geometry": {
         "type": "Point",
         "coordinates": [-38.220321,-9.4073673]
      }
    },
    {
      "type": "Feature",
      "properties": { 
      "IBGE:COD_UNICO_ENDERECO": "27303082;191749002",
      "addr:housenumber": "331",
      "addr:postcode": "48601-470",
      "addr:street": "Rua da Alegria",
      "addr:suburb": "Centro",
      "building": "yes",
      "fixme": "Verificar coordenadas",
      "note": "Sem dados para mover para dentro da quadra 0500-0020P-1-27"
      },
      "geometry": {
         "type": "Point",
         "coordinates": [-38.2190046,-9.4110248]
      }
    },
    {
      "type": "Feature",
      "properties": { 
      "IBGE:COD_UNICO_ENDERECO": "90499755",
      "addr:housenumber": "670",
      "addr:postcode": "48601-270",
      "addr:street": "Rua São Francisco",
      "addr:suburb": "Centro",
      "building": "yes"
      },
      "geometry": {
         "type": "Point",
         "coordinates": [-38.2160553,-9.4065813]
      }
    },
    {
      "type": "Feature",
      "properties": { 
      "IBGE:COD_UNICO_ENDERECO": "27300900",
      "addr:housenumber": "231 Sobrado",
      "addr:postcode": "48602-200",
      "addr:street": "Rua Alto da Boa Vista",
      "addr:suburb": "Centro",
      "building": "yes"
      },
      "geometry": {
         "type": "Point",
         "coordinates": [-38.2208142,-9.4053381]
      }
    },
    {
      "type": "Feature",
      "properties": { 
      "IBGE:COD_UNICO_ENDERECO": "217982199",
      "addr:housenumber": "126",
      "addr:postcode": "48602-180",
      "addr:street": "Rua Tiradentes",
      "addr:suburb": "Centro",
      "building": "yes"
      },
      "geometry": {
         "type": "Point",
         "coordinates": [-38.2198949,-9.4033954]
      }
    },
    {
      "type": "Feature",
      "properties": { 
      "IBGE:COD_UNICO_ENDERECO": "27299537",
      "addr:housenumber": "394",
      "addr:postcode": "48601-400",
      "addr:street": "Rua Riachuelo",
      "addr:suburb": "Centro",
      "building": "yes"
      },
      "geometry": {
         "type": "Point",
         "coordinates": [-38.216954,-9.4077821]
      }
    },
    {
      "type": "Feature",
      "properties": { 
      "IBGE:COD_UNICO_ENDERECO": "27362262",
      "addr:housenumber": "132",
      "addr:postcode": "48601-150",
      "addr:street": "Rua Pedro Álvares Cabral",
      "addr:suburb": "Centro",
      "building": "yes",
      "fixme": "Verificar coordenadas",
      "note": "Sem face no bayface do IBGE 0500-0061P-1-7"
      },
      "geometry": {
         "type": "Point",
         "coordinates": [-38.217096,-9.410907]
      }
    },
    {
      "type": "Feature",
      "properties": { 
      "IBGE:COD_UNICO_ENDERECO": "27300812",
      "addr:housenumber": "166",
      "addr:postcode": "48602-220",
      "addr:street": "Rua São Luís",
      "addr:suburb": "Centro",
      "building": "yes",
      "fixme": "Verificar coordenadas",
      "note": "Fora da área de projeção da face 0500-0011P-3-1"
      },
      "geometry": {
         "type": "Point",
         "coordinates": [-38.221084,-9.403985]
      }
    },
    {
      "type": "Feature",
      "properties": { 
      "IBGE:COD_UNICO_ENDERECO": "27415994",
      "addr:housenumber": "64",
      "addr:postcode": "48602-180",
      "addr:street": "Rua Tiradentes",
      "addr:suburb": "Centro",
      "building": "yes"
      },
      "geometry": {
         "type": "Point",
         "coordinates": [-38.2203017,-9.4031513]
      }
    },
    {
      "type": "Feature",
      "properties": { 
      "IBGE:COD_UNICO_ENDERECO": "27301249",
      "addr:housenumber": "251",
      "addr:postcode": "48602-005",
      "addr:street": "Avenida Otaviano Leandro de Moraes",
      "addr:suburb": "Centro",
      "building": "yes",
      "fixme": "Verificar coordenadas",
      "note": "Sem face no bayface do IBGE 0500-0013P-1-1"
      },
      "geometry": {
         "type": "Point",
         "coordinates": [-38.219858,-9.401264]
      }
    },
    {
      "type": "Feature",
      "properties": { 
      "IBGE:COD_UNICO_ENDERECO": "27367579",
      "addr:housenumber": "820",
      "addr:postcode": "48601-100",
      "addr:street": "Rua José de Oliveira Matos",
      "addr:suburb": "Centro",
      "building": "yes",
      "fixme": "Verificar coordenadas",
      "note": "Sem dados para mover para dentro da quadra 0500-0080P-1-10"
      },
      "geometry": {
         "type": "Point",
         "coordinates": [-38.2162433,-9.4100613]
      }
    },
    {
      "type": "Feature",
      "properties": { 
      "IBGE:COD_UNICO_ENDERECO": "216814725",
      "addr:housenumber": "407",
      "addr:postcode": "48610-492",
      "addr:street": "Rua Alto Novo",
      "addr:suburb": "Centro",
      "addr:unit": "Anexo",
      "building": "yes",
      "name": "Empório Wm",
      "shop": "convenience"
      },
      "geometry": {
         "type": "Point",
         "coordinates": [-38.2218276,-9.4061049]
      }
    },
    {
      "type": "Feature",
      "properties": { 
      "IBGE:COD_UNICO_ENDERECO": "27298811-27298812",
      "addr:housenumber": "459",
      "addr:postcode": "48601-000",
      "addr:street": "Avenida Getúlio Vargas",
      "addr:suburb": "Centro",
      "building": "yes"
      },
      "geometry": {
         "type": "Point",
         "coordinates": [-38.2161511,-9.4034289]
      }
    },
    {
      "type": "Feature",
      "properties": { 
      "IBGE:COD_UNICO_ENDERECO": "27300734",
      "addr:housenumber": "291",
      "addr:postcode": "48602-070",
      "addr:street": "Rua Marechal Castelo Branco",
      "addr:suburb": "Centro",
      "building": "yes"
      },
      "geometry": {
         "type": "Point",
         "coordinates": [-38.2217272,-9.4031929]
      }
    },
    {
      "type": "Feature",
      "properties": { 
      "IBGE:COD_UNICO_ENDERECO": "27298499",
      "addr:housenumber": "17",
      "addr:postcode": "48601-000",
      "addr:street": "Avenida Getúlio Vargas",
      "addr:suburb": "Centro",
      "amenity": "pub",
      "building": "yes",
      "name": "Gabinete Bar e Espeto"
      },
      "geometry": {
         "type": "Point",
         "coordinates": [-38.2170785,-9.4017467]
      }
    },
    {
      "type": "Feature",
      "properties": { 
      "IBGE:COD_UNICO_ENDERECO": "27416683",
      "addr:housenumber": "992",
      "addr:postcode": "48601-070",
      "addr:street": "Rua São Francisco",
      "addr:suburb": "Centro",
      "building": "yes"
      },
      "geometry": {
         "type": "Point",
         "coordinates": [-38.2149831,-9.4095721]
      }
    },
    {
      "type": "Feature",
      "properties": { 
      "IBGE:COD_UNICO_ENDERECO": "27303457",
      "addr:housenumber": "392",
      "addr:postcode": "48610-492",
      "addr:street": "Rua Alto Novo",
      "addr:suburb": "Centro",
      "building": "yes"
      },
      "geometry": {
         "type": "Point",
         "coordinates": [-38.2219883,-9.4061328]
      }
    },
    {
      "type": "Feature",
      "properties": { 
      "IBGE:COD_UNICO_ENDERECO": "27301278",
      "addr:housenumber": "213",
      "addr:postcode": "48602-005",
      "addr:street": "Avenida Otaviano Leandro de Moraes",
      "addr:suburb": "Centro",
      "building": "yes",
      "fixme": "Verificar coordenadas",
      "note": "Sem face no bayface do IBGE 0500-0013P-1-1"
      },
      "geometry": {
         "type": "Point",
         "coordinates": [-38.21948,-9.401074]
      }
    },
    {
      "type": "Feature",
      "properties": { 
      "IBGE:COD_UNICO_ENDERECO": "192008149",
      "addr:housenumber": "49",
      "addr:postcode": "48601-000",
      "addr:street": "Avenida Getúlio Vargas",
      "addr:suburb": "Centro",
      "amenity": "fast_food",
      "building": "yes",
      "fixme": "Verificar coordenadas",
      "name": "Lanchonete da Lourdes",
      "note": "Muito afastado da face: 44m 0500-0004P-4-3"
      },
      "geometry": {
         "type": "Point",
         "coordinates": [-38.217128,-9.40007]
      }
    },
    {
      "type": "Feature",
      "properties": { 
      "IBGE:COD_UNICO_ENDERECO": "27367937",
      "addr:housenumber": "476",
      "addr:postcode": "48601-052",
      "addr:street": "Rua General Dutra",
      "addr:suburb": "Centro",
      "building": "yes",
      "fixme": "Verificar coordenadas",
      "note": "Sem dados para mover para dentro da quadra 0500-0083P-2-1"
      },
      "geometry": {
         "type": "Point",
         "coordinates": [-38.2155491,-9.4112495]
      }
    },
    {
      "type": "Feature",
      "properties": { 
      "IBGE:COD_UNICO_ENDERECO": "27297890",
      "addr:housenumber": "347",
      "addr:postcode": "48602-160",
      "addr:street": "Rua Marieta Ferraz",
      "addr:suburb": "Centro",
      "addr:unit": "Depósito",
      "building": "warehouse",
      "description": "CNEFE 2022 Depósito"
      },
      "geometry": {
         "type": "Point",
         "coordinates": [-38.2193679,-9.4048179]
      }
    },
    {
      "type": "Feature",
      "properties": { 
      "IBGE:COD_UNICO_ENDERECO": "194553468",
      "addr:housenumber": "108",
      "addr:postcode": "48601-480",
      "addr:street": "Rua Barão do Rio Branco",
      "addr:suburb": "Centro",
      "building": "yes",
      "fixme": "Verificar coordenadas",
      "note": "Sem face no bayface do IBGE 0500-0007P-2-12"
      },
      "geometry": {
         "type": "Point",
         "coordinates": [-38.217946,-9.40569]
      }
    },
    {
      "type": "Feature",
      "properties": { 
      "IBGE:COD_UNICO_ENDERECO": "27303196-27303197",
      "addr:housenumber": "491",
      "addr:postcode": "48602-140",
      "addr:street": "Rua Marechal Costa e Silva",
      "addr:suburb": "Centro",
      "building": "yes"
      },
      "geometry": {
         "type": "Point",
         "coordinates": [-38.2210703,-9.4081273]
      }
    },
    {
      "type": "Feature",
      "properties": { 
      "IBGE:COD_UNICO_ENDERECO": "27305715",
      "addr:housenumber": "1400",
      "addr:postcode": "48601-070",
      "addr:street": "Rua São Francisco",
      "addr:suburb": "Centro",
      "building": "yes"
      },
      "geometry": {
         "type": "Point",
         "coordinates": [-38.2143422,-9.412195]
      }
    },
    {
      "type": "Feature",
      "properties": { 
      "IBGE:COD_UNICO_ENDERECO": "27297783",
      "addr:housenumber": "258",
      "addr:postcode": "48602-080",
      "addr:street": "Rua Engenheiro Alves de Sousa",
      "addr:suburb": "Centro",
      "amenity": "restaurant",
      "building": "yes",
      "name": "Restaurante Gomes"
      },
      "geometry": {
         "type": "Point",
         "coordinates": [-38.2177236,-9.4039743]
      }
    },
    {
      "type": "Feature",
      "properties": { 
      "IBGE:COD_UNICO_ENDERECO": "27299509",
      "addr:housenumber": "50",
      "addr:postcode": "48601-400",
      "addr:street": "Rua Riachuelo",
      "addr:suburb": "Centro",
      "building": "yes"
      },
      "geometry": {
         "type": "Point",
         "coordinates": [-38.2167893,-9.4077775]
      }
    },
    {
      "type": "Feature",
      "properties": { 
      "IBGE:COD_UNICO_ENDERECO": "27303578",
      "addr:housenumber": "395 Frente",
      "addr:postcode": "48610-492",
      "addr:street": "Rua Alto Novo",
      "addr:suburb": "Centro",
      "building": "yes"
      },
      "geometry": {
         "type": "Point",
         "coordinates": [-38.2218816,-9.4060009]
      }
    },
    {
      "type": "Feature",
      "properties": { 
      "IBGE:COD_UNICO_ENDERECO": "27297942-27297943",
      "addr:housenumber": "230",
      "addr:postcode": "48602-180",
      "addr:street": "Rua Tiradentes",
      "addr:suburb": "Centro",
      "building": "yes"
      },
      "geometry": {
         "type": "Point",
         "coordinates": [-38.2193236,-9.4043332]
      }
    },
    {
      "type": "Feature",
      "properties": { 
      "IBGE:COD_UNICO_ENDERECO": "192008755",
      "addr:housenumber": "406",
      "addr:postcode": "48601-000",
      "addr:street": "Avenida Getúlio Vargas",
      "addr:suburb": "Centro",
      "building": "yes"
      },
      "geometry": {
         "type": "Point",
         "coordinates": [-38.2169007,-9.4026839]
      }
    },
    {
      "type": "Feature",
      "properties": { 
      "IBGE:COD_UNICO_ENDERECO": "27304150",
      "addr:housenumber": "24",
      "addr:postcode": "48601-210",
      "addr:street": "Rua Marechal Floriano Peixoto",
      "addr:suburb": "Centro",
      "building": "yes",
      "name": "Marujao Veículos"
      },
      "geometry": {
         "type": "Point",
         "coordinates": [-38.2240692,-9.3996757]
      }
    },
    {
      "type": "Feature",
      "properties": { 
      "IBGE:COD_UNICO_ENDERECO": "27367671-27367672",
      "addr:housenumber": "220",
      "addr:postcode": "48601-045",
      "addr:street": "Rua São João",
      "addr:suburb": "Centro",
      "building": "yes"
      },
      "geometry": {
         "type": "Point",
         "coordinates": [-38.2167581,-9.408834]
      }
    },
    {
      "type": "Feature",
      "properties": { 
      "IBGE:COD_UNICO_ENDERECO": "216802715",
      "addr:housenumber": "20",
      "addr:postcode": "48602-470",
      "addr:street": "Rua Luís Viana Filho",
      "addr:suburb": "Centro",
      "addr:unit": "Fundos 1",
      "building": "yes"
      },
      "geometry": {
         "type": "Point",
         "coordinates": [-38.2264866,-9.402032]
      }
    },
    {
      "type": "Feature",
      "properties": { 
      "IBGE:COD_UNICO_ENDERECO": "191735877",
      "addr:housenumber": "16 B",
      "addr:postcode": "48601-095",
      "addr:street": "Largo São Marcos",
      "addr:suburb": "Centro",
      "building": "yes"
      },
      "geometry": {
         "type": "Point",
         "coordinates": [-38.2167806,-9.4121053]
      }
    },
    {
      "type": "Feature",
      "properties": { 
      "IBGE:COD_UNICO_ENDERECO": "27362280",
      "addr:housenumber": "140",
      "addr:postcode": "48601-150",
      "addr:street": "Rua Pedro Álvares Cabral",
      "addr:suburb": "Centro",
      "addr:unit": "90",
      "building": "yes",
      "fixme": "Verificar coordenadas",
      "note": "Sem face no bayface do IBGE 0500-0061P-1-7"
      },
      "geometry": {
         "type": "Point",
         "coordinates": [-38.218128,-9.411388]
      }
    },
    {
      "type": "Feature",
      "properties": { 
      "IBGE:COD_UNICO_ENDERECO": "27300089",
      "addr:housenumber": "370",
      "addr:postcode": "48601-450",
      "addr:street": "Rua Castro Alves",
      "addr:suburb": "Centro",
      "building": "yes"
      },
      "geometry": {
         "type": "Point",
         "coordinates": [-38.2175429,-9.4086039]
      }
    },
    {
      "type": "Feature",
      "properties": { 
      "IBGE:COD_UNICO_ENDERECO": "27305827;27305840",
      "addr:housenumber": "40",
      "addr:postcode": "48601-470",
      "addr:street": "Rua da Alegria",
      "addr:suburb": "Centro",
      "addr:unit": "Entrada Casa 6",
      "building": "yes",
      "fixme": "Verificar coordenadas",
      "note": "Sem face no bayface do IBGE 0500-0031P-1-11"
      },
      "geometry": {
         "type": "Point",
         "coordinates": [-38.222763,-9.408497]
      }
    },
    {
      "type": "Feature",
      "properties": { 
      "IBGE:COD_UNICO_ENDERECO": "27367636",
      "addr:housenumber": "116",
      "addr:postcode": "48601-010",
      "addr:street": "Rua Santa Rosa",
      "addr:suburb": "Centro",
      "building": "yes",
      "fixme": "Verificar coordenadas",
      "note": "Sem face no bayface do IBGE 0500-0080P-2-5"
      },
      "geometry": {
         "type": "Point",
         "coordinates": [-38.216102,-9.409293]
      }
    },
    {
      "type": "Feature",
      "properties": { 
      "IBGE:COD_UNICO_ENDERECO": "27299335",
      "addr:housenumber": "19",
      "addr:postcode": "48601-480",
      "addr:street": "Rua Barão do Rio Branco",
      "addr:suburb": "Centro",
      "building": "yes"
      },
      "geometry": {
         "type": "Point",
         "coordinates": [-38.2181772,-9.4051238]
      }
    },
    {
      "type": "Feature",
      "properties": { 
      "IBGE:COD_UNICO_ENDERECO": "222523283",
      "addr:housenumber": "756",
      "addr:postcode": "48601-210",
      "addr:street": "Rua Marechal Floriano Peixoto",
      "addr:suburb": "Centro",
      "addr:unit": "Casa B",
      "building": "yes"
      },
      "geometry": {
         "type": "Point",
         "coordinates": [-38.2261338,-9.3996949]
      }
    },
    {
      "type": "Feature",
      "properties": { 
      "IBGE:COD_UNICO_ENDERECO": "27305695;191876095",
      "addr:housenumber": "358",
      "addr:postcode": "48601-080",
      "addr:street": "Rua José de Alencar",
      "addr:suburb": "Centro",
      "building": "yes",
      "fixme": "Verificar coordenadas",
      "note": "Sem face no bayface do IBGE 0500-0030P-2-2"
      },
      "geometry": {
         "type": "Point",
         "coordinates": [-38.2147045,-9.411691]
      }
    },
    {
      "type": "Feature",
      "properties": { 
      "IBGE:COD_UNICO_ENDERECO": "27299953",
      "addr:housenumber": "175",
      "addr:postcode": "48601-540",
      "addr:street": "Rua do Sol",
      "addr:suburb": "Centro",
      "building": "yes",
      "fixme": "Verificar coordenadas",
      "note": "Sem face no bayface do IBGE 0500-0008P-1-8"
      },
      "geometry": {
         "type": "Point",
         "coordinates": [-38.218444,-9.407385]
      }
    },
    {
      "type": "Feature",
      "properties": { 
      "IBGE:COD_UNICO_ENDERECO": "192027150",
      "addr:housenumber": "48",
      "addr:postcode": "48610-604",
      "addr:street": "Rua São Benedito",
      "addr:suburb": "Centro",
      "addr:unit": "15",
      "building": "yes",
      "fixme": "Verificar coordenadas",
      "note": "Sem face no bayface do IBGE 0500-0130P-2-27"
      },
      "geometry": {
         "type": "Point",
         "coordinates": [-38.218827,-9.409747]
      }
    },
    {
      "type": "Feature",
      "properties": { 
      "IBGE:COD_UNICO_ENDERECO": "27298403",
      "addr:housenumber": "35",
      "addr:postcode": "48602-080",
      "addr:street": "Rua Engenheiro Alves de Sousa",
      "addr:suburb": "Centro",
      "building": "yes"
      },
      "geometry": {
         "type": "Point",
         "coordinates": [-38.2189406,-9.40234]
      }
    },
    {
      "type": "Feature",
      "properties": { 
      "IBGE:COD_UNICO_ENDERECO": "27303572",
      "addr:housenumber": "415",
      "addr:postcode": "48610-492",
      "addr:street": "Rua Alto Novo",
      "addr:suburb": "Centro",
      "addr:unit": "Casa 1",
      "building": "yes"
      },
      "geometry": {
         "type": "Point",
         "coordinates": [-38.2217025,-9.4063317]
      }
    },
    {
      "type": "Feature",
      "properties": { 
      "IBGE:COD_UNICO_ENDERECO": "27299886",
      "addr:housenumber": "277",
      "addr:postcode": "48601-450",
      "addr:street": "Rua Castro Alves",
      "addr:suburb": "Centro",
      "building": "yes"
      },
      "geometry": {
         "type": "Point",
         "coordinates": [-38.2176489,-9.4079206]
      }
    },
    {
      "type": "Feature",
      "properties": { 
      "IBGE:COD_UNICO_ENDERECO": "192027169",
      "addr:housenumber": "68",
      "addr:postcode": "48610-604",
      "addr:street": "Rua São Benedito",
      "addr:suburb": "Centro",
      "building": "yes",
      "fixme": "Verificar coordenadas",
      "note": "Sem face no bayface do IBGE 0500-0130P-2-27"
      },
      "geometry": {
         "type": "Point",
         "coordinates": [-38.218972,-9.409887]
      }
    },
    {
      "type": "Feature",
      "properties": { 
      "IBGE:COD_UNICO_ENDERECO": "27298159",
      "addr:housenumber": "56",
      "addr:postcode": "48602-030",
      "addr:street": "Rua Otávio Mangabeira",
      "addr:suburb": "Centro",
      "building": "yes"
      },
      "geometry": {
         "type": "Point",
         "coordinates": [-38.219797,-9.4029535]
      }
    },
    {
      "type": "Feature",
      "properties": { 
      "IBGE:COD_UNICO_ENDERECO": "27415934",
      "addr:housenumber": "69",
      "addr:postcode": "48602-190",
      "addr:street": "Rua Rui Barbosa",
      "addr:suburb": "Centro",
      "building": "yes"
      },
      "geometry": {
         "type": "Point",
         "coordinates": [-38.2210538,-9.4034535]
      }
    },
    {
      "type": "Feature",
      "properties": { 
      "IBGE:COD_UNICO_ENDERECO": "27304291",
      "addr:housenumber": "42",
      "addr:postcode": "48601-280",
      "addr:street": "Rua Cabo Antônio Luís Brito",
      "addr:suburb": "Centro",
      "building": "yes"
      },
      "geometry": {
         "type": "Point",
         "coordinates": [-38.2217805,-9.4004716]
      }
    },
    {
      "type": "Feature",
      "properties": { 
      "IBGE:COD_UNICO_ENDERECO": "90499655",
      "addr:housenumber": "233",
      "addr:postcode": "48601-530",
      "addr:street": "Rua das Flores",
      "addr:suburb": "Centro",
      "building": "yes"
      },
      "geometry": {
         "type": "Point",
         "coordinates": [-38.2167438,-9.4062138]
      }
    },
    {
      "type": "Feature",
      "properties": { 
      "IBGE:COD_UNICO_ENDERECO": "27303585",
      "addr:housenumber": "367",
      "addr:postcode": "48610-492",
      "addr:street": "Rua Alto Novo",
      "addr:suburb": "Centro",
      "building": "yes"
      },
      "geometry": {
         "type": "Point",
         "coordinates": [-38.2219909,-9.4057904]
      }
    },
    {
      "type": "Feature",
      "properties": { 
      "IBGE:COD_UNICO_ENDERECO": "191749115",
      "addr:housenumber": "530",
      "addr:postcode": "48601-055",
      "addr:street": "Rua Padre João Evangelista",
      "addr:suburb": "Centro",
      "addr:unit": "Casa 7",
      "building": "yes",
      "fixme": "Verificar coordenadas",
      "note": "Sem face no bayface do IBGE 0500-0020P-1-30"
      },
      "geometry": {
         "type": "Point",
         "coordinates": [-38.218614,-9.41039]
      }
    },
    {
      "type": "Feature",
      "properties": { 
      "IBGE:COD_UNICO_ENDERECO": "90499607",
      "addr:housenumber": "156 Frente",
      "addr:postcode": "48601-460",
      "addr:street": "Rua Ribeirão",
      "addr:suburb": "Centro",
      "building": "yes"
      },
      "geometry": {
         "type": "Point",
         "coordinates": [-38.2168091,-9.4053491]
      }
    },
    {
      "type": "Feature",
      "properties": { 
      "IBGE:COD_UNICO_ENDERECO": "218003814",
      "addr:housenumber": "18",
      "addr:postcode": "48602-005",
      "addr:street": "Avenida Otaviano Leandro de Morais",
      "addr:suburb": "Centro",
      "building": "yes",
      "name": "Infogames"
      },
      "geometry": {
         "type": "Point",
         "coordinates": [-38.2232421,-9.4021622]
      }
    },
    {
      "type": "Feature",
      "properties": { 
      "IBGE:COD_UNICO_ENDERECO": "27416674",
      "addr:housenumber": "958",
      "addr:postcode": "48601-070",
      "addr:street": "Rua São Francisco",
      "addr:suburb": "Centro",
      "building": "yes"
      },
      "geometry": {
         "type": "Point",
         "coordinates": [-38.2150885,-9.4091959]
      }
    },
    {
      "type": "Feature",
      "properties": { 
      "IBGE:COD_UNICO_ENDERECO": "27297756",
      "addr:housenumber": "160 Térreo",
      "addr:postcode": "48602-080",
      "addr:street": "Rua Engenheiro Alves de Sousa",
      "addr:suburb": "Centro",
      "building": "yes",
      "name": "Loja Cinderela Anexo",
      "shop": "yes"
      },
      "geometry": {
         "type": "Point",
         "coordinates": [-38.218264,-9.4033586]
      }
    },
    {
      "type": "Feature",
      "properties": { 
      "IBGE:COD_UNICO_ENDERECO": "27300975",
      "addr:housenumber": "355",
      "addr:postcode": "48602-070",
      "addr:street": "Rua Marechal Castelo Branco",
      "addr:suburb": "Centro",
      "building": "yes"
      },
      "geometry": {
         "type": "Point",
         "coordinates": [-38.2221398,-9.403478]
      }
    },
    {
      "type": "Feature",
      "properties": { 
      "IBGE:COD_UNICO_ENDERECO": "27305420",
      "addr:housenumber": "102",
      "addr:postcode": "48608-578",
      "addr:street": "Rua Dona Menininha",
      "addr:suburb": "Centro",
      "building": "yes",
      "fixme": "Verificar coordenadas",
      "note": "Sem face no bayface do IBGE 0500-0029P-8-2"
      },
      "geometry": {
         "type": "Point",
         "coordinates": [-38.207047,-9.407485]
      }
    },
    {
      "type": "Feature",
      "properties": { 
      "IBGE:COD_UNICO_ENDERECO": "27304239",
      "addr:housenumber": "213 Sobrado",
      "addr:postcode": "48601-210",
      "addr:street": "Rua Marechal Floriano Peixoto",
      "addr:suburb": "Centro",
      "building": "yes"
      },
      "geometry": {
         "type": "Point",
         "coordinates": [-38.2222823,-9.399654]
      }
    },
    {
      "type": "Feature",
      "properties": { 
      "IBGE:COD_UNICO_ENDERECO": "27301484",
      "addr:housenumber": "8",
      "addr:postcode": "48602-005",
      "addr:street": "Avenida Otaviano Leandro de Moraes",
      "addr:suburb": "Centro",
      "building": "yes",
      "name": "Quiosque Mn Presentes",
      "shop": "gift;kiosk"
      },
      "geometry": {
         "type": "Point",
         "coordinates": [-38.2179832,-9.4005282]
      }
    },
    {
      "type": "Feature",
      "properties": { 
      "IBGE:COD_UNICO_ENDERECO": "27416694",
      "addr:housenumber": "71",
      "addr:postcode": "48601-045",
      "addr:street": "Rua São João",
      "addr:suburb": "Centro",
      "building": "yes"
      },
      "geometry": {
         "type": "Point",
         "coordinates": [-38.2158019,-9.4079268]
      }
    },
    {
      "type": "Feature",
      "properties": { 
      "IBGE:COD_UNICO_ENDERECO": "215431942;215431947;215431955",
      "addr:housenumber": "16",
      "addr:postcode": "48601-460",
      "addr:street": "Rua Ribeirão",
      "addr:suburb": "Centro",
      "building": "construction"
      },
      "geometry": {
         "type": "Point",
         "coordinates": [-38.2173448,-9.4042335]
      }
    },
    {
      "type": "Feature",
      "properties": { 
      "IBGE:COD_UNICO_ENDERECO": "27304337",
      "addr:housenumber": "81",
      "addr:postcode": "48601-190",
      "addr:street": "Rua Pedro Mendes",
      "addr:suburb": "Centro",
      "building": "yes"
      },
      "geometry": {
         "type": "Point",
         "coordinates": [-38.2224148,-9.4003113]
      }
    },
    {
      "type": "Feature",
      "properties": { 
      "IBGE:COD_UNICO_ENDERECO": "192008096",
      "addr:housenumber": "86",
      "addr:postcode": "48601-000",
      "addr:street": "Avenida Getúlio Vargas",
      "addr:suburb": "Centro",
      "building": "yes",
      "name": "Leg Fitness"
      },
      "geometry": {
         "type": "Point",
         "coordinates": [-38.2174362,-9.399866]
      }
    },
    {
      "type": "Feature",
      "properties": { 
      "IBGE:COD_UNICO_ENDERECO": "27300332-27300333",
      "addr:housenumber": "391",
      "addr:postcode": "48601-570",
      "addr:street": "Rua Vereador Moisés Pereira",
      "addr:suburb": "Centro",
      "building": "yes"
      },
      "geometry": {
         "type": "Point",
         "coordinates": [-38.2187467,-9.4084634]
      }
    },
    {
      "type": "Feature",
      "properties": { 
      "IBGE:COD_UNICO_ENDERECO": "27303255",
      "addr:housenumber": "118",
      "addr:postcode": "48601-510",
      "addr:street": "Rua Otávio Drumond",
      "addr:suburb": "Centro",
      "building": "yes"
      },
      "geometry": {
         "type": "Point",
         "coordinates": [-38.2208279,-9.4074205]
      }
    },
    {
      "type": "Feature",
      "properties": { 
      "IBGE:COD_UNICO_ENDERECO": "27303526",
      "addr:housenumber": "176",
      "addr:postcode": "48602-060",
      "addr:street": "Rua Padre Lourenço",
      "addr:suburb": "Centro",
      "building": "yes",
      "name": "Oficina do Aprender",
      "shop": "car_repair"
      },
      "geometry": {
         "type": "Point",
         "coordinates": [-38.2218088,-9.4052333]
      }
    },
    {
      "type": "Feature",
      "properties": { 
      "IBGE:COD_UNICO_ENDERECO": "27298832",
      "addr:housenumber": "399 Térreo",
      "addr:postcode": "48601-000",
      "addr:street": "Avenida Getúlio Vargas",
      "addr:suburb": "Centro",
      "amenity": "taxi",
      "building": "yes",
      "name": "Mototáxi Central",
      "taxi_vehicle": "motorcycle"
      },
      "geometry": {
         "type": "Point",
         "coordinates": [-38.2163309,-9.4028993]
      }
    },
    {
      "type": "Feature",
      "properties": { 
      "IBGE:COD_UNICO_ENDERECO": "27298256",
      "addr:housenumber": "210",
      "addr:postcode": "48602-110",
      "addr:street": "Rua Amâncio Pereira",
      "addr:suburb": "Centro",
      "building": "yes",
      "name": "Alpha Design Home"
      },
      "geometry": {
         "type": "Point",
         "coordinates": [-38.219193,-9.4035274]
      }
    },
    {
      "type": "Feature",
      "properties": { 
      "IBGE:COD_UNICO_ENDERECO": "27416040",
      "addr:housenumber": "107",
      "addr:postcode": "48602-160",
      "addr:street": "Rua Marieta Ferraz",
      "addr:suburb": "Centro",
      "building": "yes",
      "name": "Elegance Confecções",
      "shop": "clothes"
      },
      "geometry": {
         "type": "Point",
         "coordinates": [-38.220792,-9.4030995]
      }
    },
    {
      "type": "Feature",
      "properties": { 
      "IBGE:COD_UNICO_ENDERECO": "27367517",
      "addr:housenumber": "77",
      "addr:postcode": "48601-052",
      "addr:street": "Rua General Dutra",
      "addr:suburb": "Centro",
      "building": "yes",
      "fixme": "Verificar coordenadas",
      "note": "Sem face no bayface do IBGE 0500-0080P-1-1"
      },
      "geometry": {
         "type": "Point",
         "coordinates": [-38.216996,-9.41027]
      }
    },
    {
      "type": "Feature",
      "properties": { 
      "IBGE:COD_UNICO_ENDERECO": "27304019;27304043",
      "addr:housenumber": "22 B",
      "addr:postcode": "48602-510",
      "addr:street": "Rua Marechal Rondon",
      "addr:suburb": "Centro",
      "building": "yes"
      },
      "geometry": {
         "type": "Point",
         "coordinates": [-38.2232337,-9.4006024]
      }
    },
    {
      "type": "Feature",
      "properties": { 
      "IBGE:COD_UNICO_ENDERECO": "27303615",
      "addr:housenumber": "166",
      "addr:postcode": "48602-200",
      "addr:street": "Rua Alto da Boa Vista",
      "addr:suburb": "Centro",
      "building": "yes"
      },
      "geometry": {
         "type": "Point",
         "coordinates": [-38.2213413,-9.4048387]
      }
    },
    {
      "type": "Feature",
      "properties": { 
      "IBGE:COD_UNICO_ENDERECO": "27302987",
      "addr:housenumber": "91",
      "addr:postcode": "48610-604",
      "addr:street": "Rua São Benedito",
      "addr:suburb": "Centro",
      "building": "yes",
      "fixme": "Verificar coordenadas",
      "note": "Sem face no bayface do IBGE 0500-0020P-1-28"
      },
      "geometry": {
         "type": "Point",
         "coordinates": [-38.219115,-9.409968]
      }
    },
    {
      "type": "Feature",
      "properties": { 
      "IBGE:COD_UNICO_ENDERECO": "27305822",
      "addr:housenumber": "57 A",
      "addr:postcode": "48601-470",
      "addr:street": "Rua da Alegria",
      "addr:suburb": "Centro",
      "addr:unit": "Entrada Casa 1",
      "building": "yes",
      "fixme": "Verificar coordenadas",
      "note": "Sem face no bayface do IBGE 0500-0031P-1-11"
      },
      "geometry": {
         "type": "Point",
         "coordinates": [-38.220833,-9.408796]
      }
    },
    {
      "type": "Feature",
      "properties": { 
      "IBGE:COD_UNICO_ENDERECO": "27304294",
      "addr:housenumber": "32 Térreo",
      "addr:postcode": "48601-280",
      "addr:street": "Rua Cabo Antônio Luís Brito",
      "addr:suburb": "Centro",
      "building": "yes"
      },
      "geometry": {
         "type": "Point",
         "coordinates": [-38.2217501,-9.4005474]
      }
    },
    {
      "type": "Feature",
      "properties": { 
      "IBGE:COD_UNICO_ENDERECO": "27304051",
      "addr:housenumber": "78",
      "addr:postcode": "48602-510",
      "addr:street": "Rua Marechal Rondon",
      "addr:suburb": "Centro",
      "building": "yes"
      },
      "geometry": {
         "type": "Point",
         "coordinates": [-38.2239731,-9.4005057]
      }
    },
    {
      "type": "Feature",
      "properties": { 
      "IBGE:COD_UNICO_ENDERECO": "27299523",
      "addr:housenumber": "293 Térreo",
      "addr:postcode": "48601-400",
      "addr:street": "Rua Riachuelo",
      "addr:suburb": "Centro",
      "building": "yes",
      "name": "Mercadinho da Criança",
      "shop": "convenience"
      },
      "geometry": {
         "type": "Point",
         "coordinates": [-38.2170429,-9.4071292]
      }
    },
    {
      "type": "Feature",
      "properties": { 
      "IBGE:COD_UNICO_ENDERECO": "27299530",
      "addr:housenumber": "10",
      "addr:postcode": "48601-400",
      "addr:street": "Rua Riachuelo",
      "addr:suburb": "Centro",
      "building": "yes"
      },
      "geometry": {
         "type": "Point",
         "coordinates": [-38.2169691,-9.4077423]
      }
    },
    {
      "type": "Feature",
      "properties": { 
      "IBGE:COD_UNICO_ENDERECO": "27299599",
      "addr:housenumber": "242",
      "addr:postcode": "48601-400",
      "addr:street": "Rua Riachuelo",
      "addr:suburb": "Centro",
      "building": "yes"
      },
      "geometry": {
         "type": "Point",
         "coordinates": [-38.2173407,-9.406742]
      }
    },
    {
      "type": "Feature",
      "properties": { 
      "IBGE:COD_UNICO_ENDERECO": "27301714",
      "addr:housenumber": "232 B",
      "addr:postcode": "48602-500",
      "addr:street": "Rua Santos Dumont",
      "addr:suburb": "Centro",
      "building": "yes"
      },
      "geometry": {
         "type": "Point",
         "coordinates": [-38.22102,-9.4006278]
      }
    },
    {
      "type": "Feature",
      "properties": { 
      "IBGE:COD_UNICO_ENDERECO": "90499615",
      "addr:housenumber": "186",
      "addr:postcode": "48601-460",
      "addr:street": "Rua Ribeirão",
      "addr:suburb": "Centro",
      "building": "yes"
      },
      "geometry": {
         "type": "Point",
         "coordinates": [-38.2167184,-9.4055633]
      }
    },
    {
      "type": "Feature",
      "properties": { 
      "IBGE:COD_UNICO_ENDERECO": "191530909;191530912",
      "addr:housenumber": "27",
      "addr:postcode": "48601-570",
      "addr:street": "Rua Vereador Moisés Pereira",
      "addr:suburb": "Centro",
      "building": "yes"
      },
      "geometry": {
         "type": "Point",
         "coordinates": [-38.2200192,-9.4049222]
      }
    },
    {
      "type": "Feature",
      "properties": { 
      "IBGE:COD_UNICO_ENDERECO": "27298896",
      "addr:housenumber": "110",
      "addr:postcode": "48601-070",
      "addr:street": "Rua São Francisco",
      "addr:suburb": "Centro",
      "amenity": "dentist",
      "building": "yes",
      "name": "Odontológico"
      },
      "geometry": {
         "type": "Point",
         "coordinates": [-38.2179101,-9.4016403]
      }
    },
    {
      "type": "Feature",
      "properties": { 
      "IBGE:COD_UNICO_ENDERECO": "27300301",
      "addr:housenumber": "222",
      "addr:postcode": "48601-540",
      "addr:street": "Rua do Sol",
      "addr:suburb": "Centro",
      "building": "yes"
      },
      "geometry": {
         "type": "Point",
         "coordinates": [-38.2184313,-9.4078583]
      }
    },
    {
      "type": "Feature",
      "properties": { 
      "IBGE:COD_UNICO_ENDERECO": "27298123",
      "addr:housenumber": "64",
      "addr:postcode": "48601-570",
      "addr:street": "Rua Vereador Moisés Pereira",
      "addr:suburb": "Centro",
      "addr:unit": "Casa 3",
      "building": "yes"
      },
      "geometry": {
         "type": "Point",
         "coordinates": [-38.2200082,-9.4053742]
      }
    },
    {
      "type": "Feature",
      "properties": { 
      "IBGE:COD_UNICO_ENDERECO": "27362405",
      "addr:housenumber": "169",
      "addr:postcode": "48601-150",
      "addr:street": "Rua Pedro Álvares Cabral",
      "addr:suburb": "Centro",
      "building": "yes"
      },
      "geometry": {
         "type": "Point",
         "coordinates": [-38.2174834,-9.4108218]
      }
    },
    {
      "type": "Feature",
      "properties": { 
      "IBGE:COD_UNICO_ENDERECO": "27302928",
      "addr:housenumber": "263",
      "addr:postcode": "48601-052",
      "addr:street": "Rua General Dutra",
      "addr:suburb": "Centro",
      "building": "yes"
      },
      "geometry": {
         "type": "Point",
         "coordinates": [-38.2152919,-9.4113152]
      }
    },
    {
      "type": "Feature",
      "properties": { 
      "IBGE:COD_UNICO_ENDERECO": "27299870",
      "addr:housenumber": "315",
      "addr:postcode": "48601-450",
      "addr:street": "Rua Castro Alves",
      "addr:suburb": "Centro",
      "building": "yes"
      },
      "geometry": {
         "type": "Point",
         "coordinates": [-38.2175134,-9.4082645]
      }
    },
    {
      "type": "Feature",
      "properties": { 
      "IBGE:COD_UNICO_ENDERECO": "27368109",
      "addr:housenumber": "34",
      "addr:postcode": "48601-095",
      "addr:street": "Largo São Marcos",
      "addr:suburb": "Centro",
      "building": "yes"
      },
      "geometry": {
         "type": "Point",
         "coordinates": [-38.2167592,-9.4118289]
      }
    },
    {
      "type": "Feature",
      "properties": { 
      "IBGE:COD_UNICO_ENDERECO": "27299999",
      "addr:housenumber": "29",
      "addr:postcode": "48601-540",
      "addr:street": "Rua do Sol",
      "addr:suburb": "Centro",
      "building": "yes",
      "fixme": "Verificar coordenadas",
      "note": "Sem face no bayface do IBGE 0500-0008P-1-8"
      },
      "geometry": {
         "type": "Point",
         "coordinates": [-38.219002,-9.405977]
      }
    },
    {
      "type": "Feature",
      "properties": { 
      "IBGE:COD_UNICO_ENDERECO": "27300773",
      "addr:housenumber": "89",
      "addr:postcode": "48602-200",
      "addr:street": "Rua Alto da Boa Vista",
      "addr:suburb": "Centro",
      "building": "yes"
      },
      "geometry": {
         "type": "Point",
         "coordinates": [-38.2215252,-9.4043509]
      }
    },
    {
      "type": "Feature",
      "properties": { 
      "IBGE:COD_UNICO_ENDERECO": "27302584",
      "addr:housenumber": "111",
      "addr:postcode": "48601-055",
      "addr:street": "Rua Padre João Evangelista",
      "addr:suburb": "Centro",
      "building": "yes"
      },
      "geometry": {
         "type": "Point",
         "coordinates": [-38.2165107,-9.4078216]
      }
    },
    {
      "type": "Feature",
      "properties": { 
      "IBGE:COD_UNICO_ENDERECO": "27299589",
      "addr:housenumber": "194",
      "addr:postcode": "48601-400",
      "addr:street": "Rua Riachuelo",
      "addr:suburb": "Centro",
      "building": "yes"
      },
      "geometry": {
         "type": "Point",
         "coordinates": [-38.2174881,-9.4063494]
      }
    },
    {
      "type": "Feature",
      "properties": { 
      "IBGE:COD_UNICO_ENDERECO": "27300118",
      "addr:housenumber": "366",
      "addr:postcode": "48601-055",
      "addr:street": "Rua Padre João Evangelista",
      "addr:suburb": "Centro",
      "building": "yes"
      },
      "geometry": {
         "type": "Point",
         "coordinates": [-38.2176145,-9.4092072]
      }
    },
    {
      "type": "Feature",
      "properties": { 
      "IBGE:COD_UNICO_ENDERECO": "27307354",
      "addr:housenumber": "1645",
      "addr:postcode": "48601-210",
      "addr:street": "Rua Marechal Floriano Peixoto",
      "addr:suburb": "Centro",
      "building": "yes"
      },
      "geometry": {
         "type": "Point",
         "coordinates": [-38.2297851,-9.3997639]
      }
    },
    {
      "type": "Feature",
      "properties": { 
      "IBGE:COD_UNICO_ENDERECO": "27367575",
      "addr:housenumber": "86",
      "addr:postcode": "48611-030",
      "addr:street": "Rua Padre Cícero",
      "addr:suburb": "Centro",
      "building": "yes",
      "fixme": "Verificar coordenadas",
      "note": "Sem face no bayface do IBGE 0500-0080P-1-6"
      },
      "geometry": {
         "type": "Point",
         "coordinates": [-38.216238,-9.409779]
      }
    },
    {
      "type": "Feature",
      "properties": { 
      "IBGE:COD_UNICO_ENDERECO": "109047098",
      "addr:housenumber": "232",
      "addr:postcode": "48602-500",
      "addr:street": "Rua Santos Dumont",
      "addr:suburb": "Centro",
      "addr:unit": "2",
      "building": "yes"
      },
      "geometry": {
         "type": "Point",
         "coordinates": [-38.2209874,-9.4005813]
      }
    },
    {
      "type": "Feature",
      "properties": { 
      "IBGE:COD_UNICO_ENDERECO": "27303706;216814984",
      "addr:housenumber": "295",
      "addr:postcode": "48602-060",
      "addr:street": "Rua Padre Lourenço",
      "addr:suburb": "Centro",
      "building": "yes"
      },
      "geometry": {
         "type": "Point",
         "coordinates": [-38.2211152,-9.4061898]
      }
    },
    {
      "type": "Feature",
      "properties": { 
      "IBGE:COD_UNICO_ENDERECO": "27306520",
      "addr:housenumber": "50",
      "addr:postcode": "48609-492",
      "addr:street": "Rua Curitiba",
      "addr:suburb": "Centro",
      "addr:unit": "Fundos Entrada Casa 1",
      "building": "yes",
      "fixme": "Verificar coordenadas",
      "note": "Sem face no bayface do IBGE 0500-0033P-4-4"
      },
      "geometry": {
         "type": "Point",
         "coordinates": [-38.224793,-9.403831]
      }
    },
    {
      "type": "Feature",
      "properties": { 
      "IBGE:COD_UNICO_ENDERECO": "27300507-27300508;192009603",
      "addr:housenumber": "317",
      "addr:postcode": "48601-375",
      "addr:street": "Rua General Dutra",
      "addr:suburb": "Centro",
      "building": "yes"
      },
      "geometry": {
         "type": "Point",
         "coordinates": [-38.219,-9.4087581]
      }
    },
    {
      "type": "Feature",
      "properties": { 
      "IBGE:COD_UNICO_ENDERECO": "27300777",
      "addr:housenumber": "85 Sobrado",
      "addr:postcode": "48602-200",
      "addr:street": "Rua Alto da Boa Vista",
      "addr:suburb": "Centro",
      "building": "yes"
      },
      "geometry": {
         "type": "Point",
         "coordinates": [-38.2215147,-9.4043967]
      }
    },
    {
      "type": "Feature",
      "properties": { 
      "IBGE:COD_UNICO_ENDERECO": "27299943",
      "addr:housenumber": "190",
      "addr:postcode": "48601-450",
      "addr:street": "Rua Castro Alves",
      "addr:suburb": "Centro",
      "building": "yes"
      },
      "geometry": {
         "type": "Point",
         "coordinates": [-38.2181511,-9.4070643]
      }
    },
    {
      "type": "Feature",
      "properties": { 
      "IBGE:COD_UNICO_ENDERECO": "27368008",
      "addr:housenumber": "39",
      "addr:postcode": "48601-090",
      "addr:street": "Rua Peró Vaz",
      "addr:suburb": "Centro",
      "building": "yes",
      "fixme": "Verificar coordenadas",
      "note": "Sem face no bayface do IBGE 0500-0083P-2-3"
      },
      "geometry": {
         "type": "Point",
         "coordinates": [-38.216199,-9.411719]
      }
    },
    {
      "type": "Feature",
      "properties": { 
      "IBGE:COD_UNICO_ENDERECO": "27300442",
      "addr:housenumber": "127",
      "addr:postcode": "48601-340",
      "addr:street": "Rua São Jorge",
      "addr:suburb": "Centro",
      "building": "yes"
      },
      "geometry": {
         "type": "Point",
         "coordinates": [-38.2198881,-9.4067648]
      }
    },
    {
      "type": "Feature",
      "properties": { 
      "IBGE:COD_UNICO_ENDERECO": "27305620",
      "addr:housenumber": "13",
      "addr:postcode": "48601-100",
      "addr:suburb": "Centro",
      "building": "yes"
      },
      "geometry": {
         "type": "Point",
         "coordinates": [-38.2177674,-9.4121263]
      }
    },
    {
      "type": "Feature",
      "properties": { 
      "IBGE:COD_UNICO_ENDERECO": "27300439;27300451",
      "addr:housenumber": "97",
      "addr:postcode": "48601-340",
      "addr:street": "Rua São Jorge",
      "addr:suburb": "Centro",
      "building": "yes"
      },
      "geometry": {
         "type": "Point",
         "coordinates": [-38.2199507,-9.4065979]
      }
    },
    {
      "type": "Feature",
      "properties": { 
      "IBGE:COD_UNICO_ENDERECO": "27300619;192009787;192009790",
      "addr:housenumber": "237",
      "addr:postcode": "48609-484",
      "addr:street": "Rua Tamandaré",
      "addr:suburb": "Centro",
      "building": "yes"
      },
      "geometry": {
         "type": "Point",
         "coordinates": [-38.2202136,-9.4072181]
      }
    },
    {
      "type": "Feature",
      "properties": { 
      "IBGE:COD_UNICO_ENDERECO": "27299348",
      "addr:housenumber": "54",
      "addr:postcode": "48601-530",
      "addr:street": "Rua das Flores",
      "addr:suburb": "Centro",
      "building": "yes"
      },
      "geometry": {
         "type": "Point",
         "coordinates": [-38.2175419,-9.4047771]
      }
    },
    {
      "type": "Feature",
      "properties": { 
      "IBGE:COD_UNICO_ENDERECO": "218003035",
      "addr:housenumber": "36",
      "addr:postcode": "48602-515",
      "addr:street": "Rua Doutor Manoel Barros de Freitas",
      "addr:suburb": "Centro",
      "building": "yes"
      },
      "geometry": {
         "type": "Point",
         "coordinates": [-38.2228467,-9.4002484]
      }
    },
    {
      "type": "Feature",
      "properties": { 
      "IBGE:COD_UNICO_ENDERECO": "27303030",
      "addr:housenumber": "512",
      "addr:postcode": "48601-055",
      "addr:street": "Rua Padre João Evangelista",
      "addr:suburb": "Centro",
      "building": "yes",
      "fixme": "Verificar coordenadas",
      "note": "Sem face no bayface do IBGE 0500-0020P-1-30"
      },
      "geometry": {
         "type": "Point",
         "coordinates": [-38.218327,-9.410324]
      }
    },
    {
      "type": "Feature",
      "properties": { 
      "IBGE:COD_UNICO_ENDERECO": "27305835",
      "addr:housenumber": "40",
      "addr:postcode": "48601-470",
      "addr:street": "Rua da Alegria",
      "addr:suburb": "Centro",
      "addr:unit": "Entrada Casa 2",
      "building": "yes",
      "fixme": "Verificar coordenadas",
      "note": "Sem face no bayface do IBGE 0500-0031P-1-11"
      },
      "geometry": {
         "type": "Point",
         "coordinates": [-38.222762955831,-9.4084971616562]
      }
    },
    {
      "type": "Feature",
      "properties": { 
      "IBGE:COD_UNICO_ENDERECO": "27299507",
      "addr:housenumber": "174",
      "addr:postcode": "48601-055",
      "addr:street": "Rua Padre João Evangelista",
      "addr:suburb": "Centro",
      "building": "yes"
      },
      "geometry": {
         "type": "Point",
         "coordinates": [-38.2167026,-9.4078273]
      }
    },
    {
      "type": "Feature",
      "properties": { 
      "IBGE:COD_UNICO_ENDERECO": "27306516",
      "addr:housenumber": "3",
      "addr:postcode": "48609-492",
      "addr:street": "Rua Curitiba",
      "addr:suburb": "Centro",
      "building": "yes",
      "fixme": "Verificar coordenadas",
      "note": "Sem face no bayface do IBGE 0500-0033P-4-4"
      },
      "geometry": {
         "type": "Point",
         "coordinates": [-38.225547,-9.403668]
      }
    },
    {
      "type": "Feature",
      "properties": { 
      "IBGE:COD_UNICO_ENDERECO": "27367633",
      "addr:housenumber": "118",
      "addr:postcode": "48601-010",
      "addr:street": "Rua Santa Rosa",
      "addr:suburb": "Centro",
      "addr:unit": "Casa 4",
      "building": "yes",
      "fixme": "Verificar coordenadas",
      "note": "Sem face no bayface do IBGE 0500-0080P-2-5"
      },
      "geometry": {
         "type": "Point",
         "coordinates": [-38.216241,-9.409395]
      }
    },
    {
      "type": "Feature",
      "properties": { 
      "IBGE:COD_UNICO_ENDERECO": "27367681",
      "addr:housenumber": "252",
      "addr:postcode": "48601-045",
      "addr:street": "Rua São João",
      "addr:suburb": "Centro",
      "building": "yes"
      },
      "geometry": {
         "type": "Point",
         "coordinates": [-38.2169952,-9.4091036]
      }
    },
    {
      "type": "Feature",
      "properties": { 
      "IBGE:COD_UNICO_ENDERECO": "27297994",
      "addr:housenumber": "13",
      "addr:postcode": "48601-570",
      "addr:street": "Rua Vereador Moisés Pereira",
      "addr:suburb": "Centro",
      "addr:unit": "Casa 1",
      "building": "yes"
      },
      "geometry": {
         "type": "Point",
         "coordinates": [-38.2200309,-9.4048925]
      }
    },
    {
      "type": "Feature",
      "properties": { 
      "IBGE:COD_UNICO_ENDERECO": "27416774",
      "addr:housenumber": "171",
      "addr:postcode": "48601-012",
      "addr:street": "Rua Recanto Feliz",
      "addr:suburb": "Centro",
      "building": "yes",
      "fixme": "Verificar coordenadas",
      "note": "Sem face no bayface do IBGE 0500-0129P-2-6"
      },
      "geometry": {
         "type": "Point",
         "coordinates": [-38.215394,-9.408862]
      }
    },
    {
      "type": "Feature",
      "properties": { 
      "IBGE:COD_UNICO_ENDERECO": "192009653",
      "addr:housenumber": "497",
      "addr:postcode": "48601-375",
      "addr:street": "Rua General Dutra",
      "addr:suburb": "Centro",
      "building": "yes"
      },
      "geometry": {
         "type": "Point",
         "coordinates": [-38.2195019,-9.4087701]
      }
    },
    {
      "type": "Feature",
      "properties": { 
      "IBGE:COD_UNICO_ENDERECO": "27298090",
      "addr:housenumber": "33",
      "addr:postcode": "48601-340",
      "addr:street": "Rua São Jorge",
      "addr:suburb": "Centro",
      "building": "yes",
      "fixme": "Verificar coordenadas",
      "note": "Fora da área de projeção da face 0500-0002P-3-2"
      },
      "geometry": {
         "type": "Point",
         "coordinates": [-38.219506,-9.406158]
      }
    },
    {
      "type": "Feature",
      "properties": { 
      "IBGE:COD_UNICO_ENDERECO": "218691949",
      "addr:housenumber": "289 Térreo",
      "addr:postcode": "48601-010",
      "addr:street": "Rua Santa Rosa",
      "addr:suburb": "Centro",
      "building": "yes"
      },
      "geometry": {
         "type": "Point",
         "coordinates": [-38.215033,-9.409886]
      }
    },
    {
      "type": "Feature",
      "properties": { 
      "IBGE:COD_UNICO_ENDERECO": "27297552",
      "addr:housenumber": "229 Térreo",
      "addr:postcode": "48602-180",
      "addr:street": "Rua Tiradentes",
      "addr:suburb": "Centro",
      "building": "yes"
      },
      "geometry": {
         "type": "Point",
         "coordinates": [-38.2191244,-9.4043177]
      }
    },
    {
      "type": "Feature",
      "properties": { 
      "IBGE:COD_UNICO_ENDERECO": "27368057",
      "addr:housenumber": "47 Térreo",
      "addr:postcode": "48601-150",
      "addr:street": "Rua Pedro Álvares Cabral",
      "addr:suburb": "Centro",
      "building": "yes",
      "description": "CNEFE 2022 Oficina Mecânica",
      "shop": "car_repair"
      },
      "geometry": {
         "type": "Point",
         "coordinates": [-38.2165577,-9.4114373]
      }
    },
    {
      "type": "Feature",
      "properties": { 
      "IBGE:COD_UNICO_ENDERECO": "27300011",
      "addr:housenumber": "232",
      "addr:postcode": "48601-430",
      "addr:street": "Rua dos Navegantes",
      "addr:suburb": "Centro",
      "building": "yes"
      },
      "geometry": {
         "type": "Point",
         "coordinates": [-38.2181325,-9.4074344]
      }
    },
    {
      "type": "Feature",
      "properties": { 
      "IBGE:COD_UNICO_ENDERECO": "27298891",
      "addr:housenumber": "54",
      "addr:postcode": "48601-070",
      "addr:street": "Rua São Francisco",
      "addr:suburb": "Centro",
      "building": "yes",
      "name": "Loja Casa das Construções",
      "shop": "hardware"
      },
      "geometry": {
         "type": "Point",
         "coordinates": [-38.2180844,-9.4011492]
      }
    },
    {
      "type": "Feature",
      "properties": { 
      "IBGE:COD_UNICO_ENDERECO": "27303458",
      "addr:housenumber": "396",
      "addr:postcode": "48610-492",
      "addr:street": "Rua Alto Novo",
      "addr:suburb": "Centro",
      "building": "yes"
      },
      "geometry": {
         "type": "Point",
         "coordinates": [-38.2219637,-9.4061803]
      }
    },
    {
      "type": "Feature",
      "properties": { 
      "IBGE:COD_UNICO_ENDERECO": "27298309",
      "addr:housenumber": "70",
      "addr:postcode": "48602-080",
      "addr:street": "Rua Engenheiro Alves de Sousa",
      "addr:suburb": "Centro",
      "building": "yes"
      },
      "geometry": {
         "type": "Point",
         "coordinates": [-38.2189123,-9.4026115]
      }
    },
    {
      "type": "Feature",
      "properties": { 
      "IBGE:COD_UNICO_ENDERECO": "27301635",
      "addr:housenumber": "154",
      "addr:postcode": "48602-490",
      "addr:street": "Avenida Ministro Landulfo Alves",
      "addr:suburb": "Centro",
      "building": "yes",
      "name": "Dona Unha"
      },
      "geometry": {
         "type": "Point",
         "coordinates": [-38.2189035,-9.4004918]
      }
    },
    {
      "type": "Feature",
      "properties": { 
      "IBGE:COD_UNICO_ENDERECO": "27298294",
      "addr:housenumber": "6",
      "addr:postcode": "48602-080",
      "addr:street": "Rua Engenheiro Alves de Sousa",
      "addr:suburb": "Centro",
      "building": "yes"
      },
      "geometry": {
         "type": "Point",
         "coordinates": [-38.2192857,-9.4021739]
      }
    },
    {
      "type": "Feature",
      "properties": { 
      "IBGE:COD_UNICO_ENDERECO": "27300470",
      "addr:housenumber": "342 Térreo",
      "addr:postcode": "48601-570",
      "addr:street": "Rua Vereador Moisés Pereira",
      "addr:suburb": "Centro",
      "building": "yes"
      },
      "geometry": {
         "type": "Point",
         "coordinates": [-38.2190838,-9.4080031]
      }
    },
    {
      "type": "Feature",
      "properties": { 
      "IBGE:COD_UNICO_ENDERECO": "27368086",
      "addr:housenumber": "51",
      "addr:postcode": "48601-095",
      "addr:street": "Largo São Marcos",
      "addr:suburb": "Centro",
      "building": "yes"
      },
      "geometry": {
         "type": "Point",
         "coordinates": [-38.2169042,-9.4117878]
      }
    },
    {
      "type": "Feature",
      "properties": { 
      "IBGE:COD_UNICO_ENDERECO": "191749140",
      "addr:housenumber": "454",
      "addr:postcode": "48601-055",
      "addr:street": "Rua Padre João Evangelista",
      "addr:suburb": "Centro",
      "addr:unit": "Casa 1",
      "building": "yes"
      },
      "geometry": {
         "type": "Point",
         "coordinates": [-38.2180137,-9.4098387]
      }
    },
    {
      "type": "Feature",
      "properties": { 
      "IBGE:COD_UNICO_ENDERECO": "27298805",
      "addr:housenumber": "2",
      "addr:postcode": "48601-000",
      "addr:street": "Avenida Getúlio Vargas",
      "addr:suburb": "Centro",
      "building": "yes",
      "name": "Bonbonnière São Francisco",
      "shop": "confectionery"
      },
      "geometry": {
         "type": "Point",
         "coordinates": [-38.2168082,-9.4024902]
      }
    },
    {
      "type": "Feature",
      "properties": { 
      "IBGE:COD_UNICO_ENDERECO": "223505272",
      "addr:housenumber": "1141 A",
      "addr:postcode": "48601-320",
      "addr:street": "Avenida José Hemetério de Carvalho",
      "addr:suburb": "Centro",
      "building": "yes"
      },
      "geometry": {
         "type": "Point",
         "coordinates": [-38.2200802,-9.410525]
      }
    },
    {
      "type": "Feature",
      "properties": { 
      "IBGE:COD_UNICO_ENDERECO": "27416842",
      "addr:housenumber": "536 Térreo",
      "addr:postcode": "48609-484",
      "addr:street": "Rua Tamandaré",
      "addr:suburb": "Centro",
      "building": "yes"
      },
      "geometry": {
         "type": "Point",
         "coordinates": [-38.2196417,-9.4090342]
      }
    },
    {
      "type": "Feature",
      "properties": { 
      "IBGE:COD_UNICO_ENDERECO": "27368007",
      "addr:housenumber": "91",
      "addr:postcode": "48601-090",
      "addr:street": "Rua Peró Vaz",
      "addr:suburb": "Centro",
      "building": "yes",
      "fixme": "Verificar coordenadas",
      "note": "Sem face no bayface do IBGE 0500-0083P-2-3"
      },
      "geometry": {
         "type": "Point",
         "coordinates": [-38.21623,-9.411704]
      }
    },
    {
      "type": "Feature",
      "properties": { 
      "IBGE:COD_UNICO_ENDERECO": "27303561",
      "addr:housenumber": "530",
      "addr:postcode": "48601-410",
      "addr:street": "Rua Manoel Novais",
      "addr:suburb": "Centro",
      "building": "yes"
      },
      "geometry": {
         "type": "Point",
         "coordinates": [-38.2213126,-9.4063336]
      }
    },
    {
      "type": "Feature",
      "properties": { 
      "IBGE:COD_UNICO_ENDERECO": "194566787",
      "addr:housenumber": "97 B",
      "addr:postcode": "48602-190",
      "addr:street": "Rua Rui Barbosa",
      "addr:suburb": "Centro",
      "building": "yes"
      },
      "geometry": {
         "type": "Point",
         "coordinates": [-38.2210799,-9.4034247]
      }
    },
    {
      "type": "Feature",
      "properties": { 
      "IBGE:COD_UNICO_ENDERECO": "217788541",
      "addr:housenumber": "363",
      "addr:postcode": "48601-540",
      "addr:street": "Rua do Sol",
      "addr:suburb": "Centro",
      "building": "yes"
      },
      "geometry": {
         "type": "Point",
         "coordinates": [-38.2178705,-9.4090177]
      }
    },
    {
      "type": "Feature",
      "properties": { 
      "IBGE:COD_UNICO_ENDERECO": "27297607",
      "addr:housenumber": "168 Térreo",
      "addr:postcode": "48601-410",
      "addr:street": "Rua Manoel Novais",
      "addr:suburb": "Centro",
      "building": "yes",
      "name": "PA Copos e Festa"
      },
      "geometry": {
         "type": "Point",
         "coordinates": [-38.2184632,-9.4049411]
      }
    },
    {
      "type": "Feature",
      "properties": { 
      "IBGE:COD_UNICO_ENDERECO": "90499610;215432166;215432173;215432178;215432182",
      "addr:housenumber": "170",
      "addr:postcode": "48601-460",
      "addr:street": "Rua Ribeirão",
      "addr:suburb": "Centro",
      "building": "yes"
      },
      "geometry": {
         "type": "Point",
         "coordinates": [-38.2167895,-9.4053954]
      }
    },
    {
      "type": "Feature",
      "properties": { 
      "IBGE:COD_UNICO_ENDERECO": "215432202",
      "addr:housenumber": "248",
      "addr:postcode": "48601-460",
      "addr:street": "Rua Ribeirão",
      "addr:suburb": "Centro",
      "building": "yes"
      },
      "geometry": {
         "type": "Point",
         "coordinates": [-38.2165258,-9.4060235]
      }
    },
    {
      "type": "Feature",
      "properties": { 
      "IBGE:COD_UNICO_ENDERECO": "27306512",
      "addr:housenumber": "906",
      "addr:postcode": "48602-125",
      "addr:street": "Rua Monsenhor Magalhães",
      "addr:suburb": "Centro",
      "addr:unit": "Prédio",
      "building": "yes",
      "healthcare": "yes",
      "name": "Bio Análise Laboratório"
      },
      "geometry": {
         "type": "Point",
         "coordinates": [-38.2253712,-9.4039927]
      }
    },
    {
      "type": "Feature",
      "properties": { 
      "IBGE:COD_UNICO_ENDERECO": "27299648",
      "addr:housenumber": "101 Térreo",
      "addr:postcode": "48601-480",
      "addr:street": "Rua Barão do Rio Branco",
      "addr:suburb": "Centro",
      "building": "yes"
      },
      "geometry": {
         "type": "Point",
         "coordinates": [-38.217891,-9.4058615]
      }
    },
    {
      "type": "Feature",
      "properties": { 
      "IBGE:COD_UNICO_ENDERECO": "27303505",
      "addr:housenumber": "139",
      "addr:postcode": "48602-140",
      "addr:street": "Rua Marechal Costa e Silva",
      "addr:suburb": "Centro",
      "building": "yes"
      },
      "geometry": {
         "type": "Point",
         "coordinates": [-38.2227054,-9.4055123]
      }
    },
    {
      "type": "Feature",
      "properties": { 
      "IBGE:COD_UNICO_ENDERECO": "191715684",
      "addr:housenumber": "126",
      "addr:postcode": "48602-510",
      "addr:street": "Rua Marechal Rondon",
      "addr:suburb": "Centro",
      "addr:unit": "149",
      "building": "yes",
      "name": "Dri Modas",
      "shop": "clothes"
      },
      "geometry": {
         "type": "Point",
         "coordinates": [-38.2244,-9.4004699]
      }
    },
    {
      "type": "Feature",
      "properties": { 
      "IBGE:COD_UNICO_ENDERECO": "27298141",
      "addr:housenumber": "129",
      "addr:postcode": "48602-070",
      "addr:street": "Rua Marechal Castelo Branco",
      "addr:suburb": "Centro",
      "building": "yes"
      },
      "geometry": {
         "type": "Point",
         "coordinates": [-38.2203231,-9.4025742]
      }
    },
    {
      "type": "Feature",
      "properties": { 
      "IBGE:COD_UNICO_ENDERECO": "27416029",
      "addr:housenumber": "159",
      "addr:postcode": "48602-160",
      "addr:street": "Rua Marieta Ferraz",
      "addr:suburb": "Centro",
      "building": "yes"
      },
      "geometry": {
         "type": "Point",
         "coordinates": [-38.2204199,-9.403539]
      }
    },
    {
      "type": "Feature",
      "properties": { 
      "IBGE:COD_UNICO_ENDERECO": "216788380",
      "addr:housenumber": "309 Térreo",
      "addr:postcode": "48601-400",
      "addr:street": "Rua Riachuelo",
      "addr:suburb": "Centro",
      "building": "garage",
      "name": "Custom Car Garage"
      },
      "geometry": {
         "type": "Point",
         "coordinates": [-38.2169788,-9.4072847]
      }
    },
    {
      "type": "Feature",
      "properties": { 
      "IBGE:COD_UNICO_ENDERECO": "217976566",
      "addr:housenumber": "500",
      "addr:postcode": "48601-210",
      "addr:street": "Rua Marechal Floriano Peixoto",
      "addr:suburb": "Centro",
      "building": "yes",
      "name": "Defesoria Pública da Bahia"
      },
      "geometry": {
         "type": "Point",
         "coordinates": [-38.2233443,-9.3995087]
      }
    },
    {
      "type": "Feature",
      "properties": { 
      "IBGE:COD_UNICO_ENDERECO": "216871598;216871603;216871609",
      "addr:housenumber": "577",
      "addr:postcode": "48601-070",
      "addr:street": "Rua São Francisco",
      "addr:suburb": "Centro",
      "building": "yes"
      },
      "geometry": {
         "type": "Point",
         "coordinates": [-38.216172,-9.405792]
      }
    },
    {
      "type": "Feature",
      "properties": { 
      "IBGE:COD_UNICO_ENDERECO": "27299418",
      "addr:housenumber": "9",
      "addr:postcode": "48601-550",
      "addr:street": "Beco da Alegria",
      "addr:suburb": "Centro",
      "building": "yes"
      },
      "geometry": {
         "type": "Point",
         "coordinates": [-38.2169392,-9.4065922]
      }
    },
    {
      "type": "Feature",
      "properties": { 
      "IBGE:COD_UNICO_ENDERECO": "192008163",
      "addr:housenumber": "57",
      "addr:postcode": "48601-000",
      "addr:street": "Avenida Getúlio Vargas",
      "addr:suburb": "Centro",
      "building": "yes",
      "fixme": "Verificar coordenadas",
      "name": "Artesanato Supapo",
      "note": "Muito afastado da face: 40m 0500-0004P-4-3"
      },
      "geometry": {
         "type": "Point",
         "coordinates": [-38.217131,-9.399934]
      }
    },
    {
      "type": "Feature",
      "properties": { 
      "IBGE:COD_UNICO_ENDERECO": "90499554",
      "addr:housenumber": "67",
      "addr:postcode": "48601-460",
      "addr:street": "Rua Ribeirão",
      "addr:suburb": "Centro",
      "building": "yes"
      },
      "geometry": {
         "type": "Point",
         "coordinates": [-38.2170292,-9.4045188]
      }
    },
    {
      "type": "Feature",
      "properties": { 
      "IBGE:COD_UNICO_ENDERECO": "27302576",
      "addr:housenumber": "200",
      "addr:postcode": "48601-045",
      "addr:street": "Rua São João",
      "addr:suburb": "Centro",
      "building": "yes",
      "name": "Spaghetti"
      },
      "geometry": {
         "type": "Point",
         "coordinates": [-38.2166397,-9.4087417]
      }
    },
    {
      "type": "Feature",
      "properties": { 
      "IBGE:COD_UNICO_ENDERECO": "27300715",
      "addr:housenumber": "111",
      "addr:postcode": "48602-220",
      "addr:street": "Rua São Luís",
      "addr:suburb": "Centro",
      "building": "yes"
      },
      "geometry": {
         "type": "Point",
         "coordinates": [-38.2211681,-9.4038548]
      }
    },
    {
      "type": "Feature",
      "properties": { 
      "IBGE:COD_UNICO_ENDERECO": "27299941",
      "addr:housenumber": "182",
      "addr:postcode": "48601-450",
      "addr:street": "Rua Castro Alves",
      "addr:suburb": "Centro",
      "building": "yes"
      },
      "geometry": {
         "type": "Point",
         "coordinates": [-38.2181792,-9.4069911]
      }
    },