{
  "type": "FeatureCollection",
  "source": "IBGE CNEFE + Faces de Logradouros - 2022",
  "generator": "CSV-CNEFE2GeoJSON.lua 1.5.7 - fidelis.assis@gmail.com",
  "date": "2025-02-02T09:05:08-0300",
  "features": [
    {
      "type": "Feature",
      "properties": { 
      "IBGE:COD_UNICO_ENDERECO": "97766972",
      "addr:housenumber": "145",
      "addr:postcode": "48604-740",
      "addr:street": "Rua da Igreja",
      "addr:suburb": "Barroca",
      "building": "yes"
      },
      "geometry": {
         "type": "Point",
         "coordinates": [-38.2469708,-9.3686149]
      }
    },
    {
      "type": "Feature",
      "properties": { 
      "IBGE:COD_UNICO_ENDERECO": "27468385",
      "addr:housenumber": "1",
      "addr:postcode": "48604-780",
      "addr:street": "Travessa Inhapi 2",
      "addr:suburb": "Barroca",
      "addr:unit": "Casa",
      "building": "yes",
      "fixme": "Verificar coordenadas",
      "note": "Sem face no bayface do IBGE 0500-0159P-7-8"
      },
      "geometry": {
         "type": "Point",
         "coordinates": [-38.241045,-9.369688]
      }
    },
    {
      "type": "Feature",
      "properties": { 
      "IBGE:COD_UNICO_ENDERECO": "27468369",
      "addr:housenumber": "17",
      "addr:postcode": "48604-790",
      "addr:street": "Rua Carolina Rosa",
      "addr:suburb": "Barroca",
      "building": "construction"
      },
      "geometry": {
         "type": "Point",
         "coordinates": [-38.2393546,-9.3721646]
      }
    },
    {
      "type": "Feature",
      "properties": { 
      "IBGE:COD_UNICO_ENDERECO": "97766987",
      "addr:housenumber": "70",
      "addr:postcode": "48604-790",
      "addr:street": "Rua Santa Bárbara",
      "addr:suburb": "Barroca",
      "building": "yes",
      "fixme": "Verificar coordenadas",
      "note": "Sem dados para mover para dentro da quadra 0500-0234P-2-13"
      },
      "geometry": {
         "type": "Point",
         "coordinates": [-38.2396942,-9.3680521]
      }
    },
    {
      "type": "Feature",
      "properties": { 
      "IBGE:COD_UNICO_ENDERECO": "191739957",
      "addr:housenumber": "6",
      "addr:postcode": "48604-710",
      "addr:street": "Rua José Reinaldo de Sousa",
      "addr:suburb": "Barroca",
      "building": "yes"
      },
      "geometry": {
         "type": "Point",
         "coordinates": [-38.2445717,-9.3700296]
      }
    },
    {
      "type": "Feature",
      "properties": { 
      "IBGE:COD_UNICO_ENDERECO": "27468115",
      "addr:housenumber": "5",
      "addr:postcode": "48604-564",
      "addr:street": "Travessa Nossa Senhora Aparecida",
      "addr:suburb": "Barroca",
      "building": "yes"
      },
      "geometry": {
         "type": "Point",
         "coordinates": [-38.2465576,-9.372329]
      }
    },
    {
      "type": "Feature",
      "properties": { 
      "IBGE:COD_UNICO_ENDERECO": "27422049",
      "addr:housenumber": "6",
      "addr:postcode": "48604-700",
      "addr:suburb": "Barroca",
      "building": "yes"
      },
      "geometry": {
         "type": "Point",
         "coordinates": [-38.2460789,-9.375237]
      }
    },
    {
      "type": "Feature",
      "properties": { 
      "IBGE:COD_UNICO_ENDERECO": "27468229",
      "addr:housenumber": "5",
      "addr:postcode": "48604-730",
      "addr:street": "Rua Dias D Ávila",
      "addr:suburb": "Barroca",
      "building": "yes"
      },
      "geometry": {
         "type": "Point",
         "coordinates": [-38.2443013,-9.3716442]
      }
    },
    {
      "type": "Feature",
      "properties": { 
      "IBGE:COD_UNICO_ENDERECO": "191739563",
      "addr:housenumber": "5",
      "addr:postcode": "48604-700",
      "addr:street": "Travessa Pedra Comprida 1",
      "addr:suburb": "Barroca",
      "building": "yes"
      },
      "geometry": {
         "type": "Point",
         "coordinates": [-38.247217,-9.3721537]
      }
    },
    {
      "type": "Feature",
      "properties": { 
      "IBGE:COD_UNICO_ENDERECO": "97767157",
      "addr:housenumber": "29",
      "addr:postcode": "48604-796",
      "addr:street": "Rua Craibeira",
      "addr:suburb": "Barroca",
      "addr:unit": "Quadra I",
      "building": "yes",
      "name": "Mercadinho e Disk do Vaqueiro",
      "shop": "convenience"
      },
      "geometry": {
         "type": "Point",
         "coordinates": [-38.2379216,-9.3710513]
      }
    },
    {
      "type": "Feature",
      "properties": { 
      "IBGE:COD_UNICO_ENDERECO": "90500714",
      "addr:housenumber": "72 A",
      "addr:postcode": "48604-760",
      "addr:street": "Rua Paraíba",
      "addr:suburb": "Barroca",
      "building": "yes",
      "description": "CNEFE 2022 Salão",
      "fixme": "Verificar coordenadas",
      "note": "Sem face no bayface do IBGE 0500-0234P-2-14",
      "shop": "beauty"
      },
      "geometry": {
         "type": "Point",
         "coordinates": [-38.242751,-9.369029]
      }
    },
    {
      "type": "Feature",
      "properties": { 
      "IBGE:COD_UNICO_ENDERECO": "27468344",
      "addr:housenumber": "45",
      "addr:postcode": "48604-770",
      "addr:street": "Rua Teofilândia",
      "addr:suburb": "Barroca",
      "building": "yes"
      },
      "geometry": {
         "type": "Point",
         "coordinates": [-38.2409759,-9.3706125]
      }
    },
    {
      "type": "Feature",
      "properties": { 
      "IBGE:COD_UNICO_ENDERECO": "191766210",
      "addr:housenumber": "139",
      "addr:postcode": "48604-700",
      "addr:suburb": "Barroca",
      "building": "yes"
      },
      "geometry": {
         "type": "Point",
         "coordinates": [-38.2455262,-9.3750129]
      }
    },
    {
      "type": "Feature",
      "properties": { 
      "IBGE:COD_UNICO_ENDERECO": "27468373",
      "addr:housenumber": "40",
      "addr:postcode": "48604-790",
      "addr:street": "Rua Carolina Rosa",
      "addr:suburb": "Barroca",
      "building": "construction"
      },
      "geometry": {
         "type": "Point",
         "coordinates": [-38.2395951,-9.3722094]
      }
    },
    {
      "type": "Feature",
      "properties": { 
      "IBGE:COD_UNICO_ENDERECO": "191739840",
      "addr:housenumber": "45",
      "addr:postcode": "48604-720",
      "addr:street": "Rua Mazzaropi",
      "addr:suburb": "Barroca",
      "building": "yes"
      },
      "geometry": {
         "type": "Point",
         "coordinates": [-38.2447684,-9.3714723]
      }
    },
    {
      "type": "Feature",
      "properties": { 
      "IBGE:COD_UNICO_ENDERECO": "97767167",
      "addr:housenumber": "22",
      "addr:postcode": "48604-794",
      "addr:street": "Rua Jacarandá",
      "addr:suburb": "Barroca",
      "addr:unit": "Quadra I",
      "building": "yes"
      },
      "geometry": {
         "type": "Point",
         "coordinates": [-38.2382264,-9.3710253]
      }
    },
    {
      "type": "Feature",
      "properties": { 
      "IBGE:COD_UNICO_ENDERECO": "216431660",
      "addr:housenumber": "12",
      "addr:postcode": "48604-794",
      "addr:street": "Rua Jacarandá",
      "addr:suburb": "Barroca",
      "building": "yes"
      },
      "geometry": {
         "type": "Point",
         "coordinates": [-38.2388397,-9.3708409]
      }
    },
    {
      "type": "Feature",
      "properties": { 
      "IBGE:COD_UNICO_ENDERECO": "27468232",
      "addr:housenumber": "108",
      "addr:postcode": "48604-730",
      "addr:street": "Rua Dias D Ávila",
      "addr:suburb": "Barroca",
      "building": "yes"
      },
      "geometry": {
         "type": "Point",
         "coordinates": [-38.2438873,-9.3711844]
      }
    },
    {
      "type": "Feature",
      "properties": { 
      "IBGE:COD_UNICO_ENDERECO": "97767009",
      "addr:housenumber": "8",
      "addr:postcode": "48604-782",
      "addr:street": "Rua Baraúna",
      "addr:suburb": "Barroca",
      "addr:unit": "Quadra A",
      "building": "yes"
      },
      "geometry": {
         "type": "Point",
         "coordinates": [-38.2387818,-9.3729734]
      }
    },
    {
      "type": "Feature",
      "properties": { 
      "IBGE:COD_UNICO_ENDERECO": "27468258",
      "addr:housenumber": "160",
      "addr:postcode": "48604-710",
      "addr:street": "Rua José Reinaldo de Sousa",
      "addr:suburb": "Barroca",
      "building": "yes"
      },
      "geometry": {
         "type": "Point",
         "coordinates": [-38.2429336,-9.3696962]
      }
    },
    {
      "type": "Feature",
      "properties": { 
      "IBGE:COD_UNICO_ENDERECO": "97767038",
      "addr:housenumber": "9",
      "addr:postcode": "48604-784",
      "addr:street": "Rua Jequitibá",
      "addr:suburb": "Barroca",
      "addr:unit": "Quadra B",
      "building": "yes"
      },
      "geometry": {
         "type": "Point",
         "coordinates": [-38.238873,-9.3724565]
      }
    },
    {
      "type": "Feature",
      "properties": { 
      "IBGE:COD_UNICO_ENDERECO": "191739681",
      "addr:housenumber": "28",
      "addr:postcode": "48604-710",
      "addr:street": "Travessa José Reinaldo de Sousa",
      "addr:suburb": "Barroca",
      "building": "yes"
      },
      "geometry": {
         "type": "Point",
         "coordinates": [-38.2459583,-9.3709418]
      }
    },
    {
      "type": "Feature",
      "properties": { 
      "IBGE:COD_UNICO_ENDERECO": "99816981",
      "addr:housenumber": "2",
      "addr:postcode": "48604-750",
      "addr:street": "Rua João Miguel de Lima",
      "addr:suburb": "Barroca",
      "building": "yes",
      "fixme": "Verificar coordenadas",
      "note": "Sem face no bayface do IBGE 0500-0234P-2-17"
      },
      "geometry": {
         "type": "Point",
         "coordinates": [-38.244189,-9.369777]
      }
    },
    {
      "type": "Feature",
      "properties": { 
      "IBGE:COD_UNICO_ENDERECO": "27468375",
      "addr:housenumber": "148",
      "addr:postcode": "48604-790",
      "addr:street": "Rua Luís Gonzaga",
      "addr:suburb": "Barroca",
      "building": "yes"
      },
      "geometry": {
         "type": "Point",
         "coordinates": [-38.2394119,-9.3724267]
      }
    },
    {
      "type": "Feature",
      "properties": { 
      "IBGE:COD_UNICO_ENDERECO": "191739750",
      "addr:housenumber": "5",
      "addr:postcode": "48604-720",
      "addr:street": "Rua Mazzaropi",
      "addr:suburb": "Barroca",
      "building": "construction"
      },
      "geometry": {
         "type": "Point",
         "coordinates": [-38.2451635,-9.3714672]
      }
    },
    {
      "type": "Feature",
      "properties": { 
      "IBGE:COD_UNICO_ENDERECO": "191740386",
      "addr:housenumber": "91",
      "addr:postcode": "48604-780",
      "addr:street": "Travessa Inhapi 2",
      "addr:suburb": "Barroca",
      "amenity": "place_of_worship",
      "building": "yes",
      "fixme": "Verificar coordenadas",
      "name": "Terreiro Deusa Abassa",
      "note": "Sem face no bayface do IBGE 0500-0159P-8-1"
      },
      "geometry": {
         "type": "Point",
         "coordinates": [-38.240995,-9.371783]
      }
    },
    {
      "type": "Feature",
      "properties": { 
      "IBGE:COD_UNICO_ENDERECO": "90500737",
      "addr:housenumber": "13",
      "addr:postcode": "48604-750",
      "addr:street": "Rua João Miguel de Lima",
      "addr:suburb": "Barroca",
      "building": "yes",
      "fixme": "Verificar coordenadas",
      "note": "Sem face no bayface do IBGE 0500-0234P-2-17"
      },
      "geometry": {
         "type": "Point",
         "coordinates": [-38.244228,-9.369099]
      }
    },
    {
      "type": "Feature",
      "properties": { 
      "IBGE:COD_UNICO_ENDERECO": "97767116",
      "addr:housenumber": "19",
      "addr:postcode": "48604-794",
      "addr:street": "Rua Jacarandá",
      "addr:suburb": "Barroca",
      "addr:unit": "Quadra G",
      "building": "yes"
      },
      "geometry": {
         "type": "Point",
         "coordinates": [-38.2383446,-9.3711478]
      }
    },
    {
      "type": "Feature",
      "properties": { 
      "IBGE:COD_UNICO_ENDERECO": "191740601",
      "addr:housenumber": "19",
      "addr:postcode": "48604-790",
      "addr:street": "Rua Luís Gonzaga",
      "addr:suburb": "Barroca",
      "building": "yes",
      "fixme": "Verificar coordenadas",
      "note": "Sem face no bayface do IBGE 0500-0159P-8-20"
      },
      "geometry": {
         "type": "Point",
         "coordinates": [-38.238932,-9.370071]
      }
    },
    {
      "type": "Feature",
      "properties": { 
      "IBGE:COD_UNICO_ENDERECO": "97767125",
      "addr:housenumber": "8",
      "addr:postcode": "48604-792",
      "addr:street": "Rua Jatobá",
      "addr:suburb": "Barroca",
      "addr:unit": "Quadra G",
      "building": "yes"
      },
      "geometry": {
         "type": "Point",
         "coordinates": [-38.238546,-9.3712222]
      }
    },
    {
      "type": "Feature",
      "properties": { 
      "IBGE:COD_UNICO_ENDERECO": "97767171",
      "addr:housenumber": "14",
      "addr:postcode": "48604-794",
      "addr:street": "Rua Jacarandá",
      "addr:suburb": "Barroca",
      "addr:unit": "Quadra I",
      "building": "yes"
      },
      "geometry": {
         "type": "Point",
         "coordinates": [-38.2383956,-9.3708988]
      }
    },
    {
      "type": "Feature",
      "properties": { 
      "IBGE:COD_UNICO_ENDERECO": "90500831",
      "addr:housenumber": "235",
      "addr:postcode": "48604-720",
      "addr:street": "Rua Araci",
      "addr:suburb": "Barroca",
      "building": "yes"
      },
      "geometry": {
         "type": "Point",
         "coordinates": [-38.2455965,-9.3701277]
      }
    },
    {
      "type": "Feature",
      "properties": { 
      "IBGE:COD_UNICO_ENDERECO": "191740430",
      "addr:housenumber": "49",
      "addr:postcode": "48604-564",
      "addr:street": "Rua Nossa Senhora Aparecida",
      "addr:suburb": "Barroca",
      "building": "yes"
      },
      "geometry": {
         "type": "Point",
         "coordinates": [-38.240381,-9.3723388]
      }
    },
    {
      "type": "Feature",
      "properties": { 
      "IBGE:COD_UNICO_ENDERECO": "97767074",
      "addr:housenumber": "10",
      "addr:postcode": "48604-784",
      "addr:street": "Rua Jequitibá",
      "addr:suburb": "Barroca",
      "addr:unit": "Quadra D",
      "building": "yes"
      },
      "geometry": {
         "type": "Point",
         "coordinates": [-38.2388541,-9.3722535]
      }
    },
    {
      "type": "Feature",
      "properties": { 
      "IBGE:COD_UNICO_ENDERECO": "27468309",
      "addr:housenumber": "716",
      "addr:postcode": "48604-564",
      "addr:street": "Rua Nossa Senhora Aparecida",
      "addr:suburb": "Barroca",
      "building": "yes"
      },
      "geometry": {
         "type": "Point",
         "coordinates": [-38.2421177,-9.3722973]
      }
    },
    {
      "type": "Feature",
      "properties": { 
      "IBGE:COD_UNICO_ENDERECO": "191740041",
      "addr:housenumber": "53",
      "addr:postcode": "48604-730",
      "addr:street": "Rua Dias D Ávila",
      "addr:suburb": "Barroca",
      "building": "yes"
      },
      "geometry": {
         "type": "Point",
         "coordinates": [-38.2442503,-9.3713635]
      }
    },
    {
      "type": "Feature",
      "properties": { 
      "IBGE:COD_UNICO_ENDERECO": "99816991",
      "addr:housenumber": "296 Sobrado",
      "addr:postcode": "48604-790",
      "addr:street": "Rua Luís Gonzaga",
      "addr:suburb": "Barroca",
      "building": "yes"
      },
      "geometry": {
         "type": "Point",
         "coordinates": [-38.239408,-9.3690072]
      }
    },
    {
      "type": "Feature",
      "properties": { 
      "IBGE:COD_UNICO_ENDERECO": "27468400",
      "addr:housenumber": "327",
      "addr:postcode": "48604-790",
      "addr:street": "Rua Luís Gonzaga",
      "addr:suburb": "Barroca",
      "building": "yes",
      "fixme": "Verificar coordenadas",
      "note": "Muito afastado da face: 252m 0500-0159P-10-2"
      },
      "geometry": {
         "type": "Point",
         "coordinates": [-38.238785,-9.369668]
      }
    },
    {
      "type": "Feature",
      "properties": { 
      "IBGE:COD_UNICO_ENDERECO": "97766965",
      "addr:housenumber": "300",
      "addr:postcode": "48604-720",
      "addr:street": "Rua Araci",
      "addr:suburb": "Barroca",
      "building": "yes"
      },
      "geometry": {
         "type": "Point",
         "coordinates": [-38.2455991,-9.3697721]
      }
    },
    {
      "type": "Feature",
      "properties": { 
      "IBGE:COD_UNICO_ENDERECO": "98343818",
      "addr:housenumber": "77",
      "addr:postcode": "48604-710",
      "addr:suburb": "Barroca",
      "building": "yes"
      },
      "geometry": {
         "type": "Point",
         "coordinates": [-38.2452009,-9.3698203]
      }
    },
    {
      "type": "Feature",
      "properties": { 
      "IBGE:COD_UNICO_ENDERECO": "97766980",
      "addr:housenumber": "154",
      "addr:postcode": "48604-700",
      "addr:street": "Rua da Pedra Comprida",
      "addr:suburb": "Barroca",
      "addr:unit": "A Coelb Fundos",
      "building": "yes"
      },
      "geometry": {
         "type": "Point",
         "coordinates": [-38.2494316,-9.369973]
      }
    },
    {
      "type": "Feature",
      "properties": { 
      "IBGE:COD_UNICO_ENDERECO": "191739830",
      "addr:housenumber": "29",
      "addr:postcode": "48604-720",
      "addr:street": "Rua Mazzaropi",
      "addr:suburb": "Barroca",
      "building": "yes"
      },
      "geometry": {
         "type": "Point",
         "coordinates": [-38.2450744,-9.3716009]
      }
    },
    {
      "type": "Feature",
      "properties": { 
      "IBGE:COD_UNICO_ENDERECO": "99816990",
      "addr:housenumber": "22",
      "addr:postcode": "48604-790",
      "addr:street": "Rua Santa Bárbara",
      "addr:suburb": "Barroca",
      "amenity": "place_of_worship",
      "building": "yes",
      "description": "CNEFE 2022 Igreja"
      },
      "geometry": {
         "type": "Point",
         "coordinates": [-38.2406376,-9.3686282]
      }
    },
    {
      "type": "Feature",
      "properties": { 
      "IBGE:COD_UNICO_ENDERECO": "27468252",
      "addr:housenumber": "10",
      "addr:postcode": "48604-710",
      "addr:street": "Rua José Reinaldo de Sousa",
      "addr:suburb": "Barroca",
      "building": "yes"
      },
      "geometry": {
         "type": "Point",
         "coordinates": [-38.2427502,-9.3696541]
      }
    },
    {
      "type": "Feature",
      "properties": { 
      "IBGE:COD_UNICO_ENDERECO": "191739755",
      "addr:housenumber": "6",
      "addr:postcode": "48604-720",
      "addr:street": "Rua Mazzaropi",
      "addr:suburb": "Barroca",
      "building": "construction"
      },
      "geometry": {
         "type": "Point",
         "coordinates": [-38.2451102,-9.3714509]
      }
    },
    {
      "type": "Feature",
      "properties": { 
      "IBGE:COD_UNICO_ENDERECO": "191742803",
      "addr:housenumber": "25 A",
      "addr:postcode": "48604-710",
      "addr:suburb": "Barroca",
      "building": "construction",
      "fixme": "Verificar coordenadas",
      "note": "Sem face no bayface do IBGE 0500-0192P-13-10"
      },
      "geometry": {
         "type": "Point",
         "coordinates": [-38.249318,-9.370865]
      }
    },
    {
      "type": "Feature",
      "properties": { 
      "IBGE:COD_UNICO_ENDERECO": "97767135",
      "addr:housenumber": "6",
      "addr:postcode": "48604-792",
      "addr:street": "Rua Jatobá",
      "addr:suburb": "Barroca",
      "addr:unit": "Quadra H",
      "building": "yes"
      },
      "geometry": {
         "type": "Point",
         "coordinates": [-38.2379348,-9.37182]
      }
    },
    {
      "type": "Feature",
      "properties": { 
      "IBGE:COD_UNICO_ENDERECO": "97767137",
      "addr:housenumber": "2",
      "addr:postcode": "48604-792",
      "addr:street": "Rua Jatobá",
      "addr:suburb": "Barroca",
      "addr:unit": "Quadra H",
      "building": "yes"
      },
      "geometry": {
         "type": "Point",
         "coordinates": [-38.2379783,-9.3717631]
      }
    },
    {
      "type": "Feature",
      "properties": { 
      "IBGE:COD_UNICO_ENDERECO": "27422052",
      "addr:housenumber": "134",
      "addr:postcode": "48604-700",
      "addr:suburb": "Barroca",
      "building": "yes"
      },
      "geometry": {
         "type": "Point",
         "coordinates": [-38.2459963,-9.3752037]
      }
    },
    {
      "type": "Feature",
      "properties": { 
      "IBGE:COD_UNICO_ENDERECO": "191740389",
      "addr:housenumber": "20",
      "addr:postcode": "48604-780",
      "addr:street": "Travessa Inhapi 2",
      "addr:suburb": "Barroca",
      "building": "yes",
      "fixme": "Verificar coordenadas",
      "note": "Sem face no bayface do IBGE 0500-0159P-8-1"
      },
      "geometry": {
         "type": "Point",
         "coordinates": [-38.24086,-9.370485]
      }
    },
    {
      "type": "Feature",
      "properties": { 
      "IBGE:COD_UNICO_ENDERECO": "27468392",
      "addr:housenumber": "267",
      "addr:postcode": "48604-790",
      "addr:street": "Rua Luís Gonzaga",
      "addr:suburb": "Barroca",
      "addr:unit": "Casa",
      "building": "yes",
      "fixme": "Verificar coordenadas",
      "note": "Fora da área de projeção da face 0500-0159P-10-1"
      },
      "geometry": {
         "type": "Point",
         "coordinates": [-38.240021,-9.369358]
      }
    },
    {
      "type": "Feature",
      "properties": { 
      "IBGE:COD_UNICO_ENDERECO": "27468359",
      "addr:housenumber": "13",
      "addr:postcode": "48604-780",
      "addr:street": "Rua Inhapi",
      "addr:suburb": "Barroca",
      "building": "yes"
      },
      "geometry": {
         "type": "Point",
         "coordinates": [-38.2401799,-9.3703013]
      }
    },
    {
      "type": "Feature",
      "properties": { 
      "IBGE:COD_UNICO_ENDERECO": "191739913",
      "addr:housenumber": "62",
      "addr:postcode": "48604-720",
      "addr:street": "Rua Araci",
      "addr:suburb": "Barroca",
      "building": "yes"
      },
      "geometry": {
         "type": "Point",
         "coordinates": [-38.2446291,-9.3714135]
      }
    },
    {
      "type": "Feature",
      "properties": { 
      "IBGE:COD_UNICO_ENDERECO": "97767046",
      "addr:housenumber": "3",
      "addr:postcode": "48604-784",
      "addr:street": "Rua Jequitibá",
      "addr:suburb": "Barroca",
      "addr:unit": "Quadra C",
      "building": "yes"
      },
      "geometry": {
         "type": "Point",
         "coordinates": [-38.2385623,-9.3727205]
      }
    },
    {
      "type": "Feature",
      "properties": { 
      "IBGE:COD_UNICO_ENDERECO": "191739869",
      "addr:housenumber": "1008",
      "addr:postcode": "48604-564",
      "addr:street": "Rua Nossa Senhora Aparecida",
      "addr:suburb": "Barroca",
      "amenity": "taxi",
      "building": "yes",
      "name": "Mototáxi Mm",
      "taxi_vehicle": "motorcycle"
      },
      "geometry": {
         "type": "Point",
         "coordinates": [-38.2446084,-9.3718825]
      }
    },
    {
      "type": "Feature",
      "properties": { 
      "IBGE:COD_UNICO_ENDERECO": "27468287",
      "addr:housenumber": "175",
      "addr:postcode": "48604-780",
      "addr:street": "Rua Inhapi",
      "addr:suburb": "Barroca",
      "building": "yes"
      },
      "geometry": {
         "type": "Point",
         "coordinates": [-38.2417763,-9.3700469]
      }
    },
    {
      "type": "Feature",
      "properties": { 
      "IBGE:COD_UNICO_ENDERECO": "191742809",
      "addr:housenumber": "13",
      "addr:postcode": "48604-710",
      "addr:suburb": "Barroca",
      "building": "construction",
      "fixme": "Verificar coordenadas",
      "note": "Sem face no bayface do IBGE 0500-0192P-13-11"
      },
      "geometry": {
         "type": "Point",
         "coordinates": [-38.249592,-9.371036]
      }
    },
    {
      "type": "Feature",
      "properties": { 
      "IBGE:COD_UNICO_ENDERECO": "27468187",
      "addr:housenumber": "190",
      "addr:postcode": "48604-720",
      "addr:street": "Rua Araci",
      "addr:suburb": "Barroca",
      "building": "yes"
      },
      "geometry": {
         "type": "Point",
         "coordinates": [-38.2449831,-9.3707867]
      }
    },
    {
      "type": "Feature",
      "properties": { 
      "IBGE:COD_UNICO_ENDERECO": "97767082",
      "addr:housenumber": "6",
      "addr:postcode": "48604-784",
      "addr:street": "Rua Jequitibá",
      "addr:suburb": "Barroca",
      "addr:unit": "Quadra E",
      "building": "yes"
      },
      "geometry": {
         "type": "Point",
         "coordinates": [-38.238335,-9.3726621]
      }
    },
    {
      "type": "Feature",
      "properties": { 
      "IBGE:COD_UNICO_ENDERECO": "97767177",
      "addr:housenumber": "2",
      "addr:postcode": "48604-794",
      "addr:street": "Rua Jacarandá",
      "addr:suburb": "Barroca",
      "addr:unit": "Quadra I",
      "building": "yes"
      },
      "geometry": {
         "type": "Point",
         "coordinates": [-38.2388248,-9.3706748]
      }
    },
    {
      "type": "Feature",
      "properties": { 
      "IBGE:COD_UNICO_ENDERECO": "191739473",
      "addr:housenumber": "79",
      "addr:postcode": "48604-700",
      "addr:street": "Rua Pedra Comprida",
      "addr:suburb": "Barroca",
      "building": "yes"
      },
      "geometry": {
         "type": "Point",
         "coordinates": [-38.247098,-9.3726741]
      }
    },
    {
      "type": "Feature",
      "properties": { 
      "IBGE:COD_UNICO_ENDERECO": "97767088",
      "addr:housenumber": "1",
      "addr:postcode": "48604-788",
      "addr:street": "Rua Angico",
      "addr:suburb": "Barroca",
      "addr:unit": "Quadra F",
      "amenity": "pub",
      "building": "yes",
      "name": "Bar de Dona Cicinha"
      },
      "geometry": {
         "type": "Point",
         "coordinates": [-38.2387271,-9.3717154]
      }
    },
    {
      "type": "Feature",
      "properties": { 
      "IBGE:COD_UNICO_ENDERECO": "97767217",
      "addr:housenumber": "11",
      "addr:postcode": "48604-798",
      "addr:street": "Rua Macaúba",
      "addr:suburb": "Barroca",
      "addr:unit": "Quadra M",
      "building": "yes",
      "name": "Ateliê Leila Melo"
      },
      "geometry": {
         "type": "Point",
         "coordinates": [-38.237156,-9.3714423]
      }
    },
    {
      "type": "Feature",
      "properties": { 
      "IBGE:COD_UNICO_ENDERECO": "97766974",
      "addr:housenumber": "111",
      "addr:postcode": "48604-740",
      "addr:street": "Rua da Igreja",
      "addr:suburb": "Barroca",
      "building": "yes",
      "fixme": "Verificar coordenadas",
      "note": "Sem face no bayface do IBGE 0500-0234P-2-27"
      },
      "geometry": {
         "type": "Point",
         "coordinates": [-38.24704,-9.368729]
      }
    },
    {
      "type": "Feature",
      "properties": { 
      "IBGE:COD_UNICO_ENDERECO": "191739782",
      "addr:housenumber": "11",
      "addr:postcode": "48604-720",
      "addr:street": "Rua Mazzaropi",
      "addr:suburb": "Barroca",
      "building": "yes"
      },
      "geometry": {
         "type": "Point",
         "coordinates": [-38.2458541,-9.37167]
      }
    },
    {
      "type": "Feature",
      "properties": { 
      "IBGE:COD_UNICO_ENDERECO": "97767196",
      "addr:housenumber": "9",
      "addr:postcode": "48604-796",
      "addr:street": "Rua Craibeira",
      "addr:suburb": "Barroca",
      "addr:unit": "Quadra L",
      "building": "yes"
      },
      "geometry": {
         "type": "Point",
         "coordinates": [-38.2379099,-9.3708239]
      }
    },
    {
      "type": "Feature",
      "properties": { 
      "IBGE:COD_UNICO_ENDERECO": "90500774",
      "addr:housenumber": "100",
      "addr:postcode": "48604-720",
      "addr:street": "Rua Araci",
      "addr:suburb": "Barroca",
      "building": "yes",
      "fixme": "Verificar coordenadas",
      "note": "Sem face no bayface do IBGE 0500-0234P-2-24"
      },
      "geometry": {
         "type": "Point",
         "coordinates": [-38.246029,-9.369086]
      }
    },
    {
      "type": "Feature",
      "properties": { 
      "IBGE:COD_UNICO_ENDERECO": "191739881",
      "addr:housenumber": "20",
      "addr:postcode": "48604-564",
      "addr:street": "Travessa Mazzaropi",
      "addr:suburb": "Barroca",
      "building": "construction"
      },
      "geometry": {
         "type": "Point",
         "coordinates": [-38.2457524,-9.37214]
      }
    },
    {
      "type": "Feature",
      "properties": { 
      "IBGE:COD_UNICO_ENDERECO": "27468391",
      "addr:housenumber": "269",
      "addr:postcode": "48604-790",
      "addr:street": "Rua Luís Gonzaga",
      "addr:suburb": "Barroca",
      "addr:unit": "Casa",
      "building": "yes",
      "fixme": "Verificar coordenadas",
      "note": "Fora da área de projeção da face 0500-0159P-10-1"
      },
      "geometry": {
         "type": "Point",
         "coordinates": [-38.240179,-9.369384]
      }
    },
    {
      "type": "Feature",
      "properties": { 
      "IBGE:COD_UNICO_ENDERECO": "97767101",
      "addr:housenumber": "12",
      "addr:postcode": "48604-786",
      "addr:street": "Rua Cedro",
      "addr:suburb": "Barroca",
      "addr:unit": "Quadra F",
      "building": "yes"
      },
      "geometry": {
         "type": "Point",
         "coordinates": [-38.2387158,-9.371932]
      }
    },
    {
      "type": "Feature",
      "properties": { 
      "IBGE:COD_UNICO_ENDERECO": "90500840",
      "addr:housenumber": "101",
      "addr:postcode": "48604-710",
      "addr:street": "Rua José Reinaldo de Sousa",
      "addr:suburb": "Barroca",
      "addr:unit": "C Coelb",
      "building": "yes"
      },
      "geometry": {
         "type": "Point",
         "coordinates": [-38.2467648,-9.3707674]
      }
    },
    {
      "type": "Feature",
      "properties": { 
      "IBGE:COD_UNICO_ENDERECO": "27422250",
      "addr:housenumber": "128",
      "addr:postcode": "48604-700",
      "addr:suburb": "Barroca",
      "building": "yes"
      },
      "geometry": {
         "type": "Point",
         "coordinates": [-38.246052,-9.3752261]
      }
    },
    {
      "type": "Feature",
      "properties": { 
      "IBGE:COD_UNICO_ENDERECO": "191740349",
      "addr:housenumber": "105",
      "addr:postcode": "48604-564",
      "addr:street": "Rua Nossa Senhora Aparecida",
      "addr:suburb": "Barroca",
      "building": "yes"
      },
      "geometry": {
         "type": "Point",
         "coordinates": [-38.2435283,-9.3719844]
      }
    },
    {
      "type": "Feature",
      "properties": { 
      "IBGE:COD_UNICO_ENDERECO": "191739652",
      "addr:housenumber": "21",
      "addr:postcode": "48604-725",
      "addr:street": "Travessa Araci",
      "addr:suburb": "Barroca",
      "building": "yes"
      },
      "geometry": {
         "type": "Point",
         "coordinates": [-38.2455676,-9.3712001]
      }
    },
    {
      "type": "Feature",
      "properties": { 
      "IBGE:COD_UNICO_ENDERECO": "97767202",
      "addr:housenumber": "3",
      "addr:postcode": "48604-796",
      "addr:street": "Rua Craibeira",
      "addr:suburb": "Barroca",
      "addr:unit": "Quadra L",
      "building": "yes"
      },
      "geometry": {
         "type": "Point",
         "coordinates": [-38.2382941,-9.3705661]
      }
    },
    {
      "type": "Feature",
      "properties": { 
      "IBGE:COD_UNICO_ENDERECO": "27468346",
      "addr:housenumber": "47",
      "addr:postcode": "48604-780",
      "addr:street": "Travessa Inhapi 2",
      "addr:suburb": "Barroca",
      "building": "yes",
      "fixme": "Verificar coordenadas",
      "note": "Sem face no bayface do IBGE 0500-0159P-8-1"
      },
      "geometry": {
         "type": "Point",
         "coordinates": [-38.240963,-9.372035]
      }
    },
    {
      "type": "Feature",
      "properties": { 
      "IBGE:COD_UNICO_ENDERECO": "104593214",
      "addr:housenumber": "10",
      "addr:postcode": "48604-710",
      "addr:suburb": "Barroca",
      "addr:unit": "A Coelb",
      "building": "yes"
      },
      "geometry": {
         "type": "Point",
         "coordinates": [-38.245157,-9.369255]
      }
    },
    {
      "type": "Feature",
      "properties": { 
      "IBGE:COD_UNICO_ENDERECO": "191739735",
      "addr:housenumber": "10",
      "addr:postcode": "48604-725",
      "addr:street": "Travessa Araci",
      "addr:suburb": "Barroca",
      "building": "yes"
      },
      "geometry": {
         "type": "Point",
         "coordinates": [-38.2450849,-9.371211]
      }
    },
    {
      "type": "Feature",
      "properties": { 
      "IBGE:COD_UNICO_ENDERECO": "27468368",
      "addr:housenumber": "8",
      "addr:postcode": "48604-790",
      "addr:street": "Rua Carolina Rosa",
      "addr:suburb": "Barroca",
      "building": "construction"
      },
      "geometry": {
         "type": "Point",
         "coordinates": [-38.2394464,-9.3721096]
      }
    },
    {
      "type": "Feature",
      "properties": { 
      "IBGE:COD_UNICO_ENDERECO": "27468184",
      "addr:housenumber": "70",
      "addr:postcode": "48604-720",
      "addr:street": "Rua Araci",
      "addr:suburb": "Barroca",
      "building": "yes"
      },
      "geometry": {
         "type": "Point",
         "coordinates": [-38.2446863,-9.3712746]
      }
    },
    {
      "type": "Feature",
      "properties": { 
      "IBGE:COD_UNICO_ENDERECO": "191740577",
      "addr:housenumber": "70",
      "addr:postcode": "48604-790",
      "addr:street": "Rua Carolina Rosa",
      "addr:suburb": "Barroca",
      "building": "yes"
      },
      "geometry": {
         "type": "Point",
         "coordinates": [-38.2398364,-9.3719674]
      }
    },
    {
      "type": "Feature",
      "properties": { 
      "IBGE:COD_UNICO_ENDERECO": "27468332",
      "addr:housenumber": "47 A",
      "addr:postcode": "48604-564",
      "addr:street": "Rua Nossa Senhora Aparecida",
      "addr:suburb": "Barroca",
      "addr:unit": "Térreo",
      "building": "yes",
      "name": "Comércio Alimentícios",
      "shop": "yes"
      },
      "geometry": {
         "type": "Point",
         "coordinates": [-38.2442643,-9.3719729]
      }
    },
    {
      "type": "Feature",
      "properties": { 
      "IBGE:COD_UNICO_ENDERECO": "90500735",
      "addr:housenumber": "14",
      "addr:postcode": "48604-750",
      "addr:street": "Rua João Miguel de Lima",
      "addr:suburb": "Barroca",
      "building": "yes",
      "fixme": "Verificar coordenadas",
      "note": "Sem face no bayface do IBGE 0500-0234P-2-17"
      },
      "geometry": {
         "type": "Point",
         "coordinates": [-38.244381,-9.369567]
      }
    },
    {
      "type": "Feature",
      "properties": { 
      "IBGE:COD_UNICO_ENDERECO": "191740110",
      "addr:housenumber": "100",
      "addr:postcode": "48604-730",
      "addr:street": "Travessa Dias Dávila",
      "addr:suburb": "Barroca",
      "building": "yes"
      },
      "geometry": {
         "type": "Point",
         "coordinates": [-38.2445849,-9.3708574]
      }
    },
    {
      "type": "Feature",
      "properties": { 
      "IBGE:COD_UNICO_ENDERECO": "97767027",
      "addr:housenumber": "23",
      "addr:postcode": "48604-790",
      "addr:street": "Rua Santa Bárbara",
      "addr:suburb": "Barroca",
      "amenity": "place_of_worship",
      "building": "yes",
      "name": "Centro de Ogum Oledeji"
      },
      "geometry": {
         "type": "Point",
         "coordinates": [-38.2404725,-9.3684882]
      }
    },
    {
      "type": "Feature",
      "properties": { 
      "IBGE:COD_UNICO_ENDERECO": "27468255",
      "addr:housenumber": "71",
      "addr:postcode": "48604-710",
      "addr:street": "Rua José Reinaldo de Sousa",
      "addr:suburb": "Barroca",
      "building": "yes"
      },
      "geometry": {
         "type": "Point",
         "coordinates": [-38.2433167,-9.369772]
      }
    },
    {
      "type": "Feature",
      "properties": { 
      "IBGE:COD_UNICO_ENDERECO": "90500786",
      "addr:housenumber": "128",
      "addr:postcode": "48604-740",
      "addr:street": "Rua Alvorada",
      "addr:suburb": "Barroca",
      "amenity": "place_of_worship",
      "building": "yes",
      "name": "Igreja Menino Jesus"
      },
      "geometry": {
         "type": "Point",
         "coordinates": [-38.2462712,-9.3697585]
      }
    },
    {
      "type": "Feature",
      "properties": { 
      "IBGE:COD_UNICO_ENDERECO": "27468381",
      "addr:housenumber": "536",
      "addr:postcode": "48604-564",
      "addr:street": "Rua Nossa Senhora Aparecida",
      "addr:suburb": "Barroca",
      "building": "yes"
      },
      "geometry": {
         "type": "Point",
         "coordinates": [-38.2399388,-9.3724212]
      }
    },
    {
      "type": "Feature",
      "properties": { 
      "IBGE:COD_UNICO_ENDERECO": "27468355",
      "addr:housenumber": "37",
      "addr:postcode": "48604-780",
      "addr:street": "Rua Inhapi",
      "addr:suburb": "Barroca",
      "building": "yes"
      },
      "geometry": {
         "type": "Point",
         "coordinates": [-38.2400633,-9.3703372]
      }
    },
    {
      "type": "Feature",
      "properties": { 
      "IBGE:COD_UNICO_ENDERECO": "191740264",
      "addr:housenumber": "23",
      "addr:postcode": "48604-780",
      "addr:suburb": "Barroca",
      "building": "yes"
      },
      "geometry": {
         "type": "Point",
         "coordinates": [-38.2419869,-9.3705238]
      }
    },
    {
      "type": "Feature",
      "properties": { 
      "IBGE:COD_UNICO_ENDERECO": "97767048",
      "addr:housenumber": "7",
      "addr:postcode": "48604-784",
      "addr:street": "Rua Jequitibá",
      "addr:suburb": "Barroca",
      "addr:unit": "Quadra C",
      "building": "yes"
      },
      "geometry": {
         "type": "Point",
         "coordinates": [-38.2385576,-9.3727245]
      }
    },
    {
      "type": "Feature",
      "properties": { 
      "IBGE:COD_UNICO_ENDERECO": "97767204",
      "addr:housenumber": "1",
      "addr:postcode": "48604-796",
      "addr:street": "Rua Craibeira",
      "addr:suburb": "Barroca",
      "addr:unit": "Quadra L",
      "building": "yes"
      },
      "geometry": {
         "type": "Point",
         "coordinates": [-38.2384001,-9.3705021]
      }
    },
    {
      "type": "Feature",
      "properties": { 
      "IBGE:COD_UNICO_ENDERECO": "191740396",
      "addr:housenumber": "140",
      "addr:postcode": "48604-780",
      "addr:street": "Rua Inhapi",
      "addr:suburb": "Barroca",
      "building": "yes"
      },
      "geometry": {
         "type": "Point",
         "coordinates": [-38.2409731,-9.3700814]
      }
    },
    {
      "type": "Feature",
      "properties": { 
      "IBGE:COD_UNICO_ENDERECO": "191740342",
      "addr:housenumber": "772",
      "addr:postcode": "48604-564",
      "addr:street": "Rua Nossa Senhora Aparecida",
      "addr:suburb": "Barroca",
      "building": "yes"
      },
      "geometry": {
         "type": "Point",
         "coordinates": [-38.2424977,-9.3721896]
      }
    },
    {
      "type": "Feature",
      "properties": { 
      "IBGE:COD_UNICO_ENDERECO": "27468249",
      "addr:housenumber": "2",
      "addr:postcode": "48604-710",
      "addr:street": "Rua José Reinaldo de Sousa",
      "addr:suburb": "Barroca",
      "building": "yes"
      },
      "geometry": {
         "type": "Point",
         "coordinates": [-38.244018,-9.3699038]
      }
    },
    {
      "type": "Feature",
      "properties": { 
      "IBGE:COD_UNICO_ENDERECO": "97767138",
      "addr:housenumber": "1",
      "addr:postcode": "48604-794",
      "addr:street": "Rua Jacarandá",
      "addr:suburb": "Barroca",
      "addr:unit": "Quadra H",
      "building": "yes"
      },
      "geometry": {
         "type": "Point",
         "coordinates": [-38.2378861,-9.3715286]
      }
    },
    {
      "type": "Feature",
      "properties": { 
      "IBGE:COD_UNICO_ENDERECO": "27468398",
      "addr:housenumber": "141",
      "addr:postcode": "48604-790",
      "addr:street": "Rua Luís Gonzaga",
      "addr:suburb": "Barroca",
      "addr:unit": "Casa",
      "building": "yes",
      "fixme": "Verificar coordenadas",
      "note": "Fora da área de projeção da face 0500-0159P-10-2"
      },
      "geometry": {
         "type": "Point",
         "coordinates": [-38.239029,-9.369306]
      }
    },
    {
      "type": "Feature",
      "properties": { 
      "IBGE:COD_UNICO_ENDERECO": "191740143",
      "addr:housenumber": "130",
      "addr:postcode": "48604-720",
      "addr:street": "Rua Araci",
      "addr:suburb": "Barroca",
      "amenity": "fast_food",
      "building": "yes",
      "description": "CNEFE 2022 Lanchonete"
      },
      "geometry": {
         "type": "Point",
         "coordinates": [-38.2443335,-9.3719033]
      }
    },
    {
      "type": "Feature",
      "properties": { 
      "IBGE:COD_UNICO_ENDERECO": "27468396",
      "addr:housenumber": "13",
      "addr:postcode": "48604-790",
      "addr:street": "Rua Luís Gonzaga",
      "addr:suburb": "Barroca",
      "amenity": "pub",
      "building": "yes",
      "fixme": "Verificar coordenadas",
      "name": "Bar Demas e Ricardos",
      "note": "Fora da área de projeção da face 0500-0159P-10-1"
      },
      "geometry": {
         "type": "Point",
         "coordinates": [-38.239268,-9.369053]
      }
    },
    {
      "type": "Feature",
      "properties": { 
      "IBGE:COD_UNICO_ENDERECO": "90500794",
      "addr:housenumber": "5",
      "addr:postcode": "48604-740",
      "addr:street": "Rua da Igreja",
      "addr:suburb": "Barroca",
      "building": "yes"
      },
      "geometry": {
         "type": "Point",
         "coordinates": [-38.2467995,-9.369068]
      }
    },
    {
      "type": "Feature",
      "properties": { 
      "IBGE:COD_UNICO_ENDERECO": "191742830",
      "addr:housenumber": "166",
      "addr:postcode": "48604-700",
      "addr:street": "Rua Pedra Comprida",
      "addr:suburb": "Barroca",
      "building": "yes",
      "fixme": "Verificar coordenadas",
      "note": "Sem dados para mover para dentro da quadra 0500-0192P-13-12"
      },
      "geometry": {
         "type": "Point",
         "coordinates": [-38.2496369,-9.3700008]
      }
    },
    {
      "type": "Feature",
      "properties": { 
      "IBGE:COD_UNICO_ENDERECO": "97767015",
      "addr:housenumber": "14",
      "addr:postcode": "48604-782",
      "addr:street": "Rua Baraúna",
      "addr:suburb": "Barroca",
      "addr:unit": "Quadra A",
      "building": "yes"
      },
      "geometry": {
         "type": "Point",
         "coordinates": [-38.2385566,-9.3731985]
      }
    },
    {
      "type": "Feature",
      "properties": { 
      "IBGE:COD_UNICO_ENDERECO": "90500888;97767019",
      "addr:housenumber": "156",
      "addr:postcode": "48604-790",
      "addr:street": "Rua Luís Gonzaga",
      "addr:suburb": "Barroca",
      "building": "yes"
      },
      "geometry": {
         "type": "Point",
         "coordinates": [-38.2425149,-9.3694843]
      }
    },
    {
      "type": "Feature",
      "properties": { 
      "IBGE:COD_UNICO_ENDERECO": "97767162",
      "addr:housenumber": "32",
      "addr:postcode": "48604-794",
      "addr:street": "Rua Jacarandá",
      "addr:suburb": "Barroca",
      "addr:unit": "Quadra I",
      "building": "yes"
      },
      "geometry": {
         "type": "Point",
         "coordinates": [-38.2379756,-9.3712453]
      }
    },
    {
      "type": "Feature",
      "properties": { 
      "IBGE:COD_UNICO_ENDERECO": "97767104",
      "addr:housenumber": "6",
      "addr:postcode": "48604-786",
      "addr:street": "Rua Cedro",
      "addr:suburb": "Barroca",
      "addr:unit": "Quadra F",
      "building": "yes"
      },
      "geometry": {
         "type": "Point",
         "coordinates": [-38.2389681,-9.3717914]
      }
    },
    {
      "type": "Feature",
      "properties": { 
      "IBGE:COD_UNICO_ENDERECO": "90500842",
      "addr:housenumber": "550",
      "addr:postcode": "48604-710",
      "addr:street": "Rua José Reinaldo de Sousa",
      "addr:suburb": "Barroca",
      "building": "yes"
      },
      "geometry": {
         "type": "Point",
         "coordinates": [-38.2473642,-9.3711468]
      }
    },
    {
      "type": "Feature",
      "properties": { 
      "IBGE:COD_UNICO_ENDERECO": "97767017",
      "addr:housenumber": "3",
      "addr:postcode": "48604-790",
      "addr:street": "Rua Luís Gonzaga",
      "addr:suburb": "Barroca",
      "building": "yes"
      },
      "geometry": {
         "type": "Point",
         "coordinates": [-38.2414184,-9.3693986]
      }
    },
    {
      "type": "Feature",
      "properties": { 
      "IBGE:COD_UNICO_ENDERECO": "191740359",
      "addr:housenumber": "35",
      "addr:postcode": "48604-564",
      "addr:street": "Rua Nossa Senhora Aparecida",
      "addr:suburb": "Barroca",
      "addr:unit": "4 Casa 115 Sms",
      "building": "yes"
      },
      "geometry": {
         "type": "Point",
         "coordinates": [-38.2435839,-9.3719833]
      }
    },
    {
      "type": "Feature",
      "properties": { 
      "IBGE:COD_UNICO_ENDERECO": "90500884",
      "addr:housenumber": "168",
      "addr:postcode": "48604-790",
      "addr:street": "Rua Luís Gonzaga",
      "addr:suburb": "Barroca",
      "building": "yes"
      },
      "geometry": {
         "type": "Point",
         "coordinates": [-38.2421305,-9.3694655]
      }
    },
    {
      "type": "Feature",
      "properties": { 
      "IBGE:COD_UNICO_ENDERECO": "90500901",
      "addr:housenumber": "270",
      "addr:postcode": "48604-790",
      "addr:street": "Rua Luís Gonzaga",
      "addr:suburb": "Barroca",
      "building": "yes"
      },
      "geometry": {
         "type": "Point",
         "coordinates": [-38.2403088,-9.3692809]
      }
    },
    {
      "type": "Feature",
      "properties": { 
      "IBGE:COD_UNICO_ENDERECO": "90500912",
      "addr:housenumber": "10",
      "addr:postcode": "48604-790",
      "addr:suburb": "Barroca",
      "addr:unit": "A Coelb",
      "building": "yes"
      },
      "geometry": {
         "type": "Point",
         "coordinates": [-38.240929,-9.3690522]
      }
    },
    {
      "type": "Feature",
      "properties": { 
      "IBGE:COD_UNICO_ENDERECO": "97767140",
      "addr:housenumber": "5",
      "addr:postcode": "48604-794",
      "addr:street": "Rua Jacarandá",
      "addr:suburb": "Barroca",
      "addr:unit": "Quadra H",
      "building": "yes"
      },
      "geometry": {
         "type": "Point",
         "coordinates": [-38.2378334,-9.3716623]
      }
    },
    {
      "type": "Feature",
      "properties": { 
      "IBGE:COD_UNICO_ENDERECO": "191745608",
      "addr:housenumber": "142",
      "addr:postcode": "48604-740",
      "addr:street": "Rua da Igreja",
      "addr:suburb": "Barroca",
      "building": "construction"
      },
      "geometry": {
         "type": "Point",
         "coordinates": [-38.2468681,-9.3688434]
      }
    },
    {
      "type": "Feature",
      "properties": { 
      "IBGE:COD_UNICO_ENDERECO": "97767198",
      "addr:housenumber": "7",
      "addr:postcode": "48604-796",
      "addr:street": "Rua Craibeira",
      "addr:suburb": "Barroca",
      "addr:unit": "Quadra L",
      "building": "yes"
      },
      "geometry": {
         "type": "Point",
         "coordinates": [-38.2380531,-9.3707117]
      }
    },
    {
      "type": "Feature",
      "properties": { 
      "IBGE:COD_UNICO_ENDERECO": "97767057",
      "addr:housenumber": "16",
      "addr:postcode": "48604-782",
      "addr:street": "Rua Baraúna",
      "addr:suburb": "Barroca",
      "addr:unit": "Quadra C",
      "building": "yes"
      },
      "geometry": {
         "type": "Point",
         "coordinates": [-38.2385751,-9.3728797]
      }
    },
    {
      "type": "Feature",
      "properties": { 
      "IBGE:COD_UNICO_ENDERECO": "191740574",
      "addr:housenumber": "22",
      "addr:postcode": "48604-790",
      "addr:street": "Rua Carolina Rosa",
      "addr:suburb": "Barroca",
      "building": "yes"
      },
      "geometry": {
         "type": "Point",
         "coordinates": [-38.239736,-9.372054]
      }
    },
    {
      "type": "Feature",
      "properties": { 
      "IBGE:COD_UNICO_ENDERECO": "98343812",
      "addr:housenumber": "56",
      "addr:postcode": "48604-720",
      "addr:street": "Rua Araci",
      "addr:suburb": "Barroca",
      "building": "yes"
      },
      "geometry": {
         "type": "Point",
         "coordinates": [-38.2454617,-9.3690135]
      }
    },
    {
      "type": "Feature",
      "properties": { 
      "IBGE:COD_UNICO_ENDERECO": "90500692",
      "addr:housenumber": "28 Frente",
      "addr:postcode": "48604-796",
      "addr:suburb": "Barroca",
      "building": "yes",
      "fixme": "Verificar coordenadas",
      "note": "Sem face no bayface do IBGE 0500-0234P-2-8"
      },
      "geometry": {
         "type": "Point",
         "coordinates": [-38.237515,-9.370796]
      }
    },
    {
      "type": "Feature",
      "properties": { 
      "IBGE:COD_UNICO_ENDERECO": "27468106",
      "addr:housenumber": "569",
      "addr:postcode": "48604-710",
      "addr:street": "Rua José Reinaldo de Sousa",
      "addr:suburb": "Barroca",
      "building": "yes"
      },
      "geometry": {
         "type": "Point",
         "coordinates": [-38.246755,-9.3709721]
      }
    },
    {
      "type": "Feature",
      "properties": { 
      "IBGE:COD_UNICO_ENDERECO": "27468293",
      "addr:housenumber": "230",
      "addr:postcode": "48604-770",
      "addr:street": "Rua Teofilândia",
      "addr:suburb": "Barroca",
      "addr:unit": "Casa",
      "building": "yes"
      },
      "geometry": {
         "type": "Point",
         "coordinates": [-38.2411326,-9.3706812]
      }
    },
    {
      "type": "Feature",
      "properties": { 
      "IBGE:COD_UNICO_ENDERECO": "27468156",
      "addr:housenumber": "20 B",
      "addr:postcode": "48604-725",
      "addr:street": "Travessa Araci",
      "addr:suburb": "Barroca",
      "building": "yes"
      },
      "geometry": {
         "type": "Point",
         "coordinates": [-38.2455905,-9.3712071]
      }
    },
    {
      "type": "Feature",
      "properties": { 
      "IBGE:COD_UNICO_ENDERECO": "27468148",
      "addr:housenumber": "185",
      "addr:postcode": "48604-720",
      "addr:street": "Rua Araci",
      "addr:suburb": "Barroca",
      "building": "yes"
      },
      "geometry": {
         "type": "Point",
         "coordinates": [-38.2452788,-9.3706081]
      }
    },
    {
      "type": "Feature",
      "properties": { 
      "IBGE:COD_UNICO_ENDERECO": "27422199",
      "addr:housenumber": "121",
      "addr:postcode": "48604-700",
      "addr:suburb": "Barroca",
      "building": "yes"
      },
      "geometry": {
         "type": "Point",
         "coordinates": [-38.2454323,-9.3749644]
      }
    },
    {
      "type": "Feature",
      "properties": { 
      "IBGE:COD_UNICO_ENDERECO": "98343811",
      "addr:housenumber": "62",
      "addr:postcode": "48604-710",
      "addr:suburb": "Barroca",
      "building": "yes"
      },
      "geometry": {
         "type": "Point",
         "coordinates": [-38.245366,-9.3693399]
      }
    },
    {
      "type": "Feature",
      "properties": { 
      "IBGE:COD_UNICO_ENDERECO": "97767022",
      "addr:housenumber": "93",
      "addr:postcode": "48604-790",
      "addr:suburb": "Barroca",
      "addr:unit": "A Coelb",
      "building": "yes"
      },
      "geometry": {
         "type": "Point",
         "coordinates": [-38.2409269,-9.3690874]
      }
    },
    {
      "type": "Feature",
      "properties": { 
      "IBGE:COD_UNICO_ENDERECO": "27468140",
      "addr:housenumber": "71",
      "addr:postcode": "48604-710",
      "addr:street": "Rua José Reinaldo de Sousa",
      "addr:suburb": "Barroca",
      "building": "yes"
      },
      "geometry": {
         "type": "Point",
         "coordinates": [-38.2459457,-9.3705913]
      }
    },
    {
      "type": "Feature",
      "properties": { 
      "IBGE:COD_UNICO_ENDERECO": "191740392",
      "addr:housenumber": "66",
      "addr:postcode": "48604-780",
      "addr:street": "Travessa Inhapi 2",
      "addr:suburb": "Barroca",
      "building": "yes",
      "fixme": "Verificar coordenadas",
      "note": "Sem face no bayface do IBGE 0500-0159P-8-1"
      },
      "geometry": {
         "type": "Point",
         "coordinates": [-38.241128,-9.370384]
      }
    },
    {
      "type": "Feature",
      "properties": { 
      "IBGE:COD_UNICO_ENDERECO": "191739466",
      "addr:housenumber": "21",
      "addr:postcode": "48604-700",
      "addr:street": "Rua Pedra Comprida",
      "addr:suburb": "Barroca",
      "building": "yes"
      },
      "geometry": {
         "type": "Point",
         "coordinates": [-38.2468274,-9.3728671]
      }
    },
    {
      "type": "Feature",
      "properties": { 
      "IBGE:COD_UNICO_ENDERECO": "191740195",
      "addr:housenumber": "96",
      "addr:postcode": "48604-730",
      "addr:street": "Rua Dias D Ávila",
      "addr:suburb": "Barroca",
      "building": "yes"
      },
      "geometry": {
         "type": "Point",
         "coordinates": [-38.2439863,-9.3701888]
      }
    },
    {
      "type": "Feature",
      "properties": { 
      "IBGE:COD_UNICO_ENDERECO": "27468353",
      "addr:housenumber": "250",
      "addr:postcode": "48604-780",
      "addr:street": "Rua Inhapi",
      "addr:suburb": "Barroca",
      "building": "yes"
      },
      "geometry": {
         "type": "Point",
         "coordinates": [-38.2407881,-9.3701326]
      }
    },
    {
      "type": "Feature",
      "properties": { 
      "IBGE:COD_UNICO_ENDERECO": "27468201",
      "addr:housenumber": "23",
      "addr:postcode": "48604-730",
      "addr:street": "Rua Dias D Ávila",
      "addr:suburb": "Barroca",
      "building": "yes"
      },
      "geometry": {
         "type": "Point",
         "coordinates": [-38.2440019,-9.3706547]
      }
    },
    {
      "type": "Feature",
      "properties": { 
      "IBGE:COD_UNICO_ENDERECO": "191739359",
      "addr:housenumber": "4",
      "addr:postcode": "48604-710",
      "addr:street": "Travessa José Reinaldo de Sousa",
      "addr:suburb": "Barroca",
      "building": "yes"
      },
      "geometry": {
         "type": "Point",
         "coordinates": [-38.2461308,-9.370942]
      }
    },
    {
      "type": "Feature",
      "properties": { 
      "IBGE:COD_UNICO_ENDERECO": "27468337",
      "addr:housenumber": "37",
      "addr:postcode": "48604-770",
      "addr:street": "Rua Teofilândia",
      "addr:suburb": "Barroca",
      "building": "yes"
      },
      "geometry": {
         "type": "Point",
         "coordinates": [-38.2409427,-9.3716765]
      }
    },
    {
      "type": "Feature",
      "properties": { 
      "IBGE:COD_UNICO_ENDERECO": "27468172",
      "addr:housenumber": "125",
      "addr:postcode": "48604-720",
      "addr:street": "Rua Araci",
      "addr:suburb": "Barroca",
      "building": "yes"
      },
      "geometry": {
         "type": "Point",
         "coordinates": [-38.2447044,-9.3715932]
      }
    },
    {
      "type": "Feature",
      "properties": { 
      "IBGE:COD_UNICO_ENDERECO": "27468182",
      "addr:housenumber": "42",
      "addr:postcode": "48604-720",
      "addr:street": "Rua Araci",
      "addr:suburb": "Barroca",
      "building": "yes"
      },
      "geometry": {
         "type": "Point",
         "coordinates": [-38.2448179,-9.3710478]
      }
    },
    {
      "type": "Feature",
      "properties": { 
      "IBGE:COD_UNICO_ENDERECO": "191739582",
      "addr:housenumber": "56",
      "addr:postcode": "48604-564",
      "addr:street": "Travessa Nossa Senhora Aparecida",
      "addr:suburb": "Barroca",
      "building": "yes",
      "fixme": "Verificar coordenadas",
      "note": "Sem face no bayface do IBGE 0500-0159P-1-27"
      },
      "geometry": {
         "type": "Point",
         "coordinates": [-38.246441,-9.372256]
      }
    },
    {
      "type": "Feature",
      "properties": { 
      "IBGE:COD_UNICO_ENDERECO": "191739763",
      "addr:housenumber": "8",
      "addr:postcode": "48604-720",
      "addr:street": "Rua Mazzaropi",
      "addr:suburb": "Barroca",
      "building": "yes"
      },
      "geometry": {
         "type": "Point",
         "coordinates": [-38.2453621,-9.371517]
      }
    },
    {
      "type": "Feature",
      "properties": { 
      "IBGE:COD_UNICO_ENDERECO": "27468383",
      "addr:housenumber": "602",
      "addr:postcode": "48604-564",
      "addr:street": "Rua Nossa Senhora Aparecida",
      "addr:suburb": "Barroca",
      "building": "yes"
      },
      "geometry": {
         "type": "Point",
         "coordinates": [-38.2409124,-9.3723247]
      }
    },
    {
      "type": "Feature",
      "properties": { 
      "IBGE:COD_UNICO_ENDERECO": "191740404",
      "addr:housenumber": "72",
      "addr:postcode": "48604-780",
      "addr:street": "Rua Inhapi",
      "addr:suburb": "Barroca",
      "building": "yes"
      },
      "geometry": {
         "type": "Point",
         "coordinates": [-38.2404241,-9.3702335]
      }
    },
    {
      "type": "Feature",
      "properties": { 
      "IBGE:COD_UNICO_ENDERECO": "97767094",
      "addr:housenumber": "13",
      "addr:postcode": "48604-788",
      "addr:street": "Rua Angico",
      "addr:suburb": "Barroca",
      "addr:unit": "Quadra F",
      "building": "yes",
      "name": "Mercearia Mm",
      "shop": "convenience"
      },
      "geometry": {
         "type": "Point",
         "coordinates": [-38.2386452,-9.3717651]
      }
    },
    {
      "type": "Feature",
      "properties": { 
      "IBGE:COD_UNICO_ENDERECO": "90500815",
      "addr:housenumber": "168",
      "addr:postcode": "48604-740",
      "addr:street": "Rua Alvorada",
      "addr:suburb": "Barroca",
      "building": "yes",
      "fixme": "Verificar coordenadas",
      "note": "Sem dados para mover para dentro da quadra 0500-0234P-2-28"
      },
      "geometry": {
         "type": "Point",
         "coordinates": [-38.2470215,-9.3699955]
      }
    },
    {
      "type": "Feature",
      "properties": { 
      "IBGE:COD_UNICO_ENDERECO": "90500829",
      "addr:housenumber": "250",
      "addr:postcode": "48604-720",
      "addr:street": "Rua Araci",
      "addr:suburb": "Barroca",
      "building": "yes"
      },
      "geometry": {
         "type": "Point",
         "coordinates": [-38.2456381,-9.370062]
      }
    },
    {
      "type": "Feature",
      "properties": { 
      "IBGE:COD_UNICO_ENDERECO": "97767123",
      "addr:housenumber": "4",
      "addr:postcode": "48604-792",
      "addr:street": "Rua Jatobá",
      "addr:suburb": "Barroca",
      "addr:unit": "Quadra G",
      "building": "yes"
      },
      "geometry": {
         "type": "Point",
         "coordinates": [-38.2386296,-9.3711679]
      }
    },
    {
      "type": "Feature",
      "properties": { 
      "IBGE:COD_UNICO_ENDERECO": "97767003",
      "addr:housenumber": "2",
      "addr:postcode": "48604-782",
      "addr:street": "Rua Baraúna",
      "addr:suburb": "Barroca",
      "addr:unit": "Quadra A",
      "building": "yes"
      },
      "geometry": {
         "type": "Point",
         "coordinates": [-38.239191,-9.3726862]
      }
    },
    {
      "type": "Feature",
      "properties": { 
      "IBGE:COD_UNICO_ENDERECO": "191740656",
      "addr:housenumber": "17",
      "addr:postcode": "48604-780",
      "addr:street": "Rua Inhapi",
      "addr:suburb": "Barroca",
      "building": "yes",
      "fixme": "Verificar coordenadas",
      "note": "Sem face no bayface do IBGE 0500-0159P-8-27"
      },
      "geometry": {
         "type": "Point",
         "coordinates": [-38.239908,-9.370279]
      }
    },
    {
      "type": "Feature",
      "properties": { 
      "IBGE:COD_UNICO_ENDERECO": "90500810",
      "addr:housenumber": "163",
      "addr:postcode": "48604-740",
      "addr:street": "Rua da Igreja",
      "addr:suburb": "Barroca",
      "building": "yes",
      "fixme": "Verificar coordenadas",
      "note": "Sem face no bayface do IBGE 0500-0234P-2-27"
      },
      "geometry": {
         "type": "Point",
         "coordinates": [-38.246775,-9.369626]
      }
    },
    {
      "type": "Feature",
      "properties": { 
      "IBGE:COD_UNICO_ENDERECO": "191739826",
      "addr:housenumber": "28",
      "addr:postcode": "48604-720",
      "addr:street": "Rua Mazzaropi",
      "addr:suburb": "Barroca",
      "building": "construction"
      },
      "geometry": {
         "type": "Point",
         "coordinates": [-38.2451495,-9.3716232]
      }
    },
    {
      "type": "Feature",
      "properties": { 
      "IBGE:COD_UNICO_ENDERECO": "191745658",
      "addr:housenumber": "187",
      "addr:postcode": "48604-700",
      "addr:street": "Rua da Pedra Comprida",
      "addr:suburb": "Barroca",
      "addr:unit": "Casa 187 Fundo",
      "building": "yes"
      },
      "geometry": {
         "type": "Point",
         "coordinates": [-38.2494905,-9.3698373]
      }
    },
    {
      "type": "Feature",
      "properties": { 
      "IBGE:COD_UNICO_ENDERECO": "191739529",
      "addr:housenumber": "21",
      "addr:postcode": "48604-564",
      "addr:street": "Travessa Nossa Senhora Aparecida",
      "addr:suburb": "Barroca",
      "building": "yes"
      },
      "geometry": {
         "type": "Point",
         "coordinates": [-38.2466561,-9.3721155]
      }
    },
    {
      "type": "Feature",
      "properties": { 
      "IBGE:COD_UNICO_ENDERECO": "191739673",
      "addr:housenumber": "37",
      "addr:postcode": "48604-710",
      "addr:street": "Travessa José Reinaldo de Sousa",
      "addr:suburb": "Barroca",
      "building": "yes"
      },
      "geometry": {
         "type": "Point",
         "coordinates": [-38.2458811,-9.3710888]
      }
    },
    {
      "type": "Feature",
      "properties": { 
      "IBGE:COD_UNICO_ENDERECO": "97766998",
      "addr:housenumber": "17",
      "addr:postcode": "48604-710",
      "addr:street": "Rua José Reinaldo de Sousa",
      "addr:suburb": "Barroca",
      "building": "yes",
      "fixme": "Verificar coordenadas",
      "note": "Sem dados para mover para dentro da quadra 0500-0234P-2-16"
      },
      "geometry": {
         "type": "Point",
         "coordinates": [-38.2432231,-9.369646]
      }
    },
    {
      "type": "Feature",
      "properties": { 
      "IBGE:COD_UNICO_ENDERECO": "90500730",
      "addr:housenumber": "159 A",
      "addr:postcode": "48604-710",
      "addr:street": "Rua José Reinaldo de Sousa",
      "addr:suburb": "Barroca",
      "building": "yes",
      "fixme": "Verificar coordenadas",
      "note": "Sem dados para mover para dentro da quadra 0500-0234P-2-16"
      },
      "geometry": {
         "type": "Point",
         "coordinates": [-38.2428052,-9.3695419]
      }
    },
    {
      "type": "Feature",
      "properties": { 
      "IBGE:COD_UNICO_ENDERECO": "104593213",
      "addr:housenumber": "3",
      "addr:postcode": "48604-750",
      "addr:street": "Rua João Miguel de Lima",
      "addr:suburb": "Barroca",
      "building": "yes",
      "fixme": "Verificar coordenadas",
      "note": "Sem face no bayface do IBGE 0500-0234P-2-17"
      },
      "geometry": {
         "type": "Point",
         "coordinates": [-38.244239,-9.369761]
      }
    },
    {
      "type": "Feature",
      "properties": { 
      "IBGE:COD_UNICO_ENDERECO": "98343822",
      "addr:housenumber": "107",
      "addr:postcode": "48604-720",
      "addr:street": "Rua Araci",
      "addr:suburb": "Barroca",
      "amenity": "place_of_worship",
      "building": "yes",
      "fixme": "Verificar coordenadas",
      "name": "Egbe Alaketu Ase O Akuera",
      "note": "Sem face no bayface do IBGE 0500-0234P-2-24"
      },
      "geometry": {
         "type": "Point",
         "coordinates": [-38.245684,-9.368986]
      }
    },
    {
      "type": "Feature",
      "properties": { 
      "IBGE:COD_UNICO_ENDERECO": "27468209",
      "addr:housenumber": "36",
      "addr:postcode": "48604-730",
      "addr:street": "Rua Dias D Ávila",
      "addr:suburb": "Barroca",
      "building": "construction"
      },
      "geometry": {
         "type": "Point",
         "coordinates": [-38.2442604,-9.3713735]
      }
    },
    {
      "type": "Feature",
      "properties": { 
      "IBGE:COD_UNICO_ENDERECO": "191740088",
      "addr:housenumber": "51",
      "addr:postcode": "48604-730",
      "addr:street": "Travessa Dias Dávila",
      "addr:suburb": "Barroca",
      "building": "yes"
      },
      "geometry": {
         "type": "Point",
         "coordinates": [-38.2445502,-9.3705274]
      }
    },
    {
      "type": "Feature",
      "properties": { 
      "IBGE:COD_UNICO_ENDERECO": "97767191",
      "addr:housenumber": "14",
      "addr:postcode": "48604-796",
      "addr:street": "Rua Craibeira",
      "addr:suburb": "Barroca",
      "addr:unit": "Quadra L",
      "building": "yes"
      },
      "geometry": {
         "type": "Point",
         "coordinates": [-38.2376489,-9.3710872]
      }
    },
    {
      "type": "Feature",
      "properties": { 
      "IBGE:COD_UNICO_ENDERECO": "97767210",
      "addr:housenumber": "4",
      "addr:postcode": "48604-796",
      "addr:street": "Rua Craibeira",
      "addr:suburb": "Barroca",
      "addr:unit": "Quadra M",
      "building": "yes"
      },
      "geometry": {
         "type": "Point",
         "coordinates": [-38.2374675,-9.3712846]
      }
    },
    {
      "type": "Feature",
      "properties": { 
      "IBGE:COD_UNICO_ENDERECO": "27468117",
      "addr:housenumber": "7",
      "addr:postcode": "48604-564",
      "addr:street": "Travessa Nossa Senhora Aparecida",
      "addr:suburb": "Barroca",
      "building": "yes"
      },
      "geometry": {
         "type": "Point",
         "coordinates": [-38.2464412,-9.3724925]
      }
    },
    {
      "type": "Feature",
      "properties": { 
      "IBGE:COD_UNICO_ENDERECO": "97767120",
      "addr:housenumber": "25",
      "addr:postcode": "48604-794",
      "addr:street": "Rua Jacarandá",
      "addr:suburb": "Barroca",
      "addr:unit": "Quadra G",
      "building": "yes"
      },
      "geometry": {
         "type": "Point",
         "coordinates": [-38.2380356,-9.3714213]
      }
    },
    {
      "type": "Feature",
      "properties": { 
      "IBGE:COD_UNICO_ENDERECO": "97766960",
      "addr:housenumber": "1000",
      "addr:postcode": "48604-796",
      "addr:suburb": "Barroca",
      "building": "yes",
      "fixme": "Verificar coordenadas",
      "note": "Sem face no bayface do IBGE 0500-0234P-2-7"
      },
      "geometry": {
         "type": "Point",
         "coordinates": [-38.2367,-9.370717]
      }
    },
    {
      "type": "Feature",
      "properties": { 
      "IBGE:COD_UNICO_ENDERECO": "90500887",
      "addr:housenumber": "10",
      "addr:postcode": "48604-790",
      "addr:street": "Rua Luís Gonzaga",
      "addr:suburb": "Barroca",
      "building": "yes"
      },
      "geometry": {
         "type": "Point",
         "coordinates": [-38.2424224,-9.3694894]
      }
    },
    {
      "type": "Feature",
      "properties": { 
      "IBGE:COD_UNICO_ENDERECO": "27422153",
      "addr:housenumber": "42",
      "addr:postcode": "48604-710",
      "addr:street": "Rua José Reinaldo de Sousa",
      "addr:suburb": "Barroca",
      "building": "yes"
      },
      "geometry": {
         "type": "Point",
         "coordinates": [-38.2485216,-9.372032]
      }
    },
    {
      "type": "Feature",
      "properties": { 
      "IBGE:COD_UNICO_ENDERECO": "90500751",
      "addr:housenumber": "41",
      "addr:postcode": "48604-750",
      "addr:street": "Rua João Miguel de Lima",
      "addr:suburb": "Barroca",
      "building": "yes"
      },
      "geometry": {
         "type": "Point",
         "coordinates": [-38.2442643,-9.3688448]
      }
    },
    {
      "type": "Feature",
      "properties": { 
      "IBGE:COD_UNICO_ENDERECO": "90500818",
      "addr:housenumber": "15",
      "addr:postcode": "48604-740",
      "addr:street": "Rua Alvorada",
      "addr:suburb": "Barroca",
      "building": "yes"
      },
      "geometry": {
         "type": "Point",
         "coordinates": [-38.246317,-9.3699581]
      }
    },
    {
      "type": "Feature",
      "properties": { 
      "IBGE:COD_UNICO_ENDERECO": "90500725",
      "addr:housenumber": "30",
      "addr:postcode": "48604-760",
      "addr:street": "Rua Paraíba",
      "addr:suburb": "Barroca",
      "addr:unit": "B Coelb",
      "building": "yes",
      "fixme": "Verificar coordenadas",
      "note": "Sem face no bayface do IBGE 0500-0234P-2-15"
      },
      "geometry": {
         "type": "Point",
         "coordinates": [-38.242831,-9.369322]
      }
    },
    {
      "type": "Feature",
      "properties": { 
      "IBGE:COD_UNICO_ENDERECO": "97767195;97767199",
      "addr:housenumber": "10",
      "addr:postcode": "48604-796",
      "addr:street": "Rua Craibeira",
      "addr:suburb": "Barroca",
      "addr:unit": "Quadra L",
      "building": "yes"
      },
      "geometry": {
         "type": "Point",
         "coordinates": [-38.2379607,-9.3707769]
      }
    },
    {
      "type": "Feature",
      "properties": { 
      "IBGE:COD_UNICO_ENDERECO": "90500740-90500743",
      "addr:housenumber": "1",
      "addr:postcode": "48604-750",
      "addr:street": "Rua João Miguel de Lima",
      "addr:suburb": "Barroca",
      "building": "yes",
      "fixme": "Verificar coordenadas",
      "note": "Sem face no bayface do IBGE 0500-0234P-2-17"
      },
      "geometry": {
         "type": "Point",
         "coordinates": [-38.2439573,-9.367918]
      }
    },
    {
      "type": "Feature",
      "properties": { 
      "IBGE:COD_UNICO_ENDERECO": "191745683",
      "addr:housenumber": "28",
      "addr:postcode": "48604-790",
      "addr:suburb": "Barroca",
      "building": "yes"
      },
      "geometry": {
         "type": "Point",
         "coordinates": [-38.2410872,-9.3690411]
      }
    },
    {
      "type": "Feature",
      "properties": { 
      "IBGE:COD_UNICO_ENDERECO": "90500795",
      "addr:housenumber": "436",
      "addr:postcode": "48604-740",
      "addr:street": "Rua da Igreja",
      "addr:suburb": "Barroca",
      "building": "yes"
      },
      "geometry": {
         "type": "Point",
         "coordinates": [-38.2468238,-9.3689883]
      }
    },
    {
      "type": "Feature",
      "properties": { 
      "IBGE:COD_UNICO_ENDERECO": "90500846",
      "addr:housenumber": "13",
      "addr:postcode": "48604-710",
      "addr:street": "Rua José Reinaldo de Sousa",
      "addr:suburb": "Barroca",
      "building": "yes"
      },
      "geometry": {
         "type": "Point",
         "coordinates": [-38.2479578,-9.3715586]
      }
    },
    {
      "type": "Feature",
      "properties": { 
      "IBGE:COD_UNICO_ENDERECO": "27422197",
      "addr:housenumber": "138",
      "addr:postcode": "48604-700",
      "addr:suburb": "Barroca",
      "building": "yes"
      },
      "geometry": {
         "type": "Point",
         "coordinates": [-38.24574,-9.3751005]
      }
    },
    {
      "type": "Feature",
      "properties": { 
      "IBGE:COD_UNICO_ENDERECO": "191740625",
      "addr:housenumber": "115 B",
      "addr:postcode": "48604-780",
      "addr:street": "Rua Inhapi",
      "addr:suburb": "Barroca",
      "building": "yes",
      "fixme": "Verificar coordenadas",
      "note": "Sem face no bayface do IBGE 0500-0159P-8-24"
      },
      "geometry": {
         "type": "Point",
         "coordinates": [-38.239562,-9.370199]
      }
    },
    {
      "type": "Feature",
      "properties": { 
      "IBGE:COD_UNICO_ENDERECO": "90500721",
      "addr:housenumber": "70",
      "addr:postcode": "48604-760",
      "addr:street": "Rua Paraíba",
      "addr:suburb": "Barroca",
      "building": "yes",
      "fixme": "Verificar coordenadas",
      "note": "Sem face no bayface do IBGE 0500-0234P-2-15"
      },
      "geometry": {
         "type": "Point",
         "coordinates": [-38.242834,-9.369199]
      }
    },
    {
      "type": "Feature",
      "properties": { 
      "IBGE:COD_UNICO_ENDERECO": "27468201",
      "addr:housenumber": "23",
      "addr:postcode": "48604-730",
      "addr:street": "Rua Dias D Ávila",
      "addr:suburb": "Barroca",
      "building": "yes",
      "craft": "electronics_repair",
      "name": "Eletrônica Jc"
      },
      "geometry": {
         "type": "Point",
         "coordinates": [-38.244001855836,-9.3706548616562]
      }
    },
    {
      "type": "Feature",
      "properties": { 
      "IBGE:COD_UNICO_ENDERECO": "99118915",
      "addr:housenumber": "339",
      "addr:postcode": "48604-796",
      "addr:suburb": "Barroca",
      "addr:unit": "Casa",
      "building": "yes",
      "fixme": "Verificar coordenadas",
      "note": "Sem face no bayface do IBGE 0500-0234P-2-8"
      },
      "geometry": {
         "type": "Point",
         "coordinates": [-38.238567,-9.370492]
      }
    },
    {
      "type": "Feature",
      "properties": { 
      "IBGE:COD_UNICO_ENDERECO": "90500707",
      "addr:housenumber": "6",
      "addr:postcode": "48604-790",
      "addr:street": "Rua Santa Bárbara",
      "addr:suburb": "Barroca",
      "addr:unit": "Casa 3",
      "building": "yes",
      "fixme": "Verificar coordenadas",
      "note": "Sem dados para mover para dentro da quadra 0500-0234P-2-13"
      },
      "geometry": {
         "type": "Point",
         "coordinates": [-38.2424123,-9.3693409]
      }
    },
    {
      "type": "Feature",
      "properties": { 
      "IBGE:COD_UNICO_ENDERECO": "90500881",
      "addr:housenumber": "180",
      "addr:postcode": "48604-790",
      "addr:street": "Rua Luís Gonzaga",
      "addr:suburb": "Barroca",
      "addr:unit": "A Coelb",
      "building": "yes"
      },
      "geometry": {
         "type": "Point",
         "coordinates": [-38.2418133,-9.3694255]
      }
    },
    {
      "type": "Feature",
      "properties": { 
      "IBGE:COD_UNICO_ENDERECO": "27468259",
      "addr:housenumber": "164",
      "addr:postcode": "48604-710",
      "addr:street": "Rua José Reinaldo de Sousa",
      "addr:suburb": "Barroca",
      "building": "yes"
      },
      "geometry": {
         "type": "Point",
         "coordinates": [-38.242757,-9.3696557]
      }
    },
    {
      "type": "Feature",
      "properties": { 
      "IBGE:COD_UNICO_ENDERECO": "191740281",
      "addr:housenumber": "197",
      "addr:postcode": "48604-780",
      "addr:suburb": "Barroca",
      "building": "yes"
      },
      "geometry": {
         "type": "Point",
         "coordinates": [-38.241828,-9.3703698]
      }
    },
    {
      "type": "Feature",
      "properties": { 
      "IBGE:COD_UNICO_ENDERECO": "90500824",
      "addr:housenumber": "295",
      "addr:postcode": "48604-720",
      "addr:street": "Rua Araci",
      "addr:suburb": "Barroca",
      "building": "yes"
      },
      "geometry": {
         "type": "Point",
         "coordinates": [-38.2457498,-9.3698857]
      }
    },
    {
      "type": "Feature",
      "properties": { 
      "IBGE:COD_UNICO_ENDERECO": "97767164",
      "addr:housenumber": "28",
      "addr:postcode": "48604-794",
      "addr:street": "Rua Jacarandá",
      "addr:suburb": "Barroca",
      "addr:unit": "Quadra I",
      "building": "yes"
      },
      "geometry": {
         "type": "Point",
         "coordinates": [-38.2379932,-9.3712288]
      }
    },
    {
      "type": "Feature",
      "properties": { 
      "IBGE:COD_UNICO_ENDERECO": "191740664",
      "addr:housenumber": "38",
      "addr:postcode": "48604-780",
      "addr:street": "Rua Inhapi",
      "addr:suburb": "Barroca",
      "building": "yes",
      "fixme": "Verificar coordenadas",
      "note": "Sem face no bayface do IBGE 0500-0159P-8-27"
      },
      "geometry": {
         "type": "Point",
         "coordinates": [-38.240031,-9.370234]
      }
    },
    {
      "type": "Feature",
      "properties": { 
      "IBGE:COD_UNICO_ENDERECO": "97767069",
      "addr:housenumber": "9",
      "addr:postcode": "48604-786",
      "addr:street": "Rua Cedro",
      "addr:suburb": "Barroca",
      "addr:unit": "Quadra D",
      "building": "yes"
      },
      "geometry": {
         "type": "Point",
         "coordinates": [-38.2387435,-9.3721154]
      }
    },
    {
      "type": "Feature",
      "properties": { 
      "IBGE:COD_UNICO_ENDERECO": "90500837",
      "addr:housenumber": "484",
      "addr:postcode": "48604-710",
      "addr:street": "Rua José Reinaldo de Sousa",
      "addr:suburb": "Barroca",
      "building": "yes"
      },
      "geometry": {
         "type": "Point",
         "coordinates": [-38.2463922,-9.3705882]
      }
    },
    {
      "type": "Feature",
      "properties": { 
      "IBGE:COD_UNICO_ENDERECO": "191740619",
      "addr:housenumber": "26",
      "addr:postcode": "48604-780",
      "addr:suburb": "Barroca",
      "building": "yes",
      "fixme": "Verificar coordenadas",
      "note": "Sem face no bayface do IBGE 0500-0159P-8-23"
      },
      "geometry": {
         "type": "Point",
         "coordinates": [-38.239421,-9.370274]
      }
    },
    {
      "type": "Feature",
      "properties": { 
      "IBGE:COD_UNICO_ENDERECO": "191740700",
      "addr:housenumber": "225",
      "addr:postcode": "48604-780",
      "addr:suburb": "Barroca",
      "building": "yes",
      "fixme": "Verificar coordenadas",
      "note": "Sem face no bayface do IBGE 0500-0159P-8-31"
      },
      "geometry": {
         "type": "Point",
         "coordinates": [-38.239685,-9.369766]
      }
    },
    {
      "type": "Feature",
      "properties": { 
      "IBGE:COD_UNICO_ENDERECO": "27422216",
      "addr:housenumber": "143",
      "addr:postcode": "48604-700",
      "addr:street": "Rua Pedra Comprida Parte 3",
      "addr:suburb": "Barroca",
      "building": "yes"
      },
      "geometry": {
         "type": "Point",
         "coordinates": [-38.2450232,-9.375023]
      }
    },
    {
      "type": "Feature",
      "properties": { 
      "IBGE:COD_UNICO_ENDERECO": "191740607",
      "addr:housenumber": "8",
      "addr:postcode": "48604-780",
      "addr:street": "Rua Inhapi",
      "addr:suburb": "Barroca",
      "building": "yes",
      "fixme": "Verificar coordenadas",
      "note": "Sem face no bayface do IBGE 0500-0159P-8-21"
      },
      "geometry": {
         "type": "Point",
         "coordinates": [-38.239126,-9.370672]
      }
    },
    {
      "type": "Feature",
      "properties": { 
      "IBGE:COD_UNICO_ENDERECO": "27468224",
      "addr:housenumber": "30",
      "addr:postcode": "48604-720",
      "addr:street": "Rua Araci",
      "addr:suburb": "Barroca",
      "building": "yes"
      },
      "geometry": {
         "type": "Point",
         "coordinates": [-38.2443587,-9.3718652]
      }
    },
    {
      "type": "Feature",
      "properties": { 
      "IBGE:COD_UNICO_ENDERECO": "191740177",
      "addr:housenumber": "42",
      "addr:postcode": "48604-730",
      "addr:street": "Rua Dias D Ávila",
      "addr:suburb": "Barroca",
      "building": "yes"
      },
      "geometry": {
         "type": "Point",
         "coordinates": [-38.2438583,-9.3706044]
      }
    },
    {
      "type": "Feature",
      "properties": { 
      "IBGE:COD_UNICO_ENDERECO": "191740104",
      "addr:housenumber": "5",
      "addr:postcode": "48604-730",
      "addr:street": "Travessa Dias Dávila",
      "addr:suburb": "Barroca",
      "building": "yes"
      },
      "geometry": {
         "type": "Point",
         "coordinates": [-38.2446157,-9.3707833]
      }
    },
    {
      "type": "Feature",
      "properties": { 
      "IBGE:COD_UNICO_ENDERECO": "97767092",
      "addr:housenumber": "9",
      "addr:postcode": "48604-788",
      "addr:street": "Rua Angico",
      "addr:suburb": "Barroca",
      "addr:unit": "Quadra F",
      "building": "yes"
      },
      "geometry": {
         "type": "Point",
         "coordinates": [-38.2387177,-9.3717211]
      }
    },
    {
      "type": "Feature",
      "properties": { 
      "IBGE:COD_UNICO_ENDERECO": "191740351",
      "addr:housenumber": "109",
      "addr:postcode": "48604-564",
      "addr:street": "Rua Nossa Senhora Aparecida",
      "addr:suburb": "Barroca",
      "building": "yes"
      },
      "geometry": {
         "type": "Point",
         "coordinates": [-38.2434402,-9.3719927]
      }
    },
    {
      "type": "Feature",
      "properties": { 
      "IBGE:COD_UNICO_ENDERECO": "191739705",
      "addr:housenumber": "26",
      "addr:postcode": "48604-725",
      "addr:street": "Travessa Araci",
      "addr:suburb": "Barroca",
      "building": "yes"
      },
      "geometry": {
         "type": "Point",
         "coordinates": [-38.2456696,-9.3713841]
      }
    },
    {
      "type": "Feature",
      "properties": { 
      "IBGE:COD_UNICO_ENDERECO": "27468299",
      "addr:housenumber": "656",
      "addr:postcode": "48604-564",
      "addr:street": "Rua Nossa Senhora Aparecida",
      "addr:suburb": "Barroca",
      "amenity": "place_of_worship",
      "building": "yes",
      "description": "CNEFE 2022 Indeterminado"
      },
      "geometry": {
         "type": "Point",
         "coordinates": [-38.2414338,-9.3723345]
      }
    },
    {
      "type": "Feature",
      "properties": { 
      "IBGE:COD_UNICO_ENDERECO": "27468152",
      "addr:housenumber": "148",
      "addr:postcode": "48604-720",
      "addr:street": "Rua Araci",
      "addr:suburb": "Barroca",
      "building": "yes"
      },
      "geometry": {
         "type": "Point",
         "coordinates": [-38.2450613,-9.3709714]
      }
    },
    {
      "type": "Feature",
      "properties": { 
      "IBGE:COD_UNICO_ENDERECO": "90500739",
      "addr:housenumber": "26",
      "addr:postcode": "48604-750",
      "addr:street": "Rua João Miguel de Lima",
      "addr:suburb": "Barroca",
      "building": "yes",
      "fixme": "Verificar coordenadas",
      "note": "Sem face no bayface do IBGE 0500-0234P-2-17"
      },
      "geometry": {
         "type": "Point",
         "coordinates": [-38.243982,-9.368259]
      }
    },
    {
      "type": "Feature",
      "properties": { 
      "IBGE:COD_UNICO_ENDERECO": "97766979",
      "addr:housenumber": "177",
      "addr:postcode": "48604-740",
      "addr:street": "Rua Alvorada",
      "addr:suburb": "Barroca",
      "building": "yes"
      },
      "geometry": {
         "type": "Point",
         "coordinates": [-38.249234,-9.3704403]
      }
    },
    {
      "type": "Feature",
      "properties": { 
      "IBGE:COD_UNICO_ENDERECO": "191739492",
      "addr:housenumber": "90",
      "addr:postcode": "48604-700",
      "addr:street": "Travessa Pedra Comprida",
      "addr:suburb": "Barroca",
      "building": "yes"
      },
      "geometry": {
         "type": "Point",
         "coordinates": [-38.2466412,-9.3719679]
      }
    },
    {
      "type": "Feature",
      "properties": { 
      "IBGE:COD_UNICO_ENDERECO": "27468336",
      "addr:housenumber": "90",
      "addr:postcode": "48604-780",
      "addr:street": "Travessa Inhapi 2",
      "addr:suburb": "Barroca",
      "building": "yes",
      "fixme": "Verificar coordenadas",
      "note": "Sem face no bayface do IBGE 0500-0159P-8-1"
      },
      "geometry": {
         "type": "Point",
         "coordinates": [-38.24096,-9.371712]
      }
    },
    {
      "type": "Feature",
      "properties": { 
      "IBGE:COD_UNICO_ENDERECO": "191739355",
      "addr:housenumber": "36",
      "addr:postcode": "48604-710",
      "addr:street": "Travessa José Reinaldo de Sousa",
      "addr:suburb": "Barroca",
      "building": "yes"
      },
      "geometry": {
         "type": "Point",
         "coordinates": [-38.246055,-9.3710849]
      }
    },
    {
      "type": "Feature",
      "properties": { 
      "IBGE:COD_UNICO_ENDERECO": "27468280",
      "addr:housenumber": "30",
      "addr:postcode": "48604-780",
      "addr:suburb": "Barroca",
      "building": "yes"
      },
      "geometry": {
         "type": "Point",
         "coordinates": [-38.24184,-9.3704595]
      }
    },
    {
      "type": "Feature",
      "properties": { 
      "IBGE:COD_UNICO_ENDERECO": "90500772",
      "addr:housenumber": "96",
      "addr:postcode": "48604-720",
      "addr:street": "Rua Araci",
      "addr:suburb": "Barroca",
      "building": "yes"
      },
      "geometry": {
         "type": "Point",
         "coordinates": [-38.2457661,-9.3693619]
      }
    },
    {
      "type": "Feature",
      "properties": { 
      "IBGE:COD_UNICO_ENDERECO": "90500882",
      "addr:housenumber": "176",
      "addr:postcode": "48604-790",
      "addr:street": "Rua Luís Gonzaga",
      "addr:suburb": "Barroca",
      "building": "yes"
      },
      "geometry": {
         "type": "Point",
         "coordinates": [-38.2419296,-9.3694402]
      }
    },
    {
      "type": "Feature",
      "properties": { 
      "IBGE:COD_UNICO_ENDERECO": "27468393",
      "addr:housenumber": "808",
      "addr:postcode": "48604-790",
      "addr:street": "Rua Luís Gonzaga",
      "addr:suburb": "Barroca",
      "addr:unit": "Fundos Casa",
      "building": "yes",
      "fixme": "Verificar coordenadas",
      "note": "Fora da área de projeção da face 0500-0159P-10-1"
      },
      "geometry": {
         "type": "Point",
         "coordinates": [-38.239445,-9.369129]
      }
    },
    {
      "type": "Feature",
      "properties": { 
      "IBGE:COD_UNICO_ENDERECO": "99816989",
      "addr:housenumber": "270",
      "addr:postcode": "48604-790",
      "addr:street": "Rua Luís Gonzaga",
      "addr:suburb": "Barroca",
      "addr:unit": "Fundos",
      "building": "yes"
      },
      "geometry": {
         "type": "Point",
         "coordinates": [-38.2403967,-9.369254]
      }
    },
    {
      "type": "Feature",
      "properties": { 
      "IBGE:COD_UNICO_ENDERECO": "97767113",
      "addr:housenumber": "13",
      "addr:postcode": "48604-794",
      "addr:street": "Rua Jacarandá",
      "addr:suburb": "Barroca",
      "addr:unit": "Quadra G",
      "building": "yes"
      },
      "geometry": {
         "type": "Point",
         "coordinates": [-38.2384864,-9.371041]
      }
    },
    {
      "type": "Feature",
      "properties": { 
      "IBGE:COD_UNICO_ENDERECO": "90500890",
      "addr:housenumber": "18",
      "addr:postcode": "48604-790",
      "addr:street": "Rua Santa Bárbara",
      "addr:suburb": "Barroca",
      "building": "yes"
      },
      "geometry": {
         "type": "Point",
         "coordinates": [-38.2420588,-9.3693232]
      }
    },
    {
      "type": "Feature",
      "properties": { 
      "IBGE:COD_UNICO_ENDERECO": "191739640",
      "addr:housenumber": "18",
      "addr:postcode": "48604-725",
      "addr:street": "Travessa Araci",
      "addr:suburb": "Barroca",
      "building": "construction"
      },
      "geometry": {
         "type": "Point",
         "coordinates": [-38.2453216,-9.3711249]
      }
    },
    {
      "type": "Feature",
      "properties": { 
      "IBGE:COD_UNICO_ENDERECO": "90500819",
      "addr:housenumber": "300",
      "addr:postcode": "48604-740",
      "addr:street": "Rua Alvorada",
      "addr:suburb": "Barroca",
      "building": "yes"
      },
      "geometry": {
         "type": "Point",
         "coordinates": [-38.2462553,-9.369933]
      }
    },
    {
      "type": "Feature",
      "properties": { 
      "IBGE:COD_UNICO_ENDERECO": "90500746",
      "addr:housenumber": "10",
      "addr:postcode": "48604-750",
      "addr:street": "Rua João Miguel de Lima",
      "addr:suburb": "Barroca",
      "building": "yes",
      "fixme": "Verificar coordenadas",
      "note": "Sem face no bayface do IBGE 0500-0234P-2-17"
      },
      "geometry": {
         "type": "Point",
         "coordinates": [-38.245167,-9.367001]
      }
    },
    {
      "type": "Feature",
      "properties": { 
      "IBGE:COD_UNICO_ENDERECO": "90500771",
      "addr:housenumber": "55",
      "addr:postcode": "48604-720",
      "addr:street": "Rua Araci",
      "addr:suburb": "Barroca",
      "addr:unit": "A Coelb",
      "building": "yes"
      },
      "geometry": {
         "type": "Point",
         "coordinates": [-38.2458913,-9.3691372]
      }
    },
    {
      "type": "Feature",
      "properties": { 
      "IBGE:COD_UNICO_ENDERECO": "216431799",
      "addr:housenumber": "115",
      "addr:postcode": "48604-782",
      "addr:street": "Rua Baraúna",
      "addr:suburb": "Barroca",
      "building": "yes"
      },
      "geometry": {
         "type": "Point",
         "coordinates": [-38.238649,-9.3728146]
      }
    },
    {
      "type": "Feature",
      "properties": { 
      "IBGE:COD_UNICO_ENDERECO": "191739851",
      "addr:housenumber": "31",
      "addr:postcode": "48604-720",
      "addr:street": "Rua Araci",
      "addr:suburb": "Barroca",
      "building": "yes"
      },
      "geometry": {
         "type": "Point",
         "coordinates": [-38.2446992,-9.3716009]
      }
    },
    {
      "type": "Feature",
      "properties": { 
      "IBGE:COD_UNICO_ENDERECO": "27468240-27468241",
      "addr:housenumber": "43",
      "addr:postcode": "48604-730",
      "addr:street": "Rua Dias D Ávila",
      "addr:suburb": "Barroca",
      "building": "yes"
      },
      "geometry": {
         "type": "Point",
         "coordinates": [-38.2438041,-9.3708273]
      }
    },
    {
      "type": "Feature",
      "properties": { 
      "IBGE:COD_UNICO_ENDERECO": "90500766",
      "addr:housenumber": "49",
      "addr:postcode": "48604-720",
      "addr:street": "Rua Araci",
      "addr:suburb": "Barroca",
      "building": "yes"
      },
      "geometry": {
         "type": "Point",
         "coordinates": [-38.2457169,-9.3695099]
      }
    },
    {
      "type": "Feature",
      "properties": { 
      "IBGE:COD_UNICO_ENDERECO": "191740091",
      "addr:housenumber": "50",
      "addr:postcode": "48604-730",
      "addr:street": "Travessa Dias Dávila",
      "addr:suburb": "Barroca",
      "building": "yes"
      },
      "geometry": {
         "type": "Point",
         "coordinates": [-38.2445465,-9.3705256]
      }
    },
    {
      "type": "Feature",
      "properties": { 
      "IBGE:COD_UNICO_ENDERECO": "97767007",
      "addr:housenumber": "6",
      "addr:postcode": "48604-782",
      "addr:street": "Rua Baraúna",
      "addr:suburb": "Barroca",
      "addr:unit": "Quadra A",
      "building": "yes",
      "name": "Mercadinho Oliveira",
      "shop": "convenience"
      },
      "geometry": {
         "type": "Point",
         "coordinates": [-38.2387793,-9.3729757]
      }
    },
    {
      "type": "Feature",
      "properties": { 
      "IBGE:COD_UNICO_ENDERECO": "191739387",
      "addr:housenumber": "99",
      "addr:postcode": "48604-710",
      "addr:street": "Travessa Mazzaropi",
      "addr:suburb": "Barroca",
      "building": "yes"
      },
      "geometry": {
         "type": "Point",
         "coordinates": [-38.246073,-9.3718064]
      }
    },
    {
      "type": "Feature",
      "properties": { 
      "IBGE:COD_UNICO_ENDERECO": "191740259",
      "addr:housenumber": "129",
      "addr:postcode": "48604-780",
      "addr:suburb": "Barroca",
      "building": "yes"
      },
      "geometry": {
         "type": "Point",
         "coordinates": [-38.2419814,-9.3704115]
      }
    },
    {
      "type": "Feature",
      "properties": { 
      "IBGE:COD_UNICO_ENDERECO": "104593220",
      "addr:housenumber": "34",
      "addr:postcode": "48604-740",
      "addr:street": "Rua Alvorada",
      "addr:suburb": "Barroca",
      "building": "yes",
      "fixme": "Verificar coordenadas",
      "note": "Fora da área de projeção da face 0500-0234P-2-33"
      },
      "geometry": {
         "type": "Point",
         "coordinates": [-38.247965,-9.370074]
      }
    },
    {
      "type": "Feature",
      "properties": { 
      "IBGE:COD_UNICO_ENDERECO": "90500906",
      "addr:housenumber": "260",
      "addr:postcode": "48604-790",
      "addr:street": "Rua Luís Gonzaga",
      "addr:suburb": "Barroca",
      "addr:unit": "B Coelb",
      "building": "yes"
      },
      "geometry": {
         "type": "Point",
         "coordinates": [-38.2409725,-9.3694378]
      }
    },
    {
      "type": "Feature",
      "properties": { 
      "IBGE:COD_UNICO_ENDERECO": "191740630",
      "addr:housenumber": "272",
      "addr:postcode": "48604-780",
      "addr:street": "Rua Inhapi",
      "addr:suburb": "Barroca",
      "building": "yes",
      "fixme": "Verificar coordenadas",
      "note": "Sem face no bayface do IBGE 0500-0159P-8-24"
      },
      "geometry": {
         "type": "Point",
         "coordinates": [-38.239623,-9.370058]
      }
    },
    {
      "type": "Feature",
      "properties": { 
      "IBGE:COD_UNICO_ENDERECO": "98343820",
      "addr:housenumber": "108",
      "addr:postcode": "48604-720",
      "addr:street": "Rua Araci",
      "addr:suburb": "Barroca",
      "building": "yes",
      "fixme": "Verificar coordenadas",
      "note": "Sem face no bayface do IBGE 0500-0234P-2-24"
      },
      "geometry": {
         "type": "Point",
         "coordinates": [-38.245798,-9.369]
      }
    },
    {
      "type": "Feature",
      "properties": { 
      "IBGE:COD_UNICO_ENDERECO": "27422268",
      "addr:housenumber": "12",
      "addr:postcode": "48604-700",
      "addr:street": "Caminho da Pedra Comprida",
      "addr:suburb": "Barroca",
      "building": "yes",
      "fixme": "Verificar coordenadas",
      "note": "Sem face no bayface do IBGE 0500-0191P-15-9"
      },
      "geometry": {
         "type": "Point",
         "coordinates": [-38.243874,-9.376408]
      }
    },
    {
      "type": "Feature",
      "properties": { 
      "IBGE:COD_UNICO_ENDERECO": "27422261",
      "addr:housenumber": "127",
      "addr:postcode": "48604-700",
      "addr:suburb": "Barroca",
      "building": "yes"
      },
      "geometry": {
         "type": "Point",
         "coordinates": [-38.2459996,-9.375205]
      }
    },
    {
      "type": "Feature",
      "properties": { 
      "IBGE:COD_UNICO_ENDERECO": "27468150",
      "addr:housenumber": "11",
      "addr:postcode": "48604-720",
      "addr:street": "Rua Araci",
      "addr:suburb": "Barroca",
      "addr:unit": "Casa",
      "building": "yes"
      },
      "geometry": {
         "type": "Point",
         "coordinates": [-38.2452367,-9.370679]
      }
    },
    {
      "type": "Feature",
      "properties": { 
      "IBGE:COD_UNICO_ENDERECO": "97766978",
      "addr:housenumber": "28",
      "addr:postcode": "48604-740",
      "addr:street": "Rua Alvorada",
      "addr:suburb": "Barroca",
      "building": "yes",
      "fixme": "Verificar coordenadas",
      "note": "Sem dados para mover para dentro da quadra 0500-0234P-2-33"
      },
      "geometry": {
         "type": "Point",
         "coordinates": [-38.2484864,-9.3702598]
      }
    },
    {
      "type": "Feature",
      "properties": { 
      "IBGE:COD_UNICO_ENDERECO": "90500768",
      "addr:housenumber": "91",
      "addr:postcode": "48604-720",
      "addr:street": "Rua Araci",
      "addr:suburb": "Barroca",
      "building": "yes"
      },
      "geometry": {
         "type": "Point",
         "coordinates": [-38.2458019,-9.3693006]
      }
    },
    {
      "type": "Feature",
      "properties": { 
      "IBGE:COD_UNICO_ENDERECO": "97767066",
      "addr:housenumber": "3",
      "addr:postcode": "48604-786",
      "addr:street": "Rua Cedro",
      "addr:suburb": "Barroca",
      "addr:unit": "Quadra D",
      "building": "yes"
      },
      "geometry": {
         "type": "Point",
         "coordinates": [-38.2389434,-9.3719932]
      }
    },
    {
      "type": "Feature",
      "properties": { 
      "IBGE:COD_UNICO_ENDERECO": "97767084",
      "addr:housenumber": "4",
      "addr:postcode": "48604-784",
      "addr:street": "Rua Jequitibá",
      "addr:suburb": "Barroca",
      "addr:unit": "Quadra E",
      "building": "yes"
      },
      "geometry": {
         "type": "Point",
         "coordinates": [-38.2384275,-9.3725796]
      }
    },
    {
      "type": "Feature",
      "properties": { 
      "IBGE:COD_UNICO_ENDERECO": "90500907",
      "addr:housenumber": "12",
      "addr:postcode": "48604-790",
      "addr:suburb": "Barroca",
      "building": "yes"
      },
      "geometry": {
         "type": "Point",
         "coordinates": [-38.2409226,-9.3691615]
      }
    },
    {
      "type": "Feature",
      "properties": { 
      "IBGE:COD_UNICO_ENDERECO": "27468304",
      "addr:housenumber": "678",
      "addr:postcode": "48604-564",
      "addr:street": "Rua Nossa Senhora Aparecida",
      "addr:suburb": "Barroca",
      "building": "yes"
      },
      "geometry": {
         "type": "Point",
         "coordinates": [-38.2416907,-9.3723364]
      }
    },
    {
      "type": "Feature",
      "properties": { 
      "IBGE:COD_UNICO_ENDERECO": "27468170",
      "addr:housenumber": "45",
      "addr:postcode": "48604-720",
      "addr:street": "Rua Araci",
      "addr:suburb": "Barroca",
      "building": "yes"
      },
      "geometry": {
         "type": "Point",
         "coordinates": [-38.2447413,-9.3715012]
      }
    },
    {
      "type": "Feature",
      "properties": { 
      "IBGE:COD_UNICO_ENDERECO": "27468277",
      "addr:housenumber": "28",
      "addr:postcode": "48604-780",
      "addr:suburb": "Barroca",
      "building": "yes"
      },
      "geometry": {
         "type": "Point",
         "coordinates": [-38.2418402,-9.3704943]
      }
    },
    {
      "type": "Feature",
      "properties": { 
      "IBGE:COD_UNICO_ENDERECO": "90500812",
      "addr:housenumber": "400",
      "addr:postcode": "48604-740",
      "addr:street": "Rua Alvorada",
      "addr:suburb": "Barroca",
      "building": "yes",
      "fixme": "Verificar coordenadas",
      "note": "Sem dados para mover para dentro da quadra 0500-0234P-2-28"
      },
      "geometry": {
         "type": "Point",
         "coordinates": [-38.246864,-9.3700179]
      }
    },
    {
      "type": "Feature",
      "properties": { 
      "IBGE:COD_UNICO_ENDERECO": "191740532",
      "addr:housenumber": "8",
      "addr:postcode": "48604-790",
      "addr:street": "Rua Carolina Rosa",
      "addr:suburb": "Barroca",
      "building": "yes"
      },
      "geometry": {
         "type": "Point",
         "coordinates": [-38.2394549,-9.3717311]
      }
    },
    {
      "type": "Feature",
      "properties": { 
      "IBGE:COD_UNICO_ENDERECO": "27468236",
      "addr:housenumber": "35 C",
      "addr:postcode": "48604-730",
      "addr:street": "Rua Dias D Ávila",
      "addr:suburb": "Barroca",
      "addr:unit": "Casa",
      "building": "yes"
      },
      "geometry": {
         "type": "Point",
         "coordinates": [-38.2439055,-9.3712091]
      }
    },
    {
      "type": "Feature",
      "properties": { 
      "IBGE:COD_UNICO_ENDERECO": "90500857",
      "addr:housenumber": "29",
      "addr:postcode": "48604-740",
      "addr:street": "Rua Alvorada",
      "addr:suburb": "Barroca",
      "building": "yes",
      "fixme": "Verificar coordenadas",
      "note": "Sem dados para mover para dentro da quadra 0500-0234P-2-33"
      },
      "geometry": {
         "type": "Point",
         "coordinates": [-38.2485097,-9.3702692]
      }
    },