{
  "type": "FeatureCollection",
  "source": "IBGE CNEFE + Faces de Logradouros - 2022",
  "generator": "CSV-CNEFE2GeoJSON.lua 1.5.7 - fidelis.assis@gmail.com",
  "date": "2025-02-02T09:05:12-0300",
  "features": [
    {
      "type": "Feature",
      "properties": { 
      "IBGE:COD_UNICO_ENDERECO": "27420892",
      "addr:housenumber": "1125 C",
      "addr:postcode": "48609-140",
      "addr:street": "Rua Padre Lourenço",
      "addr:suburb": "Btn 2",
      "building": "yes"
      },
      "geometry": {
         "type": "Point",
         "coordinates": [-38.2120231,-9.4391231]
      }
    },
    {
      "type": "Feature",
      "properties": { 
      "IBGE:COD_UNICO_ENDERECO": "27368773",
      "addr:housenumber": "1512",
      "addr:postcode": "48609-325",
      "addr:street": "Avenida Delmiro Gouveia",
      "addr:suburb": "Btn 2",
      "building": "yes"
      },
      "geometry": {
         "type": "Point",
         "coordinates": [-38.2099641,-9.4372334]
      }
    },
    {
      "type": "Feature",
      "properties": { 
      "IBGE:COD_UNICO_ENDERECO": "27369862",
      "addr:housenumber": "1312",
      "addr:postcode": "48609-310",
      "addr:street": "Rua Chico Mendes",
      "addr:suburb": "Btn 2",
      "building": "yes"
      },
      "geometry": {
         "type": "Point",
         "coordinates": [-38.2100805,-9.4413831]
      }
    },
    {
      "type": "Feature",
      "properties": { 
      "IBGE:COD_UNICO_ENDERECO": "27356829",
      "addr:housenumber": "303 Frente",
      "addr:postcode": "48609-160",
      "addr:street": "Rua 7 de Setembro",
      "addr:suburb": "Btn 2",
      "building": "yes"
      },
      "geometry": {
         "type": "Point",
         "coordinates": [-38.2059771,-9.4380863]
      }
    },
    {
      "type": "Feature",
      "properties": { 
      "IBGE:COD_UNICO_ENDERECO": "191547864",
      "addr:housenumber": "21",
      "addr:postcode": "48609-140",
      "addr:street": "Rua Padre Lourenço",
      "addr:suburb": "Btn 2",
      "building": "yes"
      },
      "geometry": {
         "type": "Point",
         "coordinates": [-38.2048804,-9.4367972]
      }
    },
    {
      "type": "Feature",
      "properties": { 
      "IBGE:COD_UNICO_ENDERECO": "27420921",
      "addr:housenumber": "917",
      "addr:postcode": "48609-140",
      "addr:street": "Rua Padre Lourenço",
      "addr:suburb": "Btn 2",
      "building": "yes"
      },
      "geometry": {
         "type": "Point",
         "coordinates": [-38.2130036,-9.440729]
      }
    },
    {
      "type": "Feature",
      "properties": { 
      "IBGE:COD_UNICO_ENDERECO": "191548033",
      "addr:housenumber": "182 D",
      "addr:postcode": "48609-160",
      "addr:street": "Rua 7 de Setembro",
      "addr:suburb": "Btn 2",
      "building": "yes"
      },
      "geometry": {
         "type": "Point",
         "coordinates": [-38.2070052,-9.4386058]
      }
    },
    {
      "type": "Feature",
      "properties": { 
      "IBGE:COD_UNICO_ENDERECO": "27359632",
      "addr:housenumber": "485",
      "addr:postcode": "48609-124",
      "addr:street": "Avenida Delmiro Gouveia",
      "addr:suburb": "Btn 2",
      "building": "construction"
      },
      "geometry": {
         "type": "Point",
         "coordinates": [-38.2179247,-9.4438014]
      }
    },
    {
      "type": "Feature",
      "properties": { 
      "IBGE:COD_UNICO_ENDERECO": "27357244",
      "addr:housenumber": "28",
      "addr:postcode": "48609-070",
      "addr:street": "Rua Epitácio Pessoa",
      "addr:suburb": "Btn 2",
      "addr:unit": "Anexo Casa",
      "building": "yes",
      "fixme": "Verificar coordenadas",
      "note": "Sem face no bayface do IBGE 0500-0044P-6-5"
      },
      "geometry": {
         "type": "Point",
         "coordinates": [-38.212573,-9.434761]
      }
    },
    {
      "type": "Feature",
      "properties": { 
      "IBGE:COD_UNICO_ENDERECO": "27357139",
      "addr:housenumber": "1965",
      "addr:postcode": "48609-300",
      "addr:street": "Rua da Independência",
      "addr:suburb": "Btn 2",
      "building": "yes"
      },
      "geometry": {
         "type": "Point",
         "coordinates": [-38.2106322,-9.4361796]
      }
    },
    {
      "type": "Feature",
      "properties": { 
      "IBGE:COD_UNICO_ENDERECO": "27368728",
      "addr:housenumber": "1343",
      "addr:postcode": "48609-140",
      "addr:street": "Rua Padre Lourenço",
      "addr:suburb": "Btn 2",
      "building": "yes"
      },
      "geometry": {
         "type": "Point",
         "coordinates": [-38.2104705,-9.4379315]
      }
    },
    {
      "type": "Feature",
      "properties": { 
      "IBGE:COD_UNICO_ENDERECO": "27369770",
      "addr:housenumber": "984",
      "addr:postcode": "48609-180",
      "addr:street": "Rua Olavo Bilac I",
      "addr:suburb": "Btn 2",
      "building": "yes"
      },
      "geometry": {
         "type": "Point",
         "coordinates": [-38.2114927,-9.4403888]
      }
    },
    {
      "type": "Feature",
      "properties": { 
      "IBGE:COD_UNICO_ENDERECO": "27356784",
      "addr:housenumber": "177",
      "addr:postcode": "48609-160",
      "addr:street": "Rua 7 de Setembro",
      "addr:suburb": "Btn 2",
      "building": "yes"
      },
      "geometry": {
         "type": "Point",
         "coordinates": [-38.2071728,-9.4384864]
      }
    },
    {
      "type": "Feature",
      "properties": { 
      "IBGE:COD_UNICO_ENDERECO": "194560503",
      "addr:housenumber": "745",
      "addr:postcode": "48609-170",
      "addr:street": "Rua Osvaldo Cruz",
      "addr:suburb": "Btn 2",
      "building": "yes"
      },
      "geometry": {
         "type": "Point",
         "coordinates": [-38.2102598,-9.4428109]
      }
    },
    {
      "type": "Feature",
      "properties": { 
      "IBGE:COD_UNICO_ENDERECO": "108727946",
      "addr:housenumber": "901",
      "addr:postcode": "48609-140",
      "addr:street": "Rua Padre Lourenço",
      "addr:suburb": "Btn 2",
      "addr:unit": "Fundos B",
      "building": "yes"
      },
      "geometry": {
         "type": "Point",
         "coordinates": [-38.2132018,-9.4409396]
      }
    },
    {
      "type": "Feature",
      "properties": { 
      "IBGE:COD_UNICO_ENDERECO": "27356973",
      "addr:housenumber": "301",
      "addr:postcode": "48609-196",
      "addr:street": "Rua do Planalto",
      "addr:suburb": "Btn 2",
      "building": "yes"
      },
      "geometry": {
         "type": "Point",
         "coordinates": [-38.2091986,-9.4409181]
      }
    },
    {
      "type": "Feature",
      "properties": { 
      "IBGE:COD_UNICO_ENDERECO": "27420881",
      "addr:housenumber": "1207 B",
      "addr:postcode": "48609-140",
      "addr:street": "Rua Padre Lourenço",
      "addr:suburb": "Btn 2",
      "addr:unit": "Fundos",
      "building": "yes"
      },
      "geometry": {
         "type": "Point",
         "coordinates": [-38.2117146,-9.4385132]
      }
    },
    {
      "type": "Feature",
      "properties": { 
      "IBGE:COD_UNICO_ENDERECO": "27368774",
      "addr:housenumber": "1518",
      "addr:postcode": "48609-325",
      "addr:street": "Avenida Delmiro Gouveia",
      "addr:suburb": "Btn 2",
      "building": "construction"
      },
      "geometry": {
         "type": "Point",
         "coordinates": [-38.2100173,-9.4372329]
      }
    },
    {
      "type": "Feature",
      "properties": { 
      "IBGE:COD_UNICO_ENDERECO": "27370000",
      "addr:housenumber": "383",
      "addr:postcode": "48609-230",
      "addr:street": "Rua Raso da Catarina",
      "addr:suburb": "Btn 2",
      "building": "yes"
      },
      "geometry": {
         "type": "Point",
         "coordinates": [-38.210762,-9.441734]
      }
    },
    {
      "type": "Feature",
      "properties": { 
      "IBGE:COD_UNICO_ENDERECO": "108727968",
      "addr:housenumber": "1098",
      "addr:postcode": "48609-140",
      "addr:street": "Rua Padre Lourenço",
      "addr:suburb": "Btn 2",
      "building": "yes",
      "name": "Stillus Móveis",
      "shop": "furniture"
      },
      "geometry": {
         "type": "Point",
         "coordinates": [-38.2126297,-9.4404147]
      }
    },
    {
      "type": "Feature",
      "properties": { 
      "IBGE:COD_UNICO_ENDERECO": "27369945",
      "addr:housenumber": "1245",
      "addr:postcode": "48609-310",
      "addr:street": "Rua Chico Mendes",
      "addr:suburb": "Btn 2",
      "building": "yes"
      },
      "geometry": {
         "type": "Point",
         "coordinates": [-38.2102501,-9.4410366]
      }
    },
    {
      "type": "Feature",
      "properties": { 
      "IBGE:COD_UNICO_ENDERECO": "194560492",
      "addr:housenumber": "811",
      "addr:postcode": "48609-170",
      "addr:street": "Rua Osvaldo Cruz",
      "addr:suburb": "Btn 2",
      "building": "yes",
      "fixme": "Confirmar nome",
      "name": "Salão de Beleza sem Nome",
      "shop": "beauty;hairdresser"
      },
      "geometry": {
         "type": "Point",
         "coordinates": [-38.2099217,-9.4423135]
      }
    },
    {
      "type": "Feature",
      "properties": { 
      "IBGE:COD_UNICO_ENDERECO": "191392308",
      "addr:housenumber": "974",
      "addr:postcode": "48609-116",
      "addr:street": "Rua Nova",
      "addr:suburb": "Btn 2",
      "building": "yes"
      },
      "geometry": {
         "type": "Point",
         "coordinates": [-38.2094153,-9.4350922]
      }
    },
    {
      "type": "Feature",
      "properties": { 
      "IBGE:COD_UNICO_ENDERECO": "27359552",
      "addr:housenumber": "74",
      "addr:postcode": "48609-340",
      "addr:street": "Rua Riacho Seco",
      "addr:suburb": "Btn 2",
      "building": "yes"
      },
      "geometry": {
         "type": "Point",
         "coordinates": [-38.2178862,-9.4427291]
      }
    },
    {
      "type": "Feature",
      "properties": { 
      "IBGE:COD_UNICO_ENDERECO": "27359570-27359571",
      "addr:housenumber": "63",
      "addr:postcode": "48609-116",
      "addr:street": "Rua Nova",
      "addr:suburb": "Btn 2",
      "building": "yes"
      },
      "geometry": {
         "type": "Point",
         "coordinates": [-38.2172445,-9.4426616]
      }
    },
    {
      "type": "Feature",
      "properties": { 
      "IBGE:COD_UNICO_ENDERECO": "27369884",
      "addr:housenumber": "262",
      "addr:postcode": "48609-172",
      "addr:street": "Rua Senhor do Bonfim",
      "addr:suburb": "Btn 2",
      "building": "yes"
      },
      "geometry": {
         "type": "Point",
         "coordinates": [-38.2099029,-9.4405794]
      }
    },
    {
      "type": "Feature",
      "properties": { 
      "IBGE:COD_UNICO_ENDERECO": "27368951",
      "addr:housenumber": "1973",
      "addr:postcode": "48609-325",
      "addr:street": "Avenida Delmiro Gouveia",
      "addr:suburb": "Btn 2",
      "building": "yes"
      },
      "geometry": {
         "type": "Point",
         "coordinates": [-38.2066478,-9.436753]
      }
    },
    {
      "type": "Feature",
      "properties": { 
      "IBGE:COD_UNICO_ENDERECO": "27368776",
      "addr:housenumber": "1528",
      "addr:postcode": "48609-325",
      "addr:street": "Avenida Delmiro Gouveia",
      "addr:suburb": "Btn 2",
      "addr:unit": "Garagem",
      "disused:building": "yes",
      "old_name": "Fechada"
      },
      "geometry": {
         "type": "Point",
         "coordinates": [-38.2099394,-9.4372336]
      }
    },
    {
      "type": "Feature",
      "properties": { 
      "IBGE:COD_UNICO_ENDERECO": "27421001",
      "addr:housenumber": "1052 Térreo",
      "addr:postcode": "48609-140",
      "addr:street": "Rua Padre Lourenço",
      "addr:suburb": "Btn 2",
      "building": "yes"
      },
      "geometry": {
         "type": "Point",
         "coordinates": [-38.2128017,-9.4406964]
      }
    },
    {
      "type": "Feature",
      "properties": { 
      "IBGE:COD_UNICO_ENDERECO": "27359559",
      "addr:housenumber": "112",
      "addr:postcode": "48609-162",
      "addr:street": "Rua Caxangá",
      "addr:suburb": "Btn 2",
      "building": "yes",
      "name": "Serrarelhia"
      },
      "geometry": {
         "type": "Point",
         "coordinates": [-38.217066,-9.4420279]
      }
    },
    {
      "type": "Feature",
      "properties": { 
      "IBGE:COD_UNICO_ENDERECO": "27420981",
      "addr:housenumber": "1193",
      "addr:postcode": "48609-180",
      "addr:street": "Rua Olavo Bilac",
      "addr:suburb": "Btn 2",
      "building": "yes"
      },
      "geometry": {
         "type": "Point",
         "coordinates": [-38.2108506,-9.4389167]
      }
    },
    {
      "type": "Feature",
      "properties": { 
      "IBGE:COD_UNICO_ENDERECO": "217300723",
      "addr:housenumber": "221",
      "addr:postcode": "48609-196",
      "addr:street": "Rua do Planalto",
      "addr:suburb": "Btn 2",
      "building": "yes"
      },
      "geometry": {
         "type": "Point",
         "coordinates": [-38.2092351,-9.4402676]
      }
    },
    {
      "type": "Feature",
      "properties": { 
      "IBGE:COD_UNICO_ENDERECO": "194560583",
      "addr:housenumber": "25",
      "addr:postcode": "48609-310",
      "addr:street": "Rua Chico Mendes",
      "addr:suburb": "Btn 2",
      "building": "garage",
      "description": "CNEFE 2022 Garagem"
      },
      "geometry": {
         "type": "Point",
         "coordinates": [-38.2104811,-9.442277]
      }
    },
    {
      "type": "Feature",
      "properties": { 
      "IBGE:COD_UNICO_ENDERECO": "27357147",
      "addr:housenumber": "296",
      "addr:postcode": "48609-226",
      "addr:street": "Rua Barão de Mauá",
      "addr:suburb": "Btn 2",
      "building": "yes"
      },
      "geometry": {
         "type": "Point",
         "coordinates": [-38.2093447,-9.435701]
      }
    },
    {
      "type": "Feature",
      "properties": { 
      "IBGE:COD_UNICO_ENDERECO": "27368840",
      "addr:housenumber": "1675",
      "addr:postcode": "48609-325",
      "addr:street": "Avenida Delmiro Gouveia",
      "addr:suburb": "Btn 2",
      "building": "yes",
      "fixme": "Verificar coordenadas",
      "note": "Sem face no bayface do IBGE 0500-0086P-7-5"
      },
      "geometry": {
         "type": "Point",
         "coordinates": [-38.209642,-9.437059]
      }
    },
    {
      "type": "Feature",
      "properties": { 
      "IBGE:COD_UNICO_ENDERECO": "222670723",
      "addr:housenumber": "23",
      "addr:postcode": "48609-340",
      "addr:street": "Rua Riacho Seco",
      "addr:suburb": "Btn 2",
      "building": "construction"
      },
      "geometry": {
         "type": "Point",
         "coordinates": [-38.2181876,-9.4430052]
      }
    },
    {
      "type": "Feature",
      "properties": { 
      "IBGE:COD_UNICO_ENDERECO": "191403455",
      "addr:housenumber": "63",
      "addr:postcode": "48609-184",
      "addr:street": "Rua Afonso Raimundo do Nascimento",
      "addr:suburb": "Btn 2",
      "building": "yes",
      "name": "Maria do Doce"
      },
      "geometry": {
         "type": "Point",
         "coordinates": [-38.2128687,-9.4412392]
      }
    },
    {
      "type": "Feature",
      "properties": { 
      "IBGE:COD_UNICO_ENDERECO": "27357154",
      "addr:housenumber": "5",
      "addr:postcode": "48609-116",
      "addr:street": "Rua Nova",
      "addr:suburb": "Btn 2",
      "building": "yes"
      },
      "geometry": {
         "type": "Point",
         "coordinates": [-38.2127368,-9.4366604]
      }
    },
    {
      "type": "Feature",
      "properties": { 
      "IBGE:COD_UNICO_ENDERECO": "27356818",
      "addr:housenumber": "2060 A",
      "addr:postcode": "48609-140",
      "addr:street": "Rua Padre Lourenço",
      "addr:suburb": "Btn 2",
      "addr:unit": "Térreo 2060",
      "amenity": "place_of_worship",
      "building": "church",
      "denomination": "pentecostal",
      "name": "Igreja Assembleia de Deus Nova Unção",
      "religion": "christian"
      },
      "geometry": {
         "type": "Point",
         "coordinates": [-38.2055676,-9.4373033]
      }
    },
    {
      "type": "Feature",
      "properties": { 
      "IBGE:COD_UNICO_ENDERECO": "217300686",
      "addr:housenumber": "16",
      "addr:postcode": "48609-155",
      "addr:street": "Avenida Adauto Pereira",
      "addr:suburb": "Btn 2",
      "building": "warehouse",
      "description": "CNEFE 2022 Galpão"
      },
      "geometry": {
         "type": "Point",
         "coordinates": [-38.2087778,-9.4419828]
      }
    },
    {
      "type": "Feature",
      "properties": { 
      "IBGE:COD_UNICO_ENDERECO": "27369965",
      "addr:housenumber": "478",
      "addr:postcode": "48609-190",
      "addr:street": "Rua Seminarista Hélio Limeira",
      "addr:suburb": "Btn 2",
      "building": "yes"
      },
      "geometry": {
         "type": "Point",
         "coordinates": [-38.2110499,-9.4414362]
      }
    },
    {
      "type": "Feature",
      "properties": { 
      "IBGE:COD_UNICO_ENDERECO": "216227539",
      "addr:housenumber": "5",
      "addr:postcode": "48609-232",
      "addr:street": "Travessa Delmiro Gouveia",
      "addr:suburb": "Btn 2",
      "building": "construction",
      "fixme": "Verificar coordenadas",
      "note": "Sem setor ou quadra no bayface do IBGE 0500-0086P-13-1"
      },
      "geometry": {
         "type": "Point",
         "coordinates": [-38.209306,-9.436753]
      }
    },
    {
      "type": "Feature",
      "properties": { 
      "IBGE:COD_UNICO_ENDERECO": "27369954",
      "addr:housenumber": "1131 Térreo",
      "addr:postcode": "48609-310",
      "addr:street": "Rua Chico Mendes",
      "addr:suburb": "Btn 2",
      "building": "yes"
      },
      "geometry": {
         "type": "Point",
         "coordinates": [-38.2102762,-9.441797]
      }
    },
    {
      "type": "Feature",
      "properties": { 
      "IBGE:COD_UNICO_ENDERECO": "27419721",
      "addr:housenumber": "631",
      "addr:postcode": "48609-116",
      "addr:street": "Rua Nova",
      "addr:suburb": "Btn 2",
      "building": "yes"
      },
      "geometry": {
         "type": "Point",
         "coordinates": [-38.2140344,-9.4381329]
      }
    },
    {
      "type": "Feature",
      "properties": { 
      "IBGE:COD_UNICO_ENDERECO": "27357021",
      "addr:housenumber": "341",
      "addr:postcode": "48611-102",
      "addr:street": "Rua Senhor do Bonfim",
      "addr:suburb": "Btn 2",
      "addr:unit": "Fundos 2",
      "building": "yes"
      },
      "geometry": {
         "type": "Point",
         "coordinates": [-38.2096427,-9.4413329]
      }
    },
    {
      "type": "Feature",
      "properties": { 
      "IBGE:COD_UNICO_ENDERECO": "222670703",
      "addr:housenumber": "97",
      "addr:postcode": "48609-300",
      "addr:street": "Rua da Independência",
      "addr:suburb": "Btn 2",
      "building": "yes"
      },
      "geometry": {
         "type": "Point",
         "coordinates": [-38.2188312,-9.4432664]
      }
    },
    {
      "type": "Feature",
      "properties": { 
      "IBGE:COD_UNICO_ENDERECO": "222670622",
      "addr:housenumber": "176",
      "addr:postcode": "48609-220",
      "addr:street": "Rua Tomé de Sousa",
      "addr:suburb": "Btn 2",
      "building": "yes"
      },
      "geometry": {
         "type": "Point",
         "coordinates": [-38.2207407,-9.4446762]
      }
    },
    {
      "type": "Feature",
      "properties": { 
      "IBGE:COD_UNICO_ENDERECO": "27359553",
      "addr:housenumber": "86",
      "addr:postcode": "48609-340",
      "addr:street": "Rua Riacho Seco",
      "addr:suburb": "Btn 2",
      "addr:unit": "Casa B",
      "building": "yes"
      },
      "geometry": {
         "type": "Point",
         "coordinates": [-38.2178239,-9.4426797]
      }
    },
    {
      "type": "Feature",
      "properties": { 
      "IBGE:COD_UNICO_ENDERECO": "27356836",
      "addr:housenumber": "255",
      "addr:postcode": "48609-160",
      "addr:street": "Rua 7 de Setembro",
      "addr:suburb": "Btn 2",
      "building": "yes"
      },
      "geometry": {
         "type": "Point",
         "coordinates": [-38.2064812,-9.4382899]
      }
    },
    {
      "type": "Feature",
      "properties": { 
      "IBGE:COD_UNICO_ENDERECO": "27368796",
      "addr:housenumber": "205",
      "addr:postcode": "48609-222",
      "addr:street": "Rua Alonso Macedo",
      "addr:suburb": "Btn 2",
      "building": "yes",
      "fixme": "Verificar coordenadas",
      "note": "Sem dados para mover para dentro da quadra 0500-0086P-7-1"
      },
      "geometry": {
         "type": "Point",
         "coordinates": [-38.2125396,-9.437478]
      }
    },
    {
      "type": "Feature",
      "properties": { 
      "IBGE:COD_UNICO_ENDERECO": "191403334",
      "addr:housenumber": "36",
      "addr:postcode": "48609-140",
      "addr:street": "Rua Padre Lourenço",
      "addr:suburb": "Btn 2",
      "disused": "yes",
      "disused:building": "yes",
      "disused:shop": "yes",
      "old_name": "Ponto Comercial Vago"
      },
      "geometry": {
         "type": "Point",
         "coordinates": [-38.212498,-9.4399009]
      }
    },
    {
      "type": "Feature",
      "properties": { 
      "IBGE:COD_UNICO_ENDERECO": "191392421",
      "addr:housenumber": "1397",
      "addr:postcode": "48609-300",
      "addr:street": "Rua da Independência",
      "addr:suburb": "Btn 2",
      "building": "yes"
      },
      "geometry": {
         "type": "Point",
         "coordinates": [-38.2104099,-9.4361828]
      }
    },
    {
      "type": "Feature",
      "properties": { 
      "IBGE:COD_UNICO_ENDERECO": "222670730",
      "addr:housenumber": "46",
      "addr:postcode": "48609-340",
      "addr:street": "Rua Riacho Seco",
      "addr:suburb": "Btn 2",
      "building": "yes"
      },
      "geometry": {
         "type": "Point",
         "coordinates": [-38.2180484,-9.4428579]
      }
    },
    {
      "type": "Feature",
      "properties": { 
      "IBGE:COD_UNICO_ENDERECO": "191547902",
      "addr:housenumber": "541",
      "addr:postcode": "48609-160",
      "addr:street": "Rua 7 de Setembro",
      "addr:suburb": "Btn 2",
      "building": "yes"
      },
      "geometry": {
         "type": "Point",
         "coordinates": [-38.2045036,-9.4369356]
      }
    },
    {
      "type": "Feature",
      "properties": { 
      "IBGE:COD_UNICO_ENDERECO": "191392336",
      "addr:housenumber": "1110",
      "addr:postcode": "48609-116",
      "addr:street": "Rua Nova",
      "addr:suburb": "Btn 2",
      "building": "yes"
      },
      "geometry": {
         "type": "Point",
         "coordinates": [-38.210778,-9.435091]
      }
    },
    {
      "type": "Feature",
      "properties": { 
      "IBGE:COD_UNICO_ENDERECO": "27359578",
      "addr:housenumber": "40",
      "addr:postcode": "48609-116",
      "addr:street": "Rua Nova",
      "addr:suburb": "Btn 2",
      "building": "yes"
      },
      "geometry": {
         "type": "Point",
         "coordinates": [-38.2173949,-9.4429502]
      }
    },
    {
      "type": "Feature",
      "properties": { 
      "IBGE:COD_UNICO_ENDERECO": "27356857",
      "addr:housenumber": "356",
      "addr:postcode": "48609-160",
      "addr:street": "Rua 7 de Setembro",
      "addr:suburb": "Btn 2",
      "building": "yes",
      "fixme": "Verificar coordenadas",
      "note": "Sem dados para mover para dentro da quadra 0500-0201P-7-1"
      },
      "geometry": {
         "type": "Point",
         "coordinates": [-38.2056589,-9.4380036]
      }
    },
    {
      "type": "Feature",
      "properties": { 
      "IBGE:COD_UNICO_ENDERECO": "27359387",
      "addr:housenumber": "156",
      "addr:postcode": "48609-130",
      "addr:street": "Rua Gláuber Rocha",
      "addr:suburb": "Btn 2",
      "building": "yes"
      },
      "geometry": {
         "type": "Point",
         "coordinates": [-38.2211894,-9.4442298]
      }
    },
    {
      "type": "Feature",
      "properties": { 
      "IBGE:COD_UNICO_ENDERECO": "27357137",
      "addr:housenumber": "1497",
      "addr:postcode": "48609-300",
      "addr:street": "Rua da Independência",
      "addr:suburb": "Btn 2",
      "building": "yes"
      },
      "geometry": {
         "type": "Point",
         "coordinates": [-38.2092777,-9.4361993]
      }
    },
    {
      "type": "Feature",
      "properties": { 
      "IBGE:COD_UNICO_ENDERECO": "194560379;194560387",
      "addr:housenumber": "1429",
      "addr:postcode": "48609-310",
      "addr:street": "Rua Chico Mendes",
      "addr:suburb": "Btn 2",
      "building": "yes"
      },
      "geometry": {
         "type": "Point",
         "coordinates": [-38.2103534,-9.4391325]
      }
    },
    {
      "type": "Feature",
      "properties": { 
      "IBGE:COD_UNICO_ENDERECO": "27421033",
      "addr:housenumber": "495 A",
      "addr:postcode": "48609-184",
      "addr:street": "Rua Afonso Raimundo do Nascimento",
      "addr:suburb": "Btn 2",
      "building": "yes"
      },
      "geometry": {
         "type": "Point",
         "coordinates": [-38.2125792,-9.4414176]
      }
    },
    {
      "type": "Feature",
      "properties": { 
      "IBGE:COD_UNICO_ENDERECO": "191547743",
      "addr:housenumber": "215 A",
      "addr:postcode": "48609-160",
      "addr:street": "Rua 7 de Setembro",
      "addr:suburb": "Btn 2",
      "building": "yes"
      },
      "geometry": {
         "type": "Point",
         "coordinates": [-38.2068168,-9.4383966]
      }
    },
    {
      "type": "Feature",
      "properties": { 
      "IBGE:COD_UNICO_ENDERECO": "27359455",
      "addr:housenumber": "56",
      "addr:postcode": "48609-300",
      "addr:street": "Rua da Independência",
      "addr:suburb": "Btn 2",
      "building": "yes"
      },
      "geometry": {
         "type": "Point",
         "coordinates": [-38.2191764,-9.4434716]
      }
    },
    {
      "type": "Feature",
      "properties": { 
      "IBGE:COD_UNICO_ENDERECO": "27419887",
      "addr:housenumber": "548",
      "addr:postcode": "48609-116",
      "addr:street": "Rua Nova",
      "addr:suburb": "Btn 2",
      "building": "yes"
      },
      "geometry": {
         "type": "Point",
         "coordinates": [-38.2143349,-9.4389732]
      }
    },
    {
      "type": "Feature",
      "properties": { 
      "IBGE:COD_UNICO_ENDERECO": "222670659",
      "addr:housenumber": "215",
      "addr:postcode": "48609-124",
      "addr:street": "Avenida Delmiro Gouveia",
      "addr:suburb": "Btn 2",
      "addr:unit": "Loja",
      "description": "CNEFE 2022 Loja Vaga",
      "disused:building": "yes",
      "disused:shop": "yes"
      },
      "geometry": {
         "type": "Point",
         "coordinates": [-38.2202999,-9.4448379]
      }
    },
    {
      "type": "Feature",
      "properties": { 
      "IBGE:COD_UNICO_ENDERECO": "216227167",
      "addr:housenumber": "1334",
      "addr:postcode": "48609-300",
      "addr:street": "Rua da Independência",
      "addr:suburb": "Btn 2",
      "addr:unit": "Fundos",
      "building": "yes",
      "fixme": "Verificar coordenadas",
      "note": "Sem face no bayface do IBGE 0500-0086P-7-2"
      },
      "geometry": {
         "type": "Point",
         "coordinates": [-38.211193,-9.436307]
      }
    },
    {
      "type": "Feature",
      "properties": { 
      "IBGE:COD_UNICO_ENDERECO": "27419864",
      "addr:housenumber": "721",
      "addr:postcode": "48609-300",
      "addr:street": "Rua da Independência",
      "addr:suburb": "Btn 2",
      "building": "yes"
      },
      "geometry": {
         "type": "Point",
         "coordinates": [-38.2144915,-9.4398388]
      }
    },
    {
      "type": "Feature",
      "properties": { 
      "IBGE:COD_UNICO_ENDERECO": "222670699",
      "addr:housenumber": "67",
      "addr:postcode": "48609-300",
      "addr:street": "Rua da Independência",
      "addr:suburb": "Btn 2",
      "addr:unit": "Casa B",
      "building": "yes"
      },
      "geometry": {
         "type": "Point",
         "coordinates": [-38.2190573,-9.4432858]
      }
    },
    {
      "type": "Feature",
      "properties": { 
      "IBGE:COD_UNICO_ENDERECO": "27421012",
      "addr:housenumber": "1158 B",
      "addr:postcode": "48609-140",
      "addr:street": "Rua Padre Lourenço",
      "addr:suburb": "Btn 2",
      "building": "yes",
      "description": "CNEFE 2022 Loja Vaga",
      "disused:shop": "yes"
      },
      "geometry": {
         "type": "Point",
         "coordinates": [-38.2122892,-9.4398008]
      }
    },
    {
      "type": "Feature",
      "properties": { 
      "IBGE:COD_UNICO_ENDERECO": "27368726",
      "addr:housenumber": "1355",
      "addr:postcode": "48609-140",
      "addr:street": "Rua Padre Lourenço",
      "addr:suburb": "Btn 2",
      "building": "yes"
      },
      "geometry": {
         "type": "Point",
         "coordinates": [-38.210242,-9.4379333]
      }
    },
    {
      "type": "Feature",
      "properties": { 
      "IBGE:COD_UNICO_ENDERECO": "191392463",
      "addr:housenumber": "1273",
      "addr:postcode": "48609-300",
      "addr:street": "Rua da Independência",
      "addr:suburb": "Btn 2",
      "addr:unit": "Abc",
      "amenity": "pub",
      "building": "yes",
      "description": "CNEFE 2022 Bar"
      },
      "geometry": {
         "type": "Point",
         "coordinates": [-38.2114973,-9.4363062]
      }
    },
    {
      "type": "Feature",
      "properties": { 
      "IBGE:COD_UNICO_ENDERECO": "27356931",
      "addr:housenumber": "345 A",
      "addr:postcode": "48609-155",
      "addr:street": "Avenida Adauto Pereira",
      "addr:suburb": "Btn 2",
      "building": "yes"
      },
      "geometry": {
         "type": "Point",
         "coordinates": [-38.2086336,-9.4397596]
      }
    },
    {
      "type": "Feature",
      "properties": { 
      "IBGE:COD_UNICO_ENDERECO": "194560577",
      "addr:housenumber": "1051",
      "addr:postcode": "48609-310",
      "addr:street": "Rua Chico Mendes",
      "addr:suburb": "Btn 2",
      "building": "yes"
      },
      "geometry": {
         "type": "Point",
         "coordinates": [-38.2105974,-9.4424305]
      }
    },
    {
      "type": "Feature",
      "properties": { 
      "IBGE:COD_UNICO_ENDERECO": "108727942",
      "addr:housenumber": "1015 Frente",
      "addr:postcode": "48609-140",
      "addr:street": "Rua Padre Lourenço",
      "addr:suburb": "Btn 2",
      "building": "yes"
      },
      "geometry": {
         "type": "Point",
         "coordinates": [-38.2125909,-9.4400531]
      }
    },
    {
      "type": "Feature",
      "properties": { 
      "IBGE:COD_UNICO_ENDERECO": "27359505",
      "addr:housenumber": "47",
      "addr:postcode": "48609-300",
      "addr:street": "Rua da Independência",
      "addr:suburb": "Btn 2",
      "building": "yes"
      },
      "geometry": {
         "type": "Point",
         "coordinates": [-38.2192532,-9.4433486]
      }
    },
    {
      "type": "Feature",
      "properties": { 
      "IBGE:COD_UNICO_ENDERECO": "217300568",
      "addr:housenumber": "564",
      "addr:postcode": "48609-196",
      "addr:street": "Rua do Planalto",
      "addr:suburb": "Btn 2",
      "building": "yes"
      },
      "geometry": {
         "type": "Point",
         "coordinates": [-38.2093772,-9.4403099]
      }
    },
    {
      "type": "Feature",
      "properties": { 
      "IBGE:COD_UNICO_ENDERECO": "27356816",
      "addr:housenumber": "2028 A",
      "addr:postcode": "48609-140",
      "addr:street": "Rua Padre Lourenço",
      "addr:suburb": "Btn 2",
      "building": "yes"
      },
      "geometry": {
         "type": "Point",
         "coordinates": [-38.2057123,-9.4374038]
      }
    },
    {
      "type": "Feature",
      "properties": { 
      "IBGE:COD_UNICO_ENDERECO": "27359576",
      "addr:housenumber": "23",
      "addr:postcode": "48609-116",
      "addr:street": "Rua Nova",
      "addr:suburb": "Btn 2",
      "building": "construction"
      },
      "geometry": {
         "type": "Point",
         "coordinates": [-38.2179511,-9.4433298]
      }
    },
    {
      "type": "Feature",
      "properties": { 
      "IBGE:COD_UNICO_ENDERECO": "194560574",
      "addr:housenumber": "1059 Térreo",
      "addr:postcode": "48609-310",
      "addr:street": "Rua Chico Mendes",
      "addr:suburb": "Btn 2",
      "building": "yes"
      },
      "geometry": {
         "type": "Point",
         "coordinates": [-38.2105877,-9.4424183]
      }
    },
    {
      "type": "Feature",
      "properties": { 
      "IBGE:COD_UNICO_ENDERECO": "27359461",
      "addr:housenumber": "142",
      "addr:postcode": "48609-300",
      "addr:street": "Rua da Independência",
      "addr:suburb": "Btn 2",
      "building": "yes"
      },
      "geometry": {
         "type": "Point",
         "coordinates": [-38.2184837,-9.4434295]
      }
    },
    {
      "type": "Feature",
      "properties": { 
      "IBGE:COD_UNICO_ENDERECO": "222670613",
      "addr:housenumber": "115 Lado",
      "addr:postcode": "48609-220",
      "addr:street": "Rua Tomé de Sousa",
      "addr:suburb": "Btn 2",
      "building": "yes",
      "description": "CNEFE 2022 Loja Vaga",
      "disused:shop": "yes"
      },
      "geometry": {
         "type": "Point",
         "coordinates": [-38.221124,-9.4448496]
      }
    },
    {
      "type": "Feature",
      "properties": { 
      "IBGE:COD_UNICO_ENDERECO": "27368836",
      "addr:housenumber": "1703 Frente",
      "addr:postcode": "48609-325",
      "addr:street": "Avenida Delmiro Gouveia",
      "addr:suburb": "Btn 2",
      "building": "yes",
      "fixme": "Verificar coordenadas",
      "note": "Sem face no bayface do IBGE 0500-0086P-7-5"
      },
      "geometry": {
         "type": "Point",
         "coordinates": [-38.209387,-9.437115]
      }
    },
    {
      "type": "Feature",
      "properties": { 
      "IBGE:COD_UNICO_ENDERECO": "27357020",
      "addr:housenumber": "341 Frente",
      "addr:postcode": "48611-102",
      "addr:street": "Rua Senhor do Bonfim",
      "addr:suburb": "Btn 2",
      "building": "yes"
      },
      "geometry": {
         "type": "Point",
         "coordinates": [-38.2096973,-9.4413354]
      }
    },
    {
      "type": "Feature",
      "properties": { 
      "IBGE:COD_UNICO_ENDERECO": "27359413",
      "addr:housenumber": "181",
      "addr:postcode": "48609-124",
      "addr:street": "Avenida Delmiro Gouveia",
      "addr:suburb": "Btn 2",
      "building": "yes",
      "name": "Solar Velho Chico"
      },
      "geometry": {
         "type": "Point",
         "coordinates": [-38.2205037,-9.4450192]
      }
    },
    {
      "type": "Feature",
      "properties": { 
      "IBGE:COD_UNICO_ENDERECO": "27356749",
      "addr:housenumber": "246",
      "addr:postcode": "48609-155",
      "addr:street": "Avenida Adauto Pereira",
      "addr:suburb": "Btn 2",
      "building": "yes"
      },
      "geometry": {
         "type": "Point",
         "coordinates": [-38.2089038,-9.4394855]
      }
    },
    {
      "type": "Feature",
      "properties": { 
      "IBGE:COD_UNICO_ENDERECO": "191403426",
      "addr:housenumber": "471",
      "addr:postcode": "48609-184",
      "addr:street": "Rua Afonso Raimundo do Nascimento",
      "addr:suburb": "Btn 2",
      "addr:unit": "Fundos",
      "building": "yes"
      },
      "geometry": {
         "type": "Point",
         "coordinates": [-38.2127,-9.4412796]
      }
    },
    {
      "type": "Feature",
      "properties": { 
      "IBGE:COD_UNICO_ENDERECO": "27359590",
      "addr:housenumber": "281",
      "addr:postcode": "48609-300",
      "addr:street": "Rua da Independência",
      "addr:suburb": "Btn 2",
      "building": "construction"
      },
      "geometry": {
         "type": "Point",
         "coordinates": [-38.2182077,-9.4434671]
      }
    },
    {
      "type": "Feature",
      "properties": { 
      "IBGE:COD_UNICO_ENDERECO": "191392526",
      "addr:housenumber": "1183",
      "addr:postcode": "48609-300",
      "addr:street": "Rua da Independência",
      "addr:suburb": "Btn 2",
      "building": "yes"
      },
      "geometry": {
         "type": "Point",
         "coordinates": [-38.2120955,-9.4365982]
      }
    },
    {
      "type": "Feature",
      "properties": { 
      "IBGE:COD_UNICO_ENDERECO": "217300741",
      "addr:housenumber": "450 A",
      "addr:postcode": "48611-142",
      "addr:street": "Rua do Planalto",
      "addr:suburb": "Btn 2",
      "building": "yes"
      },
      "geometry": {
         "type": "Point",
         "coordinates": [-38.2093337,-9.4422079]
      }
    },
    {
      "type": "Feature",
      "properties": { 
      "IBGE:COD_UNICO_ENDERECO": "27356748",
      "addr:housenumber": "226",
      "addr:postcode": "48609-155",
      "addr:street": "Avenida Adauto Pereira",
      "addr:suburb": "Btn 2",
      "building": "yes"
      },
      "geometry": {
         "type": "Point",
         "coordinates": [-38.2089265,-9.4392591]
      }
    },
    {
      "type": "Feature",
      "properties": { 
      "IBGE:COD_UNICO_ENDERECO": "27357015",
      "addr:housenumber": "283",
      "addr:postcode": "48611-102",
      "addr:street": "Rua Senhor do Bonfim",
      "addr:suburb": "Btn 2",
      "building": "yes"
      },
      "geometry": {
         "type": "Point",
         "coordinates": [-38.2097255,-9.4407551]
      }
    },
    {
      "type": "Feature",
      "properties": { 
      "IBGE:COD_UNICO_ENDERECO": "191392472",
      "addr:housenumber": "46",
      "addr:postcode": "48609-300",
      "addr:street": "Rua da Independência",
      "addr:suburb": "Btn 2",
      "building": "yes"
      },
      "geometry": {
         "type": "Point",
         "coordinates": [-38.2115652,-9.4363293]
      }
    },
    {
      "type": "Feature",
      "properties": { 
      "IBGE:COD_UNICO_ENDERECO": "191402535",
      "addr:housenumber": "144",
      "addr:postcode": "48609-110",
      "addr:street": "Rua do Emissário",
      "addr:suburb": "Btn 2",
      "building": "yes"
      },
      "geometry": {
         "type": "Point",
         "coordinates": [-38.2142162,-9.4378121]
      }
    },
    {
      "type": "Feature",
      "properties": { 
      "IBGE:COD_UNICO_ENDERECO": "27359574",
      "addr:housenumber": "19",
      "addr:postcode": "48609-116",
      "addr:street": "Rua Nova",
      "addr:suburb": "Btn 2",
      "building": "construction"
      },
      "geometry": {
         "type": "Point",
         "coordinates": [-38.2179105,-9.4432147]
      }
    },
    {
      "type": "Feature",
      "properties": { 
      "IBGE:COD_UNICO_ENDERECO": "27356762",
      "addr:housenumber": "53",
      "addr:postcode": "48609-196",
      "addr:street": "Rua do Planalto",
      "addr:suburb": "Btn 2",
      "building": "yes"
      },
      "geometry": {
         "type": "Point",
         "coordinates": [-38.2093284,-9.4386575]
      }
    },
    {
      "type": "Feature",
      "properties": { 
      "IBGE:COD_UNICO_ENDERECO": "222670718",
      "addr:housenumber": "51",
      "addr:postcode": "48609-340",
      "addr:street": "Rua Riacho Seco",
      "addr:suburb": "Btn 2",
      "building": "yes"
      },
      "geometry": {
         "type": "Point",
         "coordinates": [-38.2179689,-9.4425935]
      }
    },
    {
      "type": "Feature",
      "properties": { 
      "IBGE:COD_UNICO_ENDERECO": "27369792",
      "addr:housenumber": "1505",
      "addr:postcode": "48609-310",
      "addr:street": "Rua Chico Mendes",
      "addr:suburb": "Btn 2",
      "building": "yes"
      },
      "geometry": {
         "type": "Point",
         "coordinates": [-38.2103896,-9.4384653]
      }
    },
    {
      "type": "Feature",
      "properties": { 
      "IBGE:COD_UNICO_ENDERECO": "194560612",
      "addr:housenumber": "500",
      "addr:postcode": "48609-190",
      "addr:street": "Rua Seminarista Hélio Limeira",
      "addr:suburb": "Btn 2",
      "addr:unit": "Fundos",
      "building": "yes"
      },
      "geometry": {
         "type": "Point",
         "coordinates": [-38.2108903,-9.4410639]
      }
    },
    {
      "type": "Feature",
      "properties": { 
      "IBGE:COD_UNICO_ENDERECO": "27359613",
      "addr:housenumber": "637",
      "addr:postcode": "48609-124",
      "addr:street": "Avenida Delmiro Gouveia",
      "addr:suburb": "Btn 2",
      "building": "yes",
      "name": "Atel Telecom"
      },
      "geometry": {
         "type": "Point",
         "coordinates": [-38.2164565,-9.4434063]
      }
    },
    {
      "type": "Feature",
      "properties": { 
      "IBGE:COD_UNICO_ENDERECO": "27357217",
      "addr:housenumber": "961",
      "addr:postcode": "48609-116",
      "addr:street": "Rua Nova",
      "addr:suburb": "Btn 2",
      "building": "yes"
      },
      "geometry": {
         "type": "Point",
         "coordinates": [-38.2118057,-9.4360013]
      }
    },
    {
      "type": "Feature",
      "properties": { 
      "IBGE:COD_UNICO_ENDERECO": "27359444",
      "addr:housenumber": "312",
      "addr:postcode": "48609-144",
      "addr:street": "Rua Santa Rita",
      "addr:suburb": "Btn 2",
      "building": "yes",
      "name": "Loja TO Chic",
      "shop": "yes"
      },
      "geometry": {
         "type": "Point",
         "coordinates": [-38.2197193,-9.4437054]
      }
    },
    {
      "type": "Feature",
      "properties": { 
      "IBGE:COD_UNICO_ENDERECO": "216227544",
      "addr:housenumber": "1494",
      "addr:postcode": "48609-300",
      "addr:street": "Rua da Independência",
      "addr:suburb": "Btn 2",
      "building": "yes",
      "fixme": "Verificar coordenadas",
      "note": "Sem setor ou quadra no bayface do IBGE 0500-0086P-13-2"
      },
      "geometry": {
         "type": "Point",
         "coordinates": [-38.209257,-9.436334]
      }
    },
    {
      "type": "Feature",
      "properties": { 
      "IBGE:COD_UNICO_ENDERECO": "27356883",
      "addr:housenumber": "111",
      "addr:postcode": "48609-206",
      "addr:street": "Rua Pitanga",
      "addr:suburb": "Btn 2",
      "building": "yes"
      },
      "geometry": {
         "type": "Point",
         "coordinates": [-38.2075402,-9.4391686]
      }
    },
    {
      "type": "Feature",
      "properties": { 
      "IBGE:COD_UNICO_ENDERECO": "27357170",
      "addr:housenumber": "830",
      "addr:postcode": "48609-116",
      "addr:street": "Rua Nova",
      "addr:suburb": "Btn 2",
      "building": "yes",
      "name": "Marcos Produto de Limpeza",
      "shop": "chemist"
      },
      "geometry": {
         "type": "Point",
         "coordinates": [-38.2126051,-9.4365712]
      }
    },
    {
      "type": "Feature",
      "properties": { 
      "IBGE:COD_UNICO_ENDERECO": "27356763",
      "addr:housenumber": "33 A",
      "addr:postcode": "48609-196",
      "addr:street": "Rua do Planalto",
      "addr:suburb": "Btn 2",
      "building": "yes"
      },
      "geometry": {
         "type": "Point",
         "coordinates": [-38.2093426,-9.4383595]
      }
    },
    {
      "type": "Feature",
      "properties": { 
      "IBGE:COD_UNICO_ENDERECO": "27368847",
      "addr:housenumber": "1581",
      "addr:postcode": "48609-325",
      "addr:street": "Avenida Delmiro Gouveia",
      "addr:suburb": "Btn 2",
      "addr:unit": "Fundos",
      "building": "yes",
      "fixme": "Verificar coordenadas",
      "note": "Sem face no bayface do IBGE 0500-0086P-7-5"
      },
      "geometry": {
         "type": "Point",
         "coordinates": [-38.2105,-9.437109]
      }
    },
    {
      "type": "Feature",
      "properties": { 
      "IBGE:COD_UNICO_ENDERECO": "27357034",
      "addr:housenumber": "535",
      "addr:postcode": "48611-102",
      "addr:street": "Rua Senhor do Bonfim",
      "addr:suburb": "Btn 2",
      "addr:unit": "Casa",
      "building": "yes"
      },
      "geometry": {
         "type": "Point",
         "coordinates": [-38.209618,-9.4429704]
      }
    },
    {
      "type": "Feature",
      "properties": { 
      "IBGE:COD_UNICO_ENDERECO": "27368912",
      "addr:housenumber": "1740",
      "addr:postcode": "48609-300",
      "addr:street": "Rua da Independência",
      "addr:suburb": "Btn 2",
      "building": "yes"
      },
      "geometry": {
         "type": "Point",
         "coordinates": [-38.2068916,-9.4361515]
      }
    },
    {
      "type": "Feature",
      "properties": { 
      "IBGE:COD_UNICO_ENDERECO": "27420937",
      "addr:housenumber": "381 Loja Térreo",
      "addr:postcode": "48609-184",
      "addr:street": "Rua Afonso Raimundo do Nascimento",
      "addr:suburb": "Btn 2",
      "amenity": "taxi",
      "building": "yes",
      "name": "Fênix Mototáxi e Tuk Tuk",
      "taxi_vehicle": "motorcycle"
      },
      "geometry": {
         "type": "Point",
         "coordinates": [-38.2132977,-9.4409748]
      }
    },
    {
      "type": "Feature",
      "properties": { 
      "IBGE:COD_UNICO_ENDERECO": "222670741",
      "addr:housenumber": "11",
      "addr:postcode": "48609-116",
      "addr:street": "Rua Nova",
      "addr:suburb": "Btn 2",
      "building": "yes"
      },
      "geometry": {
         "type": "Point",
         "coordinates": [-38.217292,-9.4426928]
      }
    },
    {
      "type": "Feature",
      "properties": { 
      "IBGE:COD_UNICO_ENDERECO": "27369905",
      "addr:housenumber": "771",
      "addr:postcode": "48609-170",
      "addr:street": "Rua Osvaldo Cruz",
      "addr:suburb": "Btn 2",
      "building": "yes"
      },
      "geometry": {
         "type": "Point",
         "coordinates": [-38.2101423,-9.4426189]
      }
    },
    {
      "type": "Feature",
      "properties": { 
      "IBGE:COD_UNICO_ENDERECO": "27359388",
      "addr:housenumber": "172",
      "addr:postcode": "48609-130",
      "addr:street": "Rua Gláuber Rocha",
      "addr:suburb": "Btn 2",
      "building": "yes"
      },
      "geometry": {
         "type": "Point",
         "coordinates": [-38.2210366,-9.4440691]
      }
    },
    {
      "type": "Feature",
      "properties": { 
      "IBGE:COD_UNICO_ENDERECO": "27359631",
      "addr:housenumber": "499",
      "addr:postcode": "48609-124",
      "addr:street": "Avenida Delmiro Gouveia",
      "addr:suburb": "Btn 2",
      "building": "yes"
      },
      "geometry": {
         "type": "Point",
         "coordinates": [-38.2177052,-9.4437728]
      }
    },
    {
      "type": "Feature",
      "properties": { 
      "IBGE:COD_UNICO_ENDERECO": "27357151",
      "addr:housenumber": "934",
      "addr:postcode": "48609-116",
      "addr:street": "Rua Nova",
      "addr:suburb": "Btn 2",
      "building": "yes"
      },
      "geometry": {
         "type": "Point",
         "coordinates": [-38.2118968,-9.436199]
      }
    },
    {
      "type": "Feature",
      "properties": { 
      "IBGE:COD_UNICO_ENDERECO": "27356764",
      "addr:housenumber": "33 B",
      "addr:postcode": "48609-196",
      "addr:street": "Rua do Planalto",
      "addr:suburb": "Btn 2",
      "addr:unit": "Anexo",
      "building": "construction"
      },
      "geometry": {
         "type": "Point",
         "coordinates": [-38.2093439,-9.4383336]
      }
    },
    {
      "type": "Feature",
      "properties": { 
      "IBGE:COD_UNICO_ENDERECO": "27356848",
      "addr:housenumber": "511",
      "addr:postcode": "48609-160",
      "addr:street": "Rua 7 de Setembro",
      "addr:suburb": "Btn 2",
      "addr:unit": "Casa 512",
      "building": "yes"
      },
      "geometry": {
         "type": "Point",
         "coordinates": [-38.2046682,-9.4371698]
      }
    },
    {
      "type": "Feature",
      "properties": { 
      "IBGE:COD_UNICO_ENDERECO": "216227093",
      "addr:housenumber": "1286 D",
      "addr:postcode": "48609-325",
      "addr:street": "Avenida Delmiro Gouveia",
      "addr:suburb": "Btn 2",
      "building": "yes"
      },
      "geometry": {
         "type": "Point",
         "coordinates": [-38.2118251,-9.4376012]
      }
    },
    {
      "type": "Feature",
      "properties": { 
      "IBGE:COD_UNICO_ENDERECO": "108727957",
      "addr:housenumber": "1370",
      "addr:postcode": "48609-140",
      "addr:street": "Rua Padre Lourenço",
      "addr:suburb": "Btn 2",
      "building": "yes"
      },
      "geometry": {
         "type": "Point",
         "coordinates": [-38.2114324,-9.4384515]
      }
    },
    {
      "type": "Feature",
      "properties": { 
      "IBGE:COD_UNICO_ENDERECO": "191403318",
      "addr:housenumber": "1135",
      "addr:postcode": "48609-140",
      "addr:street": "Rua Padre Lourenço",
      "addr:suburb": "Btn 2",
      "addr:unit": "Loja",
      "building": "yes",
      "description": "CNEFE 2022 Loja de Variedades",
      "shop": "variety_store"
      },
      "geometry": {
         "type": "Point",
         "coordinates": [-38.2118954,-9.4389139]
      }
    },
    {
      "type": "Feature",
      "properties": { 
      "IBGE:COD_UNICO_ENDERECO": "27369852",
      "addr:housenumber": "1118",
      "addr:postcode": "48609-310",
      "addr:street": "Rua Chico Mendes",
      "addr:suburb": "Btn 2",
      "building": "yes"
      },
      "geometry": {
         "type": "Point",
         "coordinates": [-38.2103146,-9.4423058]
      }
    },
    {
      "type": "Feature",
      "properties": { 
      "IBGE:COD_UNICO_ENDERECO": "27419835",
      "addr:housenumber": "1013",
      "addr:postcode": "48609-238",
      "addr:street": "Avenida Delmiro Gouveia",
      "addr:suburb": "Btn 2",
      "building": "yes"
      },
      "geometry": {
         "type": "Point",
         "coordinates": [-38.2138863,-9.4404656]
      }
    },
    {
      "type": "Feature",
      "properties": { 
      "IBGE:COD_UNICO_ENDERECO": "27420996",
      "addr:housenumber": "1036",
      "addr:postcode": "48609-140",
      "addr:street": "Rua Padre Lourenço",
      "addr:suburb": "Btn 2",
      "farmyard": "poultry",
      "landuse": "farmyard",
      "name": "Frango Bom Granja Avícola"
      },
      "geometry": {
         "type": "Point",
         "coordinates": [-38.2129467,-9.440932]
      }
    },
    {
      "type": "Feature",
      "properties": { 
      "IBGE:COD_UNICO_ENDERECO": "27356694",
      "addr:housenumber": "36",
      "addr:postcode": "48609-196",
      "addr:street": "Rua do Planalto",
      "addr:suburb": "Btn 2",
      "building": "yes"
      },
      "geometry": {
         "type": "Point",
         "coordinates": [-38.2094959,-9.4384173]
      }
    },
    {
      "type": "Feature",
      "properties": { 
      "IBGE:COD_UNICO_ENDERECO": "27356742",
      "addr:housenumber": "154",
      "addr:postcode": "48609-155",
      "addr:street": "Avenida Adauto Pereira",
      "addr:suburb": "Btn 2",
      "building": "yes"
      },
      "geometry": {
         "type": "Point",
         "coordinates": [-38.2089298,-9.438666]
      }
    },
    {
      "type": "Feature",
      "properties": { 
      "IBGE:COD_UNICO_ENDERECO": "191402551",
      "addr:housenumber": "90",
      "addr:postcode": "48609-110",
      "addr:street": "Rua do Emissário",
      "addr:suburb": "Btn 2",
      "building": "yes"
      },
      "geometry": {
         "type": "Point",
         "coordinates": [-38.2139478,-9.4373943]
      }
    },
    {
      "type": "Feature",
      "properties": { 
      "IBGE:COD_UNICO_ENDERECO": "27369973",
      "addr:housenumber": "546",
      "addr:postcode": "48609-190",
      "addr:street": "Rua Seminarista Hélio Limeira",
      "addr:suburb": "Btn 2",
      "building": "yes"
      },
      "geometry": {
         "type": "Point",
         "coordinates": [-38.2109106,-9.4407761]
      }
    },
    {
      "type": "Feature",
      "properties": { 
      "IBGE:COD_UNICO_ENDERECO": "27368756",
      "addr:housenumber": "1322 A",
      "addr:postcode": "48609-325",
      "addr:street": "Avenida Delmiro Gouveia",
      "addr:suburb": "Btn 2",
      "addr:unit": "Frente",
      "building": "yes"
      },
      "geometry": {
         "type": "Point",
         "coordinates": [-38.2116395,-9.4374868]
      }
    },
    {
      "type": "Feature",
      "properties": { 
      "IBGE:COD_UNICO_ENDERECO": "194560489",
      "addr:housenumber": "20",
      "addr:postcode": "48609-172",
      "addr:street": "Rua Senhor do Bonfim",
      "addr:suburb": "Btn 2",
      "building": "construction"
      },
      "geometry": {
         "type": "Point",
         "coordinates": [-38.2098664,-9.4412573]
      }
    },
    {
      "type": "Feature",
      "properties": { 
      "IBGE:COD_UNICO_ENDERECO": "27357049",
      "addr:housenumber": "435",
      "addr:postcode": "48611-102",
      "addr:street": "Rua Senhor do Bonfim",
      "addr:suburb": "Btn 2",
      "building": "yes"
      },
      "geometry": {
         "type": "Point",
         "coordinates": [-38.2096624,-9.4420548]
      }
    },
    {
      "type": "Feature",
      "properties": { 
      "IBGE:COD_UNICO_ENDERECO": "27368675",
      "addr:housenumber": "165",
      "addr:postcode": "48609-155",
      "addr:street": "Avenida Adauto Pereira",
      "addr:suburb": "Btn 2",
      "building": "yes"
      },
      "geometry": {
         "type": "Point",
         "coordinates": [-38.2086912,-9.4376962]
      }
    },
    {
      "type": "Feature",
      "properties": { 
      "IBGE:COD_UNICO_ENDERECO": "108727960",
      "addr:housenumber": "1249",
      "addr:postcode": "48609-180",
      "addr:street": "Rua Olavo Bilac",
      "addr:suburb": "Btn 2",
      "building": "yes"
      },
      "geometry": {
         "type": "Point",
         "coordinates": [-38.2107982,-9.4386943]
      }
    },
    {
      "type": "Feature",
      "properties": { 
      "IBGE:COD_UNICO_ENDERECO": "27356822",
      "addr:housenumber": "35",
      "addr:postcode": "48609-160",
      "addr:street": "Rua 7 de Setembro",
      "addr:suburb": "Btn 2",
      "building": "warehouse",
      "name": "Escritório E Depósito do Posto Petrox"
      },
      "geometry": {
         "type": "Point",
         "coordinates": [-38.2052196,-9.4375847]
      }
    },
    {
      "type": "Feature",
      "properties": { 
      "IBGE:COD_UNICO_ENDERECO": "27357144",
      "addr:housenumber": "1305",
      "addr:postcode": "48609-300",
      "addr:street": "Rua da Independência",
      "addr:suburb": "Btn 2",
      "building": "yes"
      },
      "geometry": {
         "type": "Point",
         "coordinates": [-38.2111873,-9.4362211]
      }
    },
    {
      "type": "Feature",
      "properties": { 
      "IBGE:COD_UNICO_ENDERECO": "27369835",
      "addr:housenumber": "1510 Térreo",
      "addr:postcode": "48609-140",
      "addr:street": "Rua Padre Lourenço",
      "addr:suburb": "Btn 2",
      "building": "yes",
      "name": "Panificadora Sabor do Trigo",
      "shop": "bakery"
      },
      "geometry": {
         "type": "Point",
         "coordinates": [-38.2100971,-9.438139]
      }
    },
    {
      "type": "Feature",
      "properties": { 
      "IBGE:COD_UNICO_ENDERECO": "27369980",
      "addr:housenumber": "33 Térreo",
      "addr:postcode": "48609-208",
      "addr:street": "Travessa Olavo Bilac Terceira",
      "addr:suburb": "Btn 2",
      "building": "yes",
      "description": "CNEFE 2022 Sem Nome"
      },
      "geometry": {
         "type": "Point",
         "coordinates": [-38.2108772,-9.4398383]
      }
    },
    {
      "type": "Feature",
      "properties": { 
      "IBGE:COD_UNICO_ENDERECO": "194560616",
      "addr:housenumber": "630",
      "addr:postcode": "48609-190",
      "addr:street": "Rua Seminarista Hélio Limeira",
      "addr:suburb": "Btn 2",
      "building": "yes"
      },
      "geometry": {
         "type": "Point",
         "coordinates": [-38.2108684,-9.4399767]
      }
    },
    {
      "type": "Feature",
      "properties": { 
      "IBGE:COD_UNICO_ENDERECO": "27369961",
      "addr:housenumber": "16",
      "addr:postcode": "48609-190",
      "addr:street": "Rua Seminarista Hélio Limeira",
      "addr:suburb": "Btn 2",
      "building": "yes",
      "description": "CNEFE 2022 Sem Nome"
      },
      "geometry": {
         "type": "Point",
         "coordinates": [-38.2109622,-9.4411537]
      }
    },
    {
      "type": "Feature",
      "properties": { 
      "IBGE:COD_UNICO_ENDERECO": "27419853",
      "addr:housenumber": "847",
      "addr:postcode": "48609-300",
      "addr:street": "Rua da Independência",
      "addr:suburb": "Btn 2",
      "building": "yes"
      },
      "geometry": {
         "type": "Point",
         "coordinates": [-38.2138859,-9.438881]
      }
    },
    {
      "type": "Feature",
      "properties": { 
      "IBGE:COD_UNICO_ENDERECO": "27368911",
      "addr:housenumber": "1724",
      "addr:postcode": "48609-300",
      "addr:street": "Rua da Independência",
      "addr:suburb": "Btn 2",
      "building": "yes"
      },
      "geometry": {
         "type": "Point",
         "coordinates": [-38.2070456,-9.4362018]
      }
    },
    {
      "type": "Feature",
      "properties": { 
      "IBGE:COD_UNICO_ENDERECO": "27368721",
      "addr:housenumber": "1395",
      "addr:postcode": "48609-140",
      "addr:street": "Rua Padre Lourenço",
      "addr:suburb": "Btn 2",
      "addr:unit": "Garagem",
      "amenity": "restaurant",
      "building": "yes",
      "name": "Restaurante Elshaday"
      },
      "geometry": {
         "type": "Point",
         "coordinates": [-38.209953,-9.4379364]
      }
    },
    {
      "type": "Feature",
      "properties": { 
      "IBGE:COD_UNICO_ENDERECO": "27368956",
      "addr:housenumber": "2037",
      "addr:postcode": "48609-325",
      "addr:street": "Avenida Delmiro Gouveia",
      "addr:suburb": "Btn 2",
      "building": "yes"
      },
      "geometry": {
         "type": "Point",
         "coordinates": [-38.2061376,-9.4365528]
      }
    },
    {
      "type": "Feature",
      "properties": { 
      "IBGE:COD_UNICO_ENDERECO": "27420890",
      "addr:housenumber": "1125",
      "addr:postcode": "48609-140",
      "addr:street": "Rua Padre Lourenço",
      "addr:suburb": "Btn 2",
      "building": "yes"
      },
      "geometry": {
         "type": "Point",
         "coordinates": [-38.2120113,-9.4391038]
      }
    },
    {
      "type": "Feature",
      "properties": { 
      "IBGE:COD_UNICO_ENDERECO": "27419854",
      "addr:housenumber": "835",
      "addr:postcode": "48609-300",
      "addr:street": "Rua da Independência",
      "addr:suburb": "Btn 2",
      "building": "yes"
      },
      "geometry": {
         "type": "Point",
         "coordinates": [-38.2140113,-9.4390484]
      }
    },
    {
      "type": "Feature",
      "properties": { 
      "IBGE:COD_UNICO_ENDERECO": "27421005",
      "addr:housenumber": "1082 D",
      "addr:postcode": "48609-140",
      "addr:street": "Rua Padre Lourenço",
      "addr:suburb": "Btn 2",
      "addr:unit": "Térreo",
      "building": "yes"
      },
      "geometry": {
         "type": "Point",
         "coordinates": [-38.212702,-9.4405332]
      }
    },
    {
      "type": "Feature",
      "properties": { 
      "IBGE:COD_UNICO_ENDERECO": "222670757",
      "addr:housenumber": "2",
      "addr:postcode": "48609-300",
      "addr:street": "Rua da Independência",
      "addr:suburb": "Btn 2",
      "addr:unit": "Loja 1",
      "building": "yes",
      "name": "Anatércia Batista"
      },
      "geometry": {
         "type": "Point",
         "coordinates": [-38.2170115,-9.4430459]
      }
    },
    {
      "type": "Feature",
      "properties": { 
      "IBGE:COD_UNICO_ENDERECO": "108727966",
      "addr:housenumber": "1082 A",
      "addr:postcode": "48609-140",
      "addr:street": "Rua Padre Lourenço",
      "addr:suburb": "Btn 2",
      "building": "yes"
      },
      "geometry": {
         "type": "Point",
         "coordinates": [-38.2126655,-9.4404734]
      }
    },
    {
      "type": "Feature",
      "properties": { 
      "IBGE:COD_UNICO_ENDERECO": "27368814",
      "addr:housenumber": "1316 A",
      "addr:postcode": "48609-300",
      "addr:street": "Rua da Independência",
      "addr:suburb": "Btn 2",
      "addr:unit": "Casa Térreo",
      "building": "yes",
      "fixme": "Verificar coordenadas",
      "note": "Sem face no bayface do IBGE 0500-0086P-7-2"
      },
      "geometry": {
         "type": "Point",
         "coordinates": [-38.210988,-9.43635]
      }
    },
    {
      "type": "Feature",
      "properties": { 
      "IBGE:COD_UNICO_ENDERECO": "27356947",
      "addr:housenumber": "352",
      "addr:postcode": "48609-155",
      "addr:street": "Avenida Adauto Pereira",
      "addr:suburb": "Btn 2",
      "building": "yes"
      },
      "geometry": {
         "type": "Point",
         "coordinates": [-38.2088365,-9.44054]
      }
    },
    {
      "type": "Feature",
      "properties": { 
      "IBGE:COD_UNICO_ENDERECO": "27359430",
      "addr:housenumber": "332",
      "addr:postcode": "48609-136",
      "addr:street": "Rua Verdes Campos",
      "addr:suburb": "Btn 2",
      "building": "yes"
      },
      "geometry": {
         "type": "Point",
         "coordinates": [-38.220135,-9.4441415]
      }
    },
    {
      "type": "Feature",
      "properties": { 
      "IBGE:COD_UNICO_ENDERECO": "27420861",
      "addr:housenumber": "290 Loja Térreo",
      "addr:postcode": "48609-222",
      "addr:street": "Rua Alonso Macedo",
      "addr:suburb": "Btn 2",
      "building": "yes",
      "name": "Gracinhas Modas",
      "shop": "clothes"
      },
      "geometry": {
         "type": "Point",
         "coordinates": [-38.2118322,-9.4380805]
      }
    },
    {
      "type": "Feature",
      "properties": { 
      "IBGE:COD_UNICO_ENDERECO": "194560523",
      "addr:housenumber": "320",
      "addr:postcode": "48609-230",
      "addr:street": "Rua Raso da Catarina",
      "addr:suburb": "Btn 2",
      "building": "yes"
      },
      "geometry": {
         "type": "Point",
         "coordinates": [-38.2107848,-9.4420771]
      }
    },
    {
      "type": "Feature",
      "properties": { 
      "IBGE:COD_UNICO_ENDERECO": "191402523",
      "addr:housenumber": "419",
      "addr:postcode": "48609-110",
      "addr:street": "Rua do Emissário",
      "addr:suburb": "Btn 2",
      "building": "construction"
      },
      "geometry": {
         "type": "Point",
         "coordinates": [-38.2144277,-9.4381414]
      }
    },
    {
      "type": "Feature",
      "properties": { 
      "IBGE:COD_UNICO_ENDERECO": "27369870",
      "addr:housenumber": "1390 Térreo",
      "addr:postcode": "48609-310",
      "addr:street": "Rua Chico Mendes",
      "addr:suburb": "Btn 2",
      "building": "garage",
      "description": "CNEFE 2022 Garagem"
      },
      "geometry": {
         "type": "Point",
         "coordinates": [-38.2101128,-9.4406908]
      }
    },
    {
      "type": "Feature",
      "properties": { 
      "IBGE:COD_UNICO_ENDERECO": "27419762",
      "addr:housenumber": "732",
      "addr:postcode": "48609-116",
      "addr:street": "Rua Nova",
      "addr:suburb": "Btn 2",
      "building": "yes"
      },
      "geometry": {
         "type": "Point",
         "coordinates": [-38.2133946,-9.4374204]
      }
    },
    {
      "type": "Feature",
      "properties": { 
      "IBGE:COD_UNICO_ENDERECO": "27356887",
      "addr:housenumber": "44",
      "addr:postcode": "48609-160",
      "addr:street": "Rua 7 de Setembro",
      "addr:suburb": "Btn 2",
      "building": "yes"
      },
      "geometry": {
         "type": "Point",
         "coordinates": [-38.2083619,-9.4387724]
      }
    },
    {
      "type": "Feature",
      "properties": { 
      "IBGE:COD_UNICO_ENDERECO": "191402774",
      "addr:housenumber": "1105 A",
      "addr:postcode": "48609-238",
      "addr:street": "Avenida Delmiro Gouveia",
      "addr:suburb": "Btn 2",
      "building": "yes",
      "name": "Sna Cks Beer"
      },
      "geometry": {
         "type": "Point",
         "coordinates": [-38.2135021,-9.4398309]
      }
    },
    {
      "type": "Feature",
      "properties": { 
      "IBGE:COD_UNICO_ENDERECO": "27359393-27359394",
      "addr:housenumber": "147",
      "addr:postcode": "48609-220",
      "addr:street": "Rua Tomé de Sousa",
      "addr:suburb": "Btn 2",
      "building": "yes"
      },
      "geometry": {
         "type": "Point",
         "coordinates": [-38.220915,-9.4446337]
      }
    },
    {
      "type": "Feature",
      "properties": { 
      "IBGE:COD_UNICO_ENDERECO": "222670776",
      "addr:housenumber": "238",
      "addr:postcode": "48609-162",
      "addr:street": "Rua Caxangá",
      "addr:suburb": "Btn 2",
      "building": "yes",
      "name": "Vendinha Ângela",
      "shop": "convenience"
      },
      "geometry": {
         "type": "Point",
         "coordinates": [-38.2163643,-9.4432467]
      }
    },
    {
      "type": "Feature",
      "properties": { 
      "IBGE:COD_UNICO_ENDERECO": "27420880",
      "addr:housenumber": "1207 A",
      "addr:postcode": "48609-140",
      "addr:street": "Rua Padre Lourenço",
      "addr:suburb": "Btn 2",
      "addr:unit": "Fundos",
      "building": "yes"
      },
      "geometry": {
         "type": "Point",
         "coordinates": [-38.2117186,-9.4385198]
      }
    },
    {
      "type": "Feature",
      "properties": { 
      "IBGE:COD_UNICO_ENDERECO": "27356895",
      "addr:housenumber": "56",
      "addr:postcode": "48609-160",
      "addr:street": "Rua 7 de Setembro",
      "addr:suburb": "Btn 2",
      "building": "yes"
      },
      "geometry": {
         "type": "Point",
         "coordinates": [-38.2082569,-9.4387691]
      }
    },
    {
      "type": "Feature",
      "properties": { 
      "IBGE:COD_UNICO_ENDERECO": "27368663",
      "addr:housenumber": "1567",
      "addr:postcode": "48609-140",
      "addr:street": "Rua Padre Lourenço",
      "addr:suburb": "Btn 2",
      "building": "yes"
      },
      "geometry": {
         "type": "Point",
         "coordinates": [-38.2078697,-9.4379565]
      }
    },
    {
      "type": "Feature",
      "properties": { 
      "IBGE:COD_UNICO_ENDERECO": "27369946",
      "addr:housenumber": "1229",
      "addr:postcode": "48609-310",
      "addr:street": "Rua Chico Mendes",
      "addr:suburb": "Btn 2",
      "building": "yes"
      },
      "geometry": {
         "type": "Point",
         "coordinates": [-38.2102451,-9.4411301]
      }
    },
    {
      "type": "Feature",
      "properties": { 
      "IBGE:COD_UNICO_ENDERECO": "27359460",
      "addr:housenumber": "126",
      "addr:postcode": "48609-300",
      "addr:street": "Rua da Independência",
      "addr:suburb": "Btn 2",
      "building": "yes"
      },
      "geometry": {
         "type": "Point",
         "coordinates": [-38.2185952,-9.4434113]
      }
    },
    {
      "type": "Feature",
      "properties": { 
      "IBGE:COD_UNICO_ENDERECO": "27368670",
      "addr:housenumber": "1513",
      "addr:postcode": "48609-140",
      "addr:street": "Rua Padre Lourenço",
      "addr:suburb": "Btn 2",
      "building": "yes"
      },
      "geometry": {
         "type": "Point",
         "coordinates": [-38.2085947,-9.4379653]
      }
    },
    {
      "type": "Feature",
      "properties": { 
      "IBGE:COD_UNICO_ENDERECO": "27369996",
      "addr:housenumber": "425 A",
      "addr:postcode": "48609-230",
      "addr:street": "Rua Raso da Catarina",
      "addr:suburb": "Btn 2",
      "building": "yes"
      },
      "geometry": {
         "type": "Point",
         "coordinates": [-38.2106757,-9.4415119]
      }
    },
    {
      "type": "Feature",
      "properties": { 
      "IBGE:COD_UNICO_ENDERECO": "27368932",
      "addr:housenumber": "1735",
      "addr:postcode": "48609-325",
      "addr:street": "Avenida Delmiro Gouveia",
      "addr:suburb": "Btn 2",
      "building": "construction"
      },
      "geometry": {
         "type": "Point",
         "coordinates": [-38.2086693,-9.4370946]
      }
    },
    {
      "type": "Feature",
      "properties": { 
      "IBGE:COD_UNICO_ENDERECO": "27369944",
      "addr:housenumber": "1255",
      "addr:postcode": "48609-310",
      "addr:street": "Rua Chico Mendes",
      "addr:suburb": "Btn 2",
      "building": "yes"
      },
      "geometry": {
         "type": "Point",
         "coordinates": [-38.2102615,-9.4408269]
      }
    },
    {
      "type": "Feature",
      "properties": { 
      "IBGE:COD_UNICO_ENDERECO": "194560488",
      "addr:housenumber": "320 Térreo",
      "addr:postcode": "48609-172",
      "addr:street": "Rua Senhor do Bonfim",
      "addr:suburb": "Btn 2",
      "building": "yes"
      },
      "geometry": {
         "type": "Point",
         "coordinates": [-38.2098749,-9.4410985]
      }
    },
    {
      "type": "Feature",
      "properties": { 
      "IBGE:COD_UNICO_ENDERECO": "27357241",
      "addr:housenumber": "14",
      "addr:postcode": "48609-070",
      "addr:street": "Rua Epitácio Pessoa",
      "addr:suburb": "Btn 2",
      "addr:unit": "Casa",
      "building": "yes"
      },
      "geometry": {
         "type": "Point",
         "coordinates": [-38.2136525,-9.4355551]
      }
    },
    {
      "type": "Feature",
      "properties": { 
      "IBGE:COD_UNICO_ENDERECO": "191548038",
      "addr:housenumber": "198 B",
      "addr:postcode": "48609-160",
      "addr:street": "Rua 7 de Setembro",
      "addr:suburb": "Btn 2",
      "building": "yes"
      },
      "geometry": {
         "type": "Point",
         "coordinates": [-38.2068829,-9.438575]
      }
    },
    {
      "type": "Feature",
      "properties": { 
      "IBGE:COD_UNICO_ENDERECO": "191392714",
      "addr:housenumber": "25",
      "addr:postcode": "48609-116",
      "addr:street": "Rua Nova",
      "addr:suburb": "Btn 2",
      "addr:unit": "Traco 1",
      "building": "yes"
      },
      "geometry": {
         "type": "Point",
         "coordinates": [-38.2118175,-9.4360153]
      }
    },
    {
      "type": "Feature",
      "properties": { 
      "IBGE:COD_UNICO_ENDERECO": "27419866",
      "addr:housenumber": "687",
      "addr:postcode": "48609-300",
      "addr:street": "Rua da Independência",
      "addr:suburb": "Btn 2",
      "building": "yes"
      },
      "geometry": {
         "type": "Point",
         "coordinates": [-38.2145721,-9.4399714]
      }
    },
    {
      "type": "Feature",
      "properties": { 
      "IBGE:COD_UNICO_ENDERECO": "27368847",
      "addr:housenumber": "1581",
      "addr:postcode": "48609-325",
      "addr:street": "Avenida Delmiro Gouveia",
      "addr:suburb": "Btn 2",
      "addr:unit": "Fundos",
      "amenity": "pub",
      "building": "yes",
      "fixme": "Verificar coordenadas",
      "name": "Duquinhas Bar",
      "note": "Sem face no bayface do IBGE 0500-0086P-7-5"
      },
      "geometry": {
         "type": "Point",
         "coordinates": [-38.210499955828,-9.4371091616562]
      }
    },
    {
      "type": "Feature",
      "properties": { 
      "IBGE:COD_UNICO_ENDERECO": "27419802;27419804",
      "addr:housenumber": "1193",
      "addr:postcode": "48609-238",
      "addr:street": "Avenida Delmiro Gouveia",
      "addr:suburb": "Btn 2",
      "building": "yes"
      },
      "geometry": {
         "type": "Point",
         "coordinates": [-38.2131151,-9.4391927]
      }
    },
    {
      "type": "Feature",
      "properties": { 
      "IBGE:COD_UNICO_ENDERECO": "27356693",
      "addr:housenumber": "26",
      "addr:postcode": "48609-196",
      "addr:street": "Rua do Planalto",
      "addr:suburb": "Btn 2",
      "building": "construction"
      },
      "geometry": {
         "type": "Point",
         "coordinates": [-38.2094993,-9.4383459]
      }
    },
    {
      "type": "Feature",
      "properties": { 
      "IBGE:COD_UNICO_ENDERECO": "27359621",
      "addr:housenumber": "587",
      "addr:postcode": "48609-124",
      "addr:street": "Avenida Delmiro Gouveia",
      "addr:suburb": "Btn 2",
      "building": "yes",
      "healthcare": "yes",
      "name": "Clínica Estética Cheflera",
      "shop": "beauty"
      },
      "geometry": {
         "type": "Point",
         "coordinates": [-38.2169051,-9.4435399]
      }
    },
    {
      "type": "Feature",
      "properties": { 
      "IBGE:COD_UNICO_ENDERECO": "27356996",
      "addr:housenumber": "348",
      "addr:postcode": "48611-142",
      "addr:street": "Rua do Planalto",
      "addr:suburb": "Btn 2",
      "building": "yes"
      },
      "geometry": {
         "type": "Point",
         "coordinates": [-38.2093567,-9.4413361]
      }
    },
    {
      "type": "Feature",
      "properties": { 
      "IBGE:COD_UNICO_ENDERECO": "27368781",
      "addr:housenumber": "1592",
      "addr:postcode": "48609-325",
      "addr:street": "Avenida Delmiro Gouveia",
      "addr:suburb": "Btn 2",
      "building": "yes"
      },
      "geometry": {
         "type": "Point",
         "coordinates": [-38.2093732,-9.437239]
      }
    },
    {
      "type": "Feature",
      "properties": { 
      "IBGE:COD_UNICO_ENDERECO": "27359419",
      "addr:housenumber": "147 Térreo A",
      "addr:postcode": "48609-124",
      "addr:street": "Avenida Delmiro Gouveia",
      "addr:suburb": "Btn 2",
      "building": "yes",
      "name": "Pci Imobiliária",
      "office": "estate_agent"
      },
      "geometry": {
         "type": "Point",
         "coordinates": [-38.2206877,-9.4452232]
      }
    },
    {
      "type": "Feature",
      "properties": { 
      "IBGE:COD_UNICO_ENDERECO": "27368771",
      "addr:housenumber": "1496",
      "addr:postcode": "48609-325",
      "addr:street": "Avenida Delmiro Gouveia",
      "addr:suburb": "Btn 2",
      "building": "yes"
      },
      "geometry": {
         "type": "Point",
         "coordinates": [-38.2102981,-9.4372302]
      }
    },
    {
      "type": "Feature",
      "properties": { 
      "IBGE:COD_UNICO_ENDERECO": "27368810",
      "addr:housenumber": "1488",
      "addr:postcode": "48609-300",
      "addr:street": "Rua da Independência",
      "addr:suburb": "Btn 2",
      "building": "yes",
      "fixme": "Verificar coordenadas",
      "name": "Mercearia da Taty",
      "note": "Sem face no bayface do IBGE 0500-0086P-7-2",
      "shop": "convenience"
      },
      "geometry": {
         "type": "Point",
         "coordinates": [-38.209416,-9.436329]
      }
    },
    {
      "type": "Feature",
      "properties": { 
      "IBGE:COD_UNICO_ENDERECO": "27368842",
      "addr:housenumber": "1647",
      "addr:postcode": "48609-325",
      "addr:street": "Avenida Delmiro Gouveia",
      "addr:suburb": "Btn 2",
      "building": "yes",
      "fixme": "Verificar coordenadas",
      "note": "Sem face no bayface do IBGE 0500-0086P-7-5"
      },
      "geometry": {
         "type": "Point",
         "coordinates": [-38.209917,-9.437073]
      }
    },
    {
      "type": "Feature",
      "properties": { 
      "IBGE:COD_UNICO_ENDERECO": "191392592",
      "addr:housenumber": "1141",
      "addr:postcode": "48609-300",
      "addr:street": "Rua da Independência",
      "addr:suburb": "Btn 2",
      "building": "yes"
      },
      "geometry": {
         "type": "Point",
         "coordinates": [-38.2125182,-9.4368562]
      }
    },
    {
      "type": "Feature",
      "properties": { 
      "IBGE:COD_UNICO_ENDERECO": "27356943",
      "addr:housenumber": "266 Frente",
      "addr:postcode": "48609-155",
      "addr:street": "Avenida Adauto Pereira",
      "addr:suburb": "Btn 2",
      "building": "yes"
      },
      "geometry": {
         "type": "Point",
         "coordinates": [-38.2088937,-9.4398871]
      }
    },
    {
      "type": "Feature",
      "properties": { 
      "IBGE:COD_UNICO_ENDERECO": "27419748",
      "addr:housenumber": "610",
      "addr:postcode": "48609-116",
      "addr:street": "Rua Nova",
      "addr:suburb": "Btn 2",
      "building": "yes"
      },
      "geometry": {
         "type": "Point",
         "coordinates": [-38.2139449,-9.4383173]
      }
    },
    {
      "type": "Feature",
      "properties": { 
      "IBGE:COD_UNICO_ENDERECO": "27356976",
      "addr:housenumber": "261 B",
      "addr:postcode": "48609-196",
      "addr:street": "Rua do Planalto",
      "addr:suburb": "Btn 2",
      "building": "yes"
      },
      "geometry": {
         "type": "Point",
         "coordinates": [-38.2092164,-9.4405846]
      }
    },
    {
      "type": "Feature",
      "properties": { 
      "IBGE:COD_UNICO_ENDERECO": "191402912",
      "addr:housenumber": "416",
      "addr:postcode": "48609-110",
      "addr:street": "Rua do Emissário",
      "addr:suburb": "Btn 2",
      "building": "yes"
      },
      "geometry": {
         "type": "Point",
         "coordinates": [-38.2147359,-9.4386338]
      }
    },
    {
      "type": "Feature",
      "properties": { 
      "IBGE:COD_UNICO_ENDERECO": "27420976",
      "addr:housenumber": "1251 Térreo",
      "addr:postcode": "48609-180",
      "addr:street": "Rua Olavo Bilac",
      "addr:suburb": "Btn 2",
      "building": "yes"
      },
      "geometry": {
         "type": "Point",
         "coordinates": [-38.2107912,-9.4384758]
      }
    },
    {
      "type": "Feature",
      "properties": { 
      "IBGE:COD_UNICO_ENDERECO": "27356814",
      "addr:housenumber": "2002",
      "addr:postcode": "48609-140",
      "addr:street": "Rua Padre Lourenço",
      "addr:suburb": "Btn 2",
      "building": "yes"
      },
      "geometry": {
         "type": "Point",
         "coordinates": [-38.2059578,-9.4375591]
      }
    },
    {
      "type": "Feature",
      "properties": { 
      "IBGE:COD_UNICO_ENDERECO": "191392451",
      "addr:housenumber": "1273",
      "addr:postcode": "48609-300",
      "addr:street": "Rua da Independência",
      "addr:suburb": "Btn 2",
      "building": "yes"
      },
      "geometry": {
         "type": "Point",
         "coordinates": [-38.2114942,-9.4363051]
      }
    },
    {
      "type": "Feature",
      "properties": { 
      "IBGE:COD_UNICO_ENDERECO": "27368752",
      "addr:housenumber": "1306",
      "addr:postcode": "48609-325",
      "addr:street": "Avenida Delmiro Gouveia",
      "addr:suburb": "Btn 2",
      "building": "yes"
      },
      "geometry": {
         "type": "Point",
         "coordinates": [-38.2117514,-9.4375558]
      }
    },
    {
      "type": "Feature",
      "properties": { 
      "IBGE:COD_UNICO_ENDERECO": "108727949",
      "addr:housenumber": "375 Sobreloja",
      "addr:postcode": "48609-184",
      "addr:street": "Rua Afonso Raimundo do Nascimento",
      "addr:suburb": "Btn 2",
      "building": "warehouse",
      "description": "CNEFE 2022 Depósito"
      },
      "geometry": {
         "type": "Point",
         "coordinates": [-38.213339,-9.4409494]
      }
    },
    {
      "type": "Feature",
      "properties": { 
      "IBGE:COD_UNICO_ENDERECO": "27420941",
      "addr:housenumber": "367",
      "addr:postcode": "48609-184",
      "addr:street": "Rua Afonso Raimundo do Nascimento",
      "addr:suburb": "Btn 2",
      "amenity": "pub",
      "building": "yes",
      "name": "Bar de Zé Vítor"
      },
      "geometry": {
         "type": "Point",
         "coordinates": [-38.2133661,-9.4409327]
      }
    },
    {
      "type": "Feature",
      "properties": { 
      "IBGE:COD_UNICO_ENDERECO": "27420915",
      "addr:housenumber": "961",
      "addr:postcode": "48609-140",
      "addr:street": "Rua Padre Lourenço",
      "addr:suburb": "Btn 2",
      "building": "yes",
      "name": "Dedé Barreiro Conserto de Panelas"
      },
      "geometry": {
         "type": "Point",
         "coordinates": [-38.212825,-9.4404364]
      }
    },
    {
      "type": "Feature",
      "properties": { 
      "IBGE:COD_UNICO_ENDERECO": "27419881",
      "addr:housenumber": "484",
      "addr:postcode": "48609-116",
      "addr:street": "Rua Nova",
      "addr:suburb": "Btn 2",
      "building": "yes"
      },
      "geometry": {
         "type": "Point",
         "coordinates": [-38.214631,-9.4394314]
      }
    },
    {
      "type": "Feature",
      "properties": { 
      "IBGE:COD_UNICO_ENDERECO": "191392771",
      "addr:housenumber": "24",
      "addr:postcode": "48609-070",
      "addr:street": "Rua Epitácio Pessoa",
      "addr:suburb": "Btn 2",
      "building": "warehouse",
      "description": "CNEFE 2022 Depósito de Bombas"
      },
      "geometry": {
         "type": "Point",
         "coordinates": [-38.2120494,-9.4341259]
      }
    },
    {
      "type": "Feature",
      "properties": { 
      "IBGE:COD_UNICO_ENDERECO": "27369984",
      "addr:housenumber": "567",
      "addr:postcode": "48609-230",
      "addr:street": "Rua Raso da Catarina",
      "addr:suburb": "Btn 2",
      "building": "yes"
      },
      "geometry": {
         "type": "Point",
         "coordinates": [-38.210652,-9.4401465]
      }
    },
    {
      "type": "Feature",
      "properties": { 
      "IBGE:COD_UNICO_ENDERECO": "27368763",
      "addr:housenumber": "1416",
      "addr:postcode": "48609-325",
      "addr:street": "Avenida Delmiro Gouveia",
      "addr:suburb": "Btn 2",
      "addr:unit": "Fundos",
      "building": "yes"
      },
      "geometry": {
         "type": "Point",
         "coordinates": [-38.2108459,-9.4372774]
      }
    },
    {
      "type": "Feature",
      "properties": { 
      "IBGE:COD_UNICO_ENDERECO": "27369842",
      "addr:housenumber": "122",
      "addr:postcode": "48609-172",
      "addr:street": "Rua Senhor do Bonfim",
      "addr:suburb": "Btn 2",
      "building": "yes",
      "craft": "carpenter",
      "name": "Marcenaria sem Nome"
      },
      "geometry": {
         "type": "Point",
         "coordinates": [-38.2099724,-9.4392665]
      }
    },
    {
      "type": "Feature",
      "properties": { 
      "IBGE:COD_UNICO_ENDERECO": "27356803",
      "addr:housenumber": "1892",
      "addr:postcode": "48609-140",
      "addr:street": "Rua Padre Lourenço",
      "addr:suburb": "Btn 2",
      "building": "yes"
      },
      "geometry": {
         "type": "Point",
         "coordinates": [-38.2066812,-9.4378885]
      }
    },
    {
      "type": "Feature",
      "properties": { 
      "IBGE:COD_UNICO_ENDERECO": "27356908",
      "addr:housenumber": "314",
      "addr:postcode": "48609-206",
      "addr:street": "Rua Pitanga",
      "addr:suburb": "Btn 2",
      "building": "yes"
      },
      "geometry": {
         "type": "Point",
         "coordinates": [-38.2083024,-9.4393774]
      }
    },
    {
      "type": "Feature",
      "properties": { 
      "IBGE:COD_UNICO_ENDERECO": "194560505",
      "addr:housenumber": "37",
      "addr:postcode": "48609-184",
      "addr:street": "Rua Afonso Raimundo do Nascimento",
      "addr:suburb": "Btn 2",
      "building": "yes",
      "name": "Mundo Animal"
      },
      "geometry": {
         "type": "Point",
         "coordinates": [-38.2103216,-9.4427907]
      }
    },
    {
      "type": "Feature",
      "properties": { 
      "IBGE:COD_UNICO_ENDERECO": "222670667",
      "addr:housenumber": "1",
      "addr:postcode": "48609-144",
      "addr:street": "Rua Santa Rita",
      "addr:suburb": "Btn 2",
      "addr:unit": "1",
      "description": "CNEFE 2022 Loja Vaga",
      "disused:building": "yes",
      "disused:shop": "yes"
      },
      "geometry": {
         "type": "Point",
         "coordinates": [-38.2197139,-9.4436764]
      }
    },
    {
      "type": "Feature",
      "properties": { 
      "IBGE:COD_UNICO_ENDERECO": "191541993",
      "addr:housenumber": "83 A",
      "addr:postcode": "48609-114",
      "addr:street": "Rua Castro Alves",
      "addr:suburb": "Btn 2",
      "building": "yes",
      "fixme": "Verificar coordenadas",
      "note": "Sem face no bayface do IBGE 0500-0074P-13-1"
      },
      "geometry": {
         "type": "Point",
         "coordinates": [-38.22169,-9.443827]
      }
    },
    {
      "type": "Feature",
      "properties": { 
      "IBGE:COD_UNICO_ENDERECO": "194560543",
      "addr:housenumber": "1153",
      "addr:postcode": "48609-310",
      "addr:street": "Rua Chico Mendes",
      "addr:suburb": "Btn 2",
      "building": "yes"
      },
      "geometry": {
         "type": "Point",
         "coordinates": [-38.2102952,-9.4418711]
      }
    },
    {
      "type": "Feature",
      "properties": { 
      "IBGE:COD_UNICO_ENDERECO": "217300775",
      "addr:housenumber": "455 A",
      "addr:postcode": "48611-102",
      "addr:street": "Rua Senhor do Bonfim",
      "addr:suburb": "Btn 2",
      "amenity": "kindergarten;school",
      "building": "yes",
      "name": "Escolinha Pequeno Aprendiz"
      },
      "geometry": {
         "type": "Point",
         "coordinates": [-38.2096566,-9.4421744]
      }
    },
    {
      "type": "Feature",
      "properties": { 
      "IBGE:COD_UNICO_ENDERECO": "222670796",
      "addr:housenumber": "449",
      "addr:postcode": "48609-124",
      "addr:street": "Avenida Delmiro Gouveia",
      "addr:suburb": "Btn 2",
      "building": "yes",
      "name": "Pizzatia do Ezequiel"
      },
      "geometry": {
         "type": "Point",
         "coordinates": [-38.2182037,-9.4438061]
      }
    },
    {
      "type": "Feature",
      "properties": { 
      "IBGE:COD_UNICO_ENDERECO": "27357145;27357194",
      "addr:housenumber": "268",
      "addr:postcode": "48609-226",
      "addr:street": "Rua Barão de Mauá",
      "addr:suburb": "Btn 2",
      "building": "construction"
      },
      "geometry": {
         "type": "Point",
         "coordinates": [-38.2095933,-9.4356994]
      }
    },
    {
      "type": "Feature",
      "properties": { 
      "IBGE:COD_UNICO_ENDERECO": "27356777",
      "addr:housenumber": "1874",
      "addr:postcode": "48609-140",
      "addr:street": "Rua Padre Lourenço",
      "addr:suburb": "Btn 2",
      "building": "yes"
      },
      "geometry": {
         "type": "Point",
         "coordinates": [-38.2068545,-9.4379831]
      }
    },
    {
      "type": "Feature",
      "properties": { 
      "IBGE:COD_UNICO_ENDERECO": "27356949",
      "addr:housenumber": "402",
      "addr:postcode": "48609-155",
      "addr:street": "Avenida Adauto Pereira",
      "addr:suburb": "Btn 2",
      "building": "yes"
      },
      "geometry": {
         "type": "Point",
         "coordinates": [-38.2088371,-9.4409591]
      }
    },
    {
      "type": "Feature",
      "properties": { 
      "IBGE:COD_UNICO_ENDERECO": "194560526",
      "addr:housenumber": "324",
      "addr:postcode": "48609-230",
      "addr:street": "Rua Raso da Catarina",
      "addr:suburb": "Btn 2",
      "building": "yes"
      },
      "geometry": {
         "type": "Point",
         "coordinates": [-38.2106939,-9.4419374]
      }
    },
    {
      "type": "Feature",
      "properties": { 
      "IBGE:COD_UNICO_ENDERECO": "27357230",
      "addr:housenumber": "795",
      "addr:postcode": "48609-116",
      "addr:street": "Rua Nova",
      "addr:suburb": "Btn 2",
      "building": "yes"
      },
      "geometry": {
         "type": "Point",
         "coordinates": [-38.2130153,-9.4368171]
      }
    },
    {
      "type": "Feature",
      "properties": { 
      "IBGE:COD_UNICO_ENDERECO": "191548231",
      "addr:housenumber": "3",
      "addr:postcode": "48609-202",
      "addr:street": "Rua Duque de Caxias",
      "addr:suburb": "Btn 2",
      "building": "warehouse",
      "description": "CNEFE 2022 Depósito"
      },
      "geometry": {
         "type": "Point",
         "coordinates": [-38.2081169,-9.4397061]
      }
    },
    {
      "type": "Feature",
      "properties": { 
      "IBGE:COD_UNICO_ENDERECO": "191392710",
      "addr:housenumber": "967 A",
      "addr:postcode": "48609-116",
      "addr:street": "Rua Nova",
      "addr:suburb": "Btn 2",
      "building": "yes"
      },
      "geometry": {
         "type": "Point",
         "coordinates": [-38.2117452,-9.435925]
      }
    },
    {
      "type": "Feature",
      "properties": { 
      "IBGE:COD_UNICO_ENDERECO": "27368785",
      "addr:housenumber": "56",
      "addr:postcode": "48609-155",
      "addr:street": "Avenida Adauto Pereira",
      "addr:suburb": "Btn 2",
      "building": "yes"
      },
      "geometry": {
         "type": "Point",
         "coordinates": [-38.2090361,-9.4375512]
      }
    },
    {
      "type": "Feature",
      "properties": { 
      "IBGE:COD_UNICO_ENDERECO": "222670634",
      "addr:housenumber": "131 Lado",
      "addr:postcode": "48609-124",
      "addr:street": "Avenida Delmiro Gouveia",
      "addr:suburb": "Btn 2",
      "amenity": "restaurant",
      "building": "yes",
      "cuisine": "pizza",
      "name": "Casa da Pizza"
      },
      "geometry": {
         "type": "Point",
         "coordinates": [-38.220795,-9.4453417]
      }
    },
    {
      "type": "Feature",
      "properties": { 
      "IBGE:COD_UNICO_ENDERECO": "27359551",
      "addr:housenumber": "70",
      "addr:postcode": "48609-340",
      "addr:street": "Rua Riacho Seco",
      "addr:suburb": "Btn 2",
      "building": "yes"
      },
      "geometry": {
         "type": "Point",
         "coordinates": [-38.2179096,-9.4427477]
      }
    },
    {
      "type": "Feature",
      "properties": { 
      "IBGE:COD_UNICO_ENDERECO": "27357258",
      "addr:housenumber": "56",
      "addr:postcode": "48609-072",
      "addr:street": "Travessa Boa Esperança",
      "addr:suburb": "Btn 2",
      "building": "yes",
      "fixme": "Verificar coordenadas",
      "note": "Sem dados para mover para dentro da quadra 0500-0044P-6-10"
      },
      "geometry": {
         "type": "Point",
         "coordinates": [-38.2140954,-9.4338852]
      }
    },
    {
      "type": "Feature",
      "properties": { 
      "IBGE:COD_UNICO_ENDERECO": "27359389",
      "addr:housenumber": "190",
      "addr:postcode": "48609-130",
      "addr:street": "Rua Gláuber Rocha",
      "addr:suburb": "Btn 2",
      "building": "yes"
      },
      "geometry": {
         "type": "Point",
         "coordinates": [-38.2209406,-9.4440003]
      }
    },
    {
      "type": "Feature",
      "properties": { 
      "IBGE:COD_UNICO_ENDERECO": "217300584",
      "addr:housenumber": "45",
      "addr:postcode": "48609-188",
      "addr:street": "Travessa Planalto",
      "addr:suburb": "Btn 2",
      "building": "yes"
      },
      "geometry": {
         "type": "Point",
         "coordinates": [-38.2095803,-9.44035]
      }
    },
    {
      "type": "Feature",
      "properties": { 
      "IBGE:COD_UNICO_ENDERECO": "27357191",
      "addr:housenumber": "50",
      "addr:postcode": "48609-155",
      "addr:street": "Rua Adauto Pereira",
      "addr:suburb": "Btn 2",
      "building": "yes"
      },
      "geometry": {
         "type": "Point",
         "coordinates": [-38.2091977,-9.4360286]
      }
    },
    {
      "type": "Feature",
      "properties": { 
      "IBGE:COD_UNICO_ENDERECO": "27356951",
      "addr:housenumber": "450",
      "addr:postcode": "48609-155",
      "addr:street": "Avenida Adauto Pereira",
      "addr:suburb": "Btn 2",
      "building": "yes"
      },
      "geometry": {
         "type": "Point",
         "coordinates": [-38.2088129,-9.4414224]
      }
    },
    {
      "type": "Feature",
      "properties": { 
      "IBGE:COD_UNICO_ENDERECO": "191392367",
      "addr:housenumber": "1206",
      "addr:postcode": "48609-116",
      "addr:street": "Rua Nova",
      "addr:suburb": "Btn 2",
      "building": "yes"
      },
      "geometry": {
         "type": "Point",
         "coordinates": [-38.2100337,-9.4350157]
      }
    },
    {
      "type": "Feature",
      "properties": { 
      "IBGE:COD_UNICO_ENDERECO": "27356751",
      "addr:housenumber": "164 A",
      "addr:postcode": "48609-155",
      "addr:street": "Avenida Adauto Pereira",
      "addr:suburb": "Btn 2",
      "building": "yes"
      },
      "geometry": {
         "type": "Point",
         "coordinates": [-38.2089292,-9.4387723]
      }
    },
    {
      "type": "Feature",
      "properties": { 
      "IBGE:COD_UNICO_ENDERECO": "27368957",
      "addr:housenumber": "2065",
      "addr:postcode": "48609-325",
      "addr:street": "Avenida Delmiro Gouveia",
      "addr:suburb": "Btn 2",
      "building": "yes"
      },
      "geometry": {
         "type": "Point",
         "coordinates": [-38.2058525,-9.4363735]
      }
    },
    {
      "type": "Feature",
      "properties": { 
      "IBGE:COD_UNICO_ENDERECO": "27369972",
      "addr:housenumber": "540",
      "addr:postcode": "48609-190",
      "addr:street": "Rua Seminarista Hélio Limeira",
      "addr:suburb": "Btn 2",
      "building": "yes"
      },
      "geometry": {
         "type": "Point",
         "coordinates": [-38.2109242,-9.4409025]
      }
    },
    {
      "type": "Feature",
      "properties": { 
      "IBGE:COD_UNICO_ENDERECO": "27366026",
      "addr:housenumber": "400",
      "addr:postcode": "48609-048",
      "addr:street": "Rua São Paulo",
      "addr:suburb": "Btn 2",
      "building": "warehouse",
      "description": "CNEFE 2022 Depósito de Material Elétrico"
      },
      "geometry": {
         "type": "Point",
         "coordinates": [-38.2222026,-9.4438412]
      }
    },
    {
      "type": "Feature",
      "properties": { 
      "IBGE:COD_UNICO_ENDERECO": "108727941",
      "addr:housenumber": "1135 Fundos Térreo",
      "addr:postcode": "48609-140",
      "addr:street": "Rua Padre Lourenço",
      "addr:suburb": "Btn 2",
      "building": "yes"
      },
      "geometry": {
         "type": "Point",
         "coordinates": [-38.2120422,-9.4391543]
      }
    },
    {
      "type": "Feature",
      "properties": { 
      "IBGE:COD_UNICO_ENDERECO": "27369811",
      "addr:housenumber": "712",
      "addr:postcode": "48609-230",
      "addr:street": "Rua Raso da Catarina",
      "addr:suburb": "Btn 2",
      "building": "yes"
      },
      "geometry": {
         "type": "Point",
         "coordinates": [-38.2106666,-9.4392132]
      }
    },
    {
      "type": "Feature",
      "properties": { 
      "IBGE:COD_UNICO_ENDERECO": "27356940",
      "addr:housenumber": "355",
      "addr:postcode": "48609-155",
      "addr:street": "Avenida Adauto Pereira",
      "addr:suburb": "Btn 2",
      "building": "yes"
      },
      "geometry": {
         "type": "Point",
         "coordinates": [-38.2086136,-9.4399796]
      }
    },
    {
      "type": "Feature",
      "properties": { 
      "IBGE:COD_UNICO_ENDERECO": "27369988",
      "addr:housenumber": "503",
      "addr:postcode": "48609-230",
      "addr:street": "Rua Raso da Catarina",
      "addr:suburb": "Btn 2",
      "building": "yes"
      },
      "geometry": {
         "type": "Point",
         "coordinates": [-38.210626,-9.4406319]
      }
    },
    {
      "type": "Feature",
      "properties": { 
      "IBGE:COD_UNICO_ENDERECO": "27359594",
      "addr:housenumber": "222",
      "addr:postcode": "48609-300",
      "addr:street": "Rua da Independência",
      "addr:suburb": "Btn 2",
      "building": "yes"
      },
      "geometry": {
         "type": "Point",
         "coordinates": [-38.2177792,-9.4434234]
      }
    },
    {
      "type": "Feature",
      "properties": { 
      "IBGE:COD_UNICO_ENDERECO": "27419850",
      "addr:housenumber": "24",
      "addr:postcode": "48609-298",
      "addr:street": "Travessa da Independência",
      "addr:suburb": "Btn 2",
      "building": "yes",
      "fixme": "Verificar coordenadas",
      "note": "Sem face no bayface do IBGE 0500-0141P-5-1"
      },
      "geometry": {
         "type": "Point",
         "coordinates": [-38.213873,-9.438804]
      }
    },
    {
      "type": "Feature",
      "properties": { 
      "IBGE:COD_UNICO_ENDERECO": "27368828",
      "addr:housenumber": "1472",
      "addr:postcode": "48609-300",
      "addr:street": "Rua da Independência",
      "addr:suburb": "Btn 2",
      "building": "yes",
      "fixme": "Verificar coordenadas",
      "note": "Sem face no bayface do IBGE 0500-0086P-7-2"
      },
      "geometry": {
         "type": "Point",
         "coordinates": [-38.209633,-9.43637]
      }
    },
    {
      "type": "Feature",
      "properties": { 
      "IBGE:COD_UNICO_ENDERECO": "27369821",
      "addr:housenumber": "1516",
      "addr:postcode": "48609-310",
      "addr:street": "Rua Chico Mendes",
      "addr:suburb": "Btn 2",
      "building": "yes"
      },
      "geometry": {
         "type": "Point",
         "coordinates": [-38.2101847,-9.4393628]
      }
    },
    {
      "type": "Feature",
      "properties": { 
      "IBGE:COD_UNICO_ENDERECO": "27369919",
      "addr:housenumber": "364",
      "addr:postcode": "48609-230",
      "addr:street": "Rua Raso da Catarina",
      "addr:suburb": "Btn 2",
      "building": "yes"
      },
      "geometry": {
         "type": "Point",
         "coordinates": [-38.2105266,-9.441557]
      }
    },
    {
      "type": "Feature",
      "properties": { 
      "IBGE:COD_UNICO_ENDERECO": "217300601",
      "addr:housenumber": "237",
      "addr:postcode": "48609-172",
      "addr:street": "Rua Senhor do Bonfim",
      "addr:suburb": "Btn 2",
      "building": "yes"
      },
      "geometry": {
         "type": "Point",
         "coordinates": [-38.2097493,-9.4402772]
      }
    },
    {
      "type": "Feature",
      "properties": { 
      "IBGE:COD_UNICO_ENDERECO": "27356771",
      "addr:housenumber": "1736",
      "addr:postcode": "48609-140",
      "addr:street": "Rua Padre Lourenço",
      "addr:suburb": "Btn 2",
      "building": "yes"
      },
      "geometry": {
         "type": "Point",
         "coordinates": [-38.2081797,-9.4381903]
      }
    },
    {
      "type": "Feature",
      "properties": { 
      "IBGE:COD_UNICO_ENDERECO": "216226922",
      "addr:housenumber": "1855",
      "addr:postcode": "48609-140",
      "addr:street": "Rua Padre Lourenço",
      "addr:suburb": "Btn 2",
      "building": "yes"
      },
      "geometry": {
         "type": "Point",
         "coordinates": [-38.2055152,-9.4370733]
      }
    },
    {
      "type": "Feature",
      "properties": { 
      "IBGE:COD_UNICO_ENDERECO": "27356837",
      "addr:housenumber": "27",
      "addr:postcode": "48609-212",
      "addr:street": "Travessa Padre Lourenço Terceira",
      "addr:suburb": "Btn 2",
      "building": "yes"
      },
      "geometry": {
         "type": "Point",
         "coordinates": [-38.2066122,-9.4380376]
      }
    },
    {
      "type": "Feature",
      "properties": { 
      "IBGE:COD_UNICO_ENDERECO": "27359627",
      "addr:housenumber": "16",
      "addr:postcode": "48609-124",
      "addr:street": "Avenida Delmiro Gouveia",
      "addr:suburb": "Btn 2",
      "building": "warehouse",
      "description": "CNEFE 2022 Depósito Virgínio Construções"
      },
      "geometry": {
         "type": "Point",
         "coordinates": [-38.2176535,-9.4437613]
      }
    },
    {
      "type": "Feature",
      "properties": { 
      "IBGE:COD_UNICO_ENDERECO": "27356920",
      "addr:housenumber": "146",
      "addr:postcode": "48609-202",
      "addr:street": "Rua Duque de Caxias",
      "addr:suburb": "Btn 2",
      "building": "yes"
      },
      "geometry": {
         "type": "Point",
         "coordinates": [-38.2080556,-9.4405293]
      }
    },
    {
      "type": "Feature",
      "properties": { 
      "IBGE:COD_UNICO_ENDERECO": "108727938",
      "addr:housenumber": "308",
      "addr:postcode": "48609-222",
      "addr:street": "Rua Alonso Macedo",
      "addr:suburb": "Btn 2",
      "amenity": "place_of_worship",
      "building": "church",
      "denomination": "pentecostal",
      "name": "Assembleia de Deus Madureira",
      "religion": "christian"
      },
      "geometry": {
         "type": "Point",
         "coordinates": [-38.2116697,-9.4381926]
      }
    },