{
  "type": "FeatureCollection",
  "generator": "CSV-CNEFE2GeoJSON.lua 1.5.7 - fidelis.assis@gmail.com",
  "source": "IBGE CNEFE + Faces de Logradouros - 2022",
  "date": "2025-02-02T09:05:14-0300",
  "features": [
    {
      "type": "Feature",
      "properties": { 
      "IBGE:COD_UNICO_ENDERECO": "27417591",
      "addr:housenumber": "39",
      "addr:postcode": "48605-728",
      "addr:street": "Rua Bom Nome",
      "addr:suburb": "Centenário",
      "building": "yes"
      },
      "geometry": {
         "type": "Point",
         "coordinates": [-38.2308497,-9.3875627]
      }
    },
    {
      "type": "Feature",
      "properties": { 
      "IBGE:COD_UNICO_ENDERECO": "27417566",
      "addr:housenumber": "3",
      "addr:postcode": "48605-722",
      "addr:street": "Rua Salustiano",
      "addr:suburb": "Centenário",
      "amenity": "place_of_worship",
      "building": "religious",
      "denomination": "spiritist",
      "name": "Centro Espírita",
      "religion": "christian"
      },
      "geometry": {
         "type": "Point",
         "coordinates": [-38.2316179,-9.3882548]
      }
    },
    {
      "type": "Feature",
      "properties": { 
      "IBGE:COD_UNICO_ENDERECO": "27469039",
      "addr:housenumber": "46 A",
      "addr:postcode": "48605-055",
      "addr:street": "Avenida Antônio Carlos Magalhães",
      "addr:suburb": "Centenário",
      "building": "yes"
      },
      "geometry": {
         "type": "Point",
         "coordinates": [-38.2324878,-9.3865218]
      }
    },
    {
      "type": "Feature",
      "properties": { 
      "IBGE:COD_UNICO_ENDERECO": "27421509",
      "addr:housenumber": "16",
      "addr:postcode": "48605-610",
      "addr:street": "Rua Amâncio Pereira",
      "addr:suburb": "Centenário",
      "amenity": "taxi",
      "building": "yes",
      "name": "Fan Mototáxi",
      "taxi_vehicle": "motorcycle"
      },
      "geometry": {
         "type": "Point",
         "coordinates": [-38.2289531,-9.3811384]
      }
    },
    {
      "type": "Feature",
      "properties": { 
      "IBGE:COD_UNICO_ENDERECO": "27469148",
      "addr:housenumber": "45",
      "addr:postcode": "48605-555",
      "addr:street": "Rua Senhor do Bonfim",
      "addr:suburb": "Centenário",
      "building": "yes"
      },
      "geometry": {
         "type": "Point",
         "coordinates": [-38.2317263,-9.3840793]
      }
    },
    {
      "type": "Feature",
      "properties": { 
      "IBGE:COD_UNICO_ENDERECO": "223252432",
      "addr:housenumber": "331",
      "addr:postcode": "48605-768",
      "addr:street": "Rua do Sossego",
      "addr:suburb": "Centenário",
      "building": "yes"
      },
      "geometry": {
         "type": "Point",
         "coordinates": [-38.2255783,-9.3863172]
      }
    },
    {
      "type": "Feature",
      "properties": { 
      "IBGE:COD_UNICO_ENDERECO": "27421428",
      "addr:housenumber": "27",
      "addr:postcode": "48605-760",
      "addr:street": "Travessa Tropical",
      "addr:suburb": "Centenário",
      "building": "yes"
      },
      "geometry": {
         "type": "Point",
         "coordinates": [-38.2267202,-9.3862586]
      }
    },
    {
      "type": "Feature",
      "properties": { 
      "IBGE:COD_UNICO_ENDERECO": "191719985",
      "addr:housenumber": "68",
      "addr:postcode": "48605-055",
      "addr:street": "Avenida Antônio Carlos Magalhães",
      "addr:suburb": "Centenário",
      "building": "yes"
      },
      "geometry": {
         "type": "Point",
         "coordinates": [-38.2320533,-9.3794259]
      }
    },
    {
      "type": "Feature",
      "properties": { 
      "IBGE:COD_UNICO_ENDERECO": "27421433",
      "addr:housenumber": "103",
      "addr:postcode": "48605-760",
      "addr:street": "Rua Tropical",
      "addr:suburb": "Centenário",
      "building": "yes"
      },
      "geometry": {
         "type": "Point",
         "coordinates": [-38.2271873,-9.3862691]
      }
    },
    {
      "type": "Feature",
      "properties": { 
      "IBGE:COD_UNICO_ENDERECO": "27421631",
      "addr:housenumber": "25",
      "addr:postcode": "48605-650",
      "addr:street": "Rua Hermógenes Bezerra",
      "addr:suburb": "Centenário",
      "building": "yes"
      },
      "geometry": {
         "type": "Point",
         "coordinates": [-38.2272474,-9.3823145]
      }
    },
    {
      "type": "Feature",
      "properties": { 
      "IBGE:COD_UNICO_ENDERECO": "27371235",
      "addr:housenumber": "52 B",
      "addr:postcode": "48605-600",
      "addr:street": "Rua 13 de Maio",
      "addr:suburb": "Centenário",
      "amenity": "place_of_worship",
      "building": "church",
      "denomination": "charismatic;evangelical",
      "name": "Igreja Cristã Missionária",
      "religion": "christian"
      },
      "geometry": {
         "type": "Point",
         "coordinates": [-38.2288587,-9.3841946]
      }
    },
    {
      "type": "Feature",
      "properties": { 
      "IBGE:COD_UNICO_ENDERECO": "27364523",
      "addr:housenumber": "4",
      "addr:postcode": "48609-476",
      "addr:street": "Rua São João",
      "addr:suburb": "Centenário",
      "addr:unit": "Fundos",
      "building": "yes",
      "fixme": "Verificar coordenadas",
      "note": "Sem face no bayface do IBGE 0500-0069P-3-3"
      },
      "geometry": {
         "type": "Point",
         "coordinates": [-38.227662,-9.380415]
      }
    },
    {
      "type": "Feature",
      "properties": { 
      "IBGE:COD_UNICO_ENDERECO": "217588224",
      "addr:housenumber": "10",
      "addr:postcode": "48605-520",
      "addr:street": "Rua José Teixeira",
      "addr:suburb": "Centenário",
      "building": "yes"
      },
      "geometry": {
         "type": "Point",
         "coordinates": [-38.2282715,-9.3813916]
      }
    },
    {
      "type": "Feature",
      "properties": { 
      "IBGE:COD_UNICO_ENDERECO": "27421318",
      "addr:housenumber": "144",
      "addr:postcode": "48605-760",
      "addr:street": "Rua Tropical",
      "addr:suburb": "Centenário",
      "building": "yes"
      },
      "geometry": {
         "type": "Point",
         "coordinates": [-38.2279621,-9.3867365]
      }
    },
    {
      "type": "Feature",
      "properties": { 
      "IBGE:COD_UNICO_ENDERECO": "27307440",
      "addr:housenumber": "11",
      "addr:postcode": "48605-680",
      "addr:street": "Avenida Boa Esperança",
      "addr:suburb": "Centenário",
      "building": "yes"
      },
      "geometry": {
         "type": "Point",
         "coordinates": [-38.2293367,-9.3792005]
      }
    },
    {
      "type": "Feature",
      "properties": { 
      "IBGE:COD_UNICO_ENDERECO": "27417606",
      "addr:housenumber": "27",
      "addr:postcode": "48605-726",
      "addr:street": "Rua Mandacaru",
      "addr:suburb": "Centenário",
      "building": "yes"
      },
      "geometry": {
         "type": "Point",
         "coordinates": [-38.230986,-9.3878948]
      }
    },
    {
      "type": "Feature",
      "properties": { 
      "IBGE:COD_UNICO_ENDERECO": "217807611",
      "addr:housenumber": "19 C",
      "addr:postcode": "48611-030",
      "addr:street": "Rua Padre Cícero",
      "addr:suburb": "Centenário",
      "building": "yes"
      },
      "geometry": {
         "type": "Point",
         "coordinates": [-38.2317634,-9.3790403]
      }
    },
    {
      "type": "Feature",
      "properties": { 
      "IBGE:COD_UNICO_ENDERECO": "27421491",
      "addr:housenumber": "24 A",
      "addr:postcode": "48605-600",
      "addr:street": "Rua 13 de Maio",
      "addr:suburb": "Centenário",
      "building": "yes",
      "fixme": "Verificar coordenadas",
      "hairdresser": "barber",
      "name": "Barbearia 13 de Maio",
      "note": "Sem face no bayface do IBGE 0500-0149P-1-3",
      "shop": "hairdresser"
      },
      "geometry": {
         "type": "Point",
         "coordinates": [-38.228495,-9.382573]
      }
    },
    {
      "type": "Feature",
      "properties": { 
      "IBGE:COD_UNICO_ENDERECO": "27371281",
      "addr:housenumber": "60",
      "addr:postcode": "48604-760",
      "addr:street": "Rua Paraíba",
      "addr:suburb": "Centenário",
      "building": "yes"
      },
      "geometry": {
         "type": "Point",
         "coordinates": [-38.2296519,-9.3839868]
      }
    },
    {
      "type": "Feature",
      "properties": { 
      "IBGE:COD_UNICO_ENDERECO": "27364438",
      "addr:housenumber": "31",
      "addr:postcode": "48605-610",
      "addr:street": "Avenida Boa Esperança",
      "addr:suburb": "Centenário",
      "building": "yes"
      },
      "geometry": {
         "type": "Point",
         "coordinates": [-38.2261931,-9.3801591]
      }
    },
    {
      "type": "Feature",
      "properties": { 
      "IBGE:COD_UNICO_ENDERECO": "27371203",
      "addr:housenumber": "5 A",
      "addr:postcode": "48605-545",
      "addr:street": "Travessa Paraíba",
      "addr:suburb": "Centenário",
      "building": "yes"
      },
      "geometry": {
         "type": "Point",
         "coordinates": [-38.2309852,-9.3807687]
      }
    },
    {
      "type": "Feature",
      "properties": { 
      "IBGE:COD_UNICO_ENDERECO": "27307395;217806580",
      "addr:housenumber": "11",
      "addr:postcode": "48605-590",
      "addr:street": "Avenida Botafogo",
      "addr:suburb": "Centenário",
      "building": "yes"
      },
      "geometry": {
         "type": "Point",
         "coordinates": [-38.228035,-9.3782937]
      }
    },
    {
      "type": "Feature",
      "properties": { 
      "IBGE:COD_UNICO_ENDERECO": "27364564",
      "addr:housenumber": "28",
      "addr:postcode": "48609-476",
      "addr:street": "Rua São João",
      "addr:suburb": "Centenário",
      "building": "yes"
      },
      "geometry": {
         "type": "Point",
         "coordinates": [-38.2268616,-9.3806242]
      }
    },
    {
      "type": "Feature",
      "properties": { 
      "IBGE:COD_UNICO_ENDERECO": "27364509",
      "addr:housenumber": "13 Térreo Apartamento 6",
      "addr:postcode": "48609-476",
      "addr:street": "Rua São João",
      "addr:suburb": "Centenário",
      "building": "yes",
      "fixme": "Verificar coordenadas",
      "note": "Sem face no bayface do IBGE 0500-0069P-3-3"
      },
      "geometry": {
         "type": "Point",
         "coordinates": [-38.227745,-9.380255]
      }
    },
    {
      "type": "Feature",
      "properties": { 
      "IBGE:COD_UNICO_ENDERECO": "27421332",
      "addr:housenumber": "45",
      "addr:postcode": "48605-760",
      "addr:street": "Rua Tropical",
      "addr:suburb": "Centenário",
      "building": "yes"
      },
      "geometry": {
         "type": "Point",
         "coordinates": [-38.2270656,-9.3864416]
      }
    },
    {
      "type": "Feature",
      "properties": { 
      "IBGE:COD_UNICO_ENDERECO": "27364602",
      "addr:housenumber": "25",
      "addr:postcode": "48601-340",
      "addr:street": "Rua São Jorge",
      "addr:suburb": "Centenário",
      "building": "yes",
      "fixme": "Verificar coordenadas",
      "note": "Sem face no bayface do IBGE 0500-0069P-4-3"
      },
      "geometry": {
         "type": "Point",
         "coordinates": [-38.227432,-9.380977]
      }
    },
    {
      "type": "Feature",
      "properties": { 
      "IBGE:COD_UNICO_ENDERECO": "27469041",
      "addr:housenumber": "106",
      "addr:postcode": "48605-055",
      "addr:street": "Avenida Antônio Carlos Magalhães",
      "addr:suburb": "Centenário",
      "building": "yes"
      },
      "geometry": {
         "type": "Point",
         "coordinates": [-38.2324736,-9.3864173]
      }
    },
    {
      "type": "Feature",
      "properties": { 
      "IBGE:COD_UNICO_ENDERECO": "217807030",
      "addr:housenumber": "2",
      "addr:postcode": "48605-605",
      "addr:street": "Avenida Centenário",
      "addr:suburb": "Centenário",
      "building": "yes"
      },
      "geometry": {
         "type": "Point",
         "coordinates": [-38.2282274,-9.377358]
      }
    },
    {
      "type": "Feature",
      "properties": { 
      "IBGE:COD_UNICO_ENDERECO": "27364526",
      "addr:housenumber": "13 Frente",
      "addr:postcode": "48609-476",
      "addr:street": "Rua São João",
      "addr:suburb": "Centenário",
      "building": "yes",
      "fixme": "Verificar coordenadas",
      "name": "Geliane Santoa Cabelo e Unha",
      "note": "Sem face no bayface do IBGE 0500-0069P-3-3"
      },
      "geometry": {
         "type": "Point",
         "coordinates": [-38.227792,-9.380422]
      }
    },
    {
      "type": "Feature",
      "properties": { 
      "IBGE:COD_UNICO_ENDERECO": "223252453",
      "addr:housenumber": "133",
      "addr:postcode": "48605-760",
      "addr:street": "Rua Tropical",
      "addr:suburb": "Centenário",
      "building": "yes"
      },
      "geometry": {
         "type": "Point",
         "coordinates": [-38.2270553,-9.3862505]
      }
    },
    {
      "type": "Feature",
      "properties": { 
      "IBGE:COD_UNICO_ENDERECO": "27468951",
      "addr:housenumber": "26",
      "addr:postcode": "48605-670",
      "addr:street": "Rua Realeza",
      "addr:suburb": "Centenário",
      "building": "yes"
      },
      "geometry": {
         "type": "Point",
         "coordinates": [-38.2301141,-9.385259]
      }
    },
    {
      "type": "Feature",
      "properties": { 
      "IBGE:COD_UNICO_ENDERECO": "27364574",
      "addr:housenumber": "34",
      "addr:postcode": "48609-476",
      "addr:street": "Rua São João",
      "addr:suburb": "Centenário",
      "building": "yes"
      },
      "geometry": {
         "type": "Point",
         "coordinates": [-38.2264296,-9.3807166]
      }
    },
    {
      "type": "Feature",
      "properties": { 
      "IBGE:COD_UNICO_ENDERECO": "217806996",
      "addr:housenumber": "10 B",
      "addr:postcode": "48605-605",
      "addr:street": "Avenida Centenário",
      "addr:suburb": "Centenário",
      "building": "yes"
      },
      "geometry": {
         "type": "Point",
         "coordinates": [-38.2290173,-9.3778813]
      }
    },
    {
      "type": "Feature",
      "properties": { 
      "IBGE:COD_UNICO_ENDERECO": "27371365",
      "addr:housenumber": "26",
      "addr:postcode": "48605-470",
      "addr:street": "Rua Paraíba",
      "addr:suburb": "Centenário",
      "addr:unit": "Fundos",
      "building": "yes"
      },
      "geometry": {
         "type": "Point",
         "coordinates": [-38.2308171,-9.3821543]
      }
    },
    {
      "type": "Feature",
      "properties": { 
      "IBGE:COD_UNICO_ENDERECO": "27468954",
      "addr:housenumber": "32",
      "addr:postcode": "48605-670",
      "addr:street": "Rua Realeza",
      "addr:suburb": "Centenário",
      "building": "yes"
      },
      "geometry": {
         "type": "Point",
         "coordinates": [-38.2302592,-9.3855206]
      }
    },
    {
      "type": "Feature",
      "properties": { 
      "IBGE:COD_UNICO_ENDERECO": "27307473",
      "addr:housenumber": "4",
      "addr:postcode": "48605-610",
      "addr:street": "Rua Amâncio Pereira",
      "addr:suburb": "Centenário",
      "building": "yes"
      },
      "geometry": {
         "type": "Point",
         "coordinates": [-38.2286963,-9.3800622]
      }
    },
    {
      "type": "Feature",
      "properties": { 
      "IBGE:COD_UNICO_ENDERECO": "27371310",
      "addr:housenumber": "21",
      "addr:postcode": "48605-670",
      "addr:street": "Rua Realeza",
      "addr:suburb": "Centenário",
      "building": "yes"
      },
      "geometry": {
         "type": "Point",
         "coordinates": [-38.2297389,-9.384402]
      }
    },
    {
      "type": "Feature",
      "properties": { 
      "IBGE:COD_UNICO_ENDERECO": "27371165",
      "addr:housenumber": "10",
      "addr:postcode": "48605-540",
      "addr:street": "Rua São Francisco",
      "addr:suburb": "Centenário",
      "building": "yes"
      },
      "geometry": {
         "type": "Point",
         "coordinates": [-38.2304967,-9.3808594]
      }
    },
    {
      "type": "Feature",
      "properties": { 
      "IBGE:COD_UNICO_ENDERECO": "27421431",
      "addr:housenumber": "37",
      "addr:postcode": "48605-760",
      "addr:street": "Rua Tropical",
      "addr:suburb": "Centenário",
      "building": "yes"
      },
      "geometry": {
         "type": "Point",
         "coordinates": [-38.2268829,-9.3862522]
      }
    },
    {
      "type": "Feature",
      "properties": { 
      "IBGE:COD_UNICO_ENDERECO": "191543109",
      "addr:housenumber": "5 A",
      "addr:postcode": "48605-766",
      "addr:street": "Rua da Amizade",
      "addr:suburb": "Centenário",
      "building": "yes"
      },
      "geometry": {
         "type": "Point",
         "coordinates": [-38.2297994,-9.3859427]
      }
    },
    {
      "type": "Feature",
      "properties": { 
      "IBGE:COD_UNICO_ENDERECO": "191758202",
      "addr:housenumber": "181 C",
      "addr:postcode": "48605-470",
      "addr:street": "Rua Paraíba",
      "addr:suburb": "Centenário",
      "building": "yes"
      },
      "geometry": {
         "type": "Point",
         "coordinates": [-38.2311447,-9.3811074]
      }
    },
    {
      "type": "Feature",
      "properties": { 
      "IBGE:COD_UNICO_ENDERECO": "27469093",
      "addr:housenumber": "34",
      "addr:postcode": "48605-465",
      "addr:street": "Rua Santa Maria",
      "addr:suburb": "Centenário",
      "building": "yes"
      },
      "geometry": {
         "type": "Point",
         "coordinates": [-38.231704,-9.384378]
      }
    },
    {
      "type": "Feature",
      "properties": { 
      "IBGE:COD_UNICO_ENDERECO": "27364576",
      "addr:housenumber": "16",
      "addr:postcode": "48609-476",
      "addr:street": "Rua São João",
      "addr:suburb": "Centenário",
      "building": "yes"
      },
      "geometry": {
         "type": "Point",
         "coordinates": [-38.2274708,-9.3805497]
      }
    },
    {
      "type": "Feature",
      "properties": { 
      "IBGE:COD_UNICO_ENDERECO": "27307398",
      "addr:housenumber": "7 Frente",
      "addr:postcode": "48605-590",
      "addr:street": "Avenida Botafogo",
      "addr:suburb": "Centenário",
      "building": "yes"
      },
      "geometry": {
         "type": "Point",
         "coordinates": [-38.228049,-9.3782693]
      }
    },
    {
      "type": "Feature",
      "properties": { 
      "IBGE:COD_UNICO_ENDERECO": "222563553",
      "addr:housenumber": "22",
      "addr:postcode": "48605-055",
      "addr:street": "Avenida Antônio Carlos Magalhães",
      "addr:suburb": "Centenário",
      "building": "yes"
      },
      "geometry": {
         "type": "Point",
         "coordinates": [-38.2321426,-9.3817446]
      }
    },
    {
      "type": "Feature",
      "properties": { 
      "IBGE:COD_UNICO_ENDERECO": "191543361",
      "addr:housenumber": "13 A",
      "addr:postcode": "48605-762",
      "addr:street": "Rua Santa Mônica",
      "addr:suburb": "Centenário",
      "building": "construction",
      "fixme": "Verificar coordenadas",
      "note": "Fora da área de projeção da face 0500-0132P-4-11"
      },
      "geometry": {
         "type": "Point",
         "coordinates": [-38.230534,-9.387004]
      }
    },
    {
      "type": "Feature",
      "properties": { 
      "IBGE:COD_UNICO_ENDERECO": "191758177",
      "addr:housenumber": "13 A",
      "addr:postcode": "48605-470",
      "addr:street": "Rua Paraíba",
      "addr:suburb": "Centenário",
      "building": "yes"
      },
      "geometry": {
         "type": "Point",
         "coordinates": [-38.2304823,-9.3822633]
      }
    },
    {
      "type": "Feature",
      "properties": { 
      "IBGE:COD_UNICO_ENDERECO": "27421471",
      "addr:housenumber": "33",
      "addr:postcode": "48605-540",
      "addr:street": "Rua São Francisco",
      "addr:suburb": "Centenário",
      "building": "yes"
      },
      "geometry": {
         "type": "Point",
         "coordinates": [-38.2294925,-9.3819557]
      }
    },
    {
      "type": "Feature",
      "properties": { 
      "IBGE:COD_UNICO_ENDERECO": "27307386",
      "addr:housenumber": "4",
      "addr:postcode": "48605-560",
      "addr:street": "Rua da Liberdade",
      "addr:suburb": "Centenário",
      "building": "yes"
      },
      "geometry": {
         "type": "Point",
         "coordinates": [-38.2275156,-9.3777197]
      }
    },
    {
      "type": "Feature",
      "properties": { 
      "IBGE:COD_UNICO_ENDERECO": "217807238",
      "addr:housenumber": "42",
      "addr:postcode": "48611-038",
      "addr:street": "Rua Santo Antônio",
      "addr:suburb": "Centenário",
      "addr:unit": "16",
      "building": "yes"
      },
      "geometry": {
         "type": "Point",
         "coordinates": [-38.2295313,-9.3806771]
      }
    },
    {
      "type": "Feature",
      "properties": { 
      "IBGE:COD_UNICO_ENDERECO": "27371320",
      "addr:housenumber": "13",
      "addr:postcode": "48605-670",
      "addr:street": "Rua Realeza",
      "addr:suburb": "Centenário",
      "building": "yes"
      },
      "geometry": {
         "type": "Point",
         "coordinates": [-38.2302139,-9.3836657]
      }
    },
    {
      "type": "Feature",
      "properties": { 
      "IBGE:COD_UNICO_ENDERECO": "222563294",
      "addr:housenumber": "20 A",
      "addr:postcode": "48605-670",
      "addr:street": "Rua Realeza",
      "addr:suburb": "Centenário",
      "building": "yes"
      },
      "geometry": {
         "type": "Point",
         "coordinates": [-38.2305968,-9.3849528]
      }
    },
    {
      "type": "Feature",
      "properties": { 
      "IBGE:COD_UNICO_ENDERECO": "27469061",
      "addr:housenumber": "39",
      "addr:postcode": "48605-055",
      "addr:street": "Avenida Antônio Carlos Magalhães",
      "addr:suburb": "Centenário",
      "building": "yes"
      },
      "geometry": {
         "type": "Point",
         "coordinates": [-38.2325146,-9.3867196]
      }
    },
    {
      "type": "Feature",
      "properties": { 
      "IBGE:COD_UNICO_ENDERECO": "27364608",
      "addr:housenumber": "25 A",
      "addr:postcode": "48601-340",
      "addr:street": "Rua São Jorge",
      "addr:suburb": "Centenário",
      "building": "yes",
      "fixme": "Verificar coordenadas",
      "note": "Sem face no bayface do IBGE 0500-0069P-4-3"
      },
      "geometry": {
         "type": "Point",
         "coordinates": [-38.227423,-9.380978]
      }
    },
    {
      "type": "Feature",
      "properties": { 
      "IBGE:COD_UNICO_ENDERECO": "191719982",
      "addr:housenumber": "7",
      "addr:postcode": "48605-055",
      "addr:street": "Estrada Dique da Siriema",
      "addr:suburb": "Centenário",
      "building": "yes"
      },
      "geometry": {
         "type": "Point",
         "coordinates": [-38.2322626,-9.379561]
      }
    },
    {
      "type": "Feature",
      "properties": { 
      "IBGE:COD_UNICO_ENDERECO": "27421629",
      "addr:housenumber": "123",
      "addr:postcode": "48605-510",
      "addr:street": "Rua Guarani",
      "addr:suburb": "Centenário",
      "addr:unit": "Casa",
      "building": "yes"
      },
      "geometry": {
         "type": "Point",
         "coordinates": [-38.2272499,-9.3825934]
      }
    },
    {
      "type": "Feature",
      "properties": { 
      "IBGE:COD_UNICO_ENDERECO": "27307503",
      "addr:housenumber": "4",
      "addr:postcode": "48605-605",
      "addr:street": "Avenida Centenário",
      "addr:suburb": "Centenário",
      "building": "yes"
      },
      "geometry": {
         "type": "Point",
         "coordinates": [-38.2283381,-9.3774322]
      }
    },
    {
      "type": "Feature",
      "properties": { 
      "IBGE:COD_UNICO_ENDERECO": "223252410",
      "addr:housenumber": "114",
      "addr:postcode": "48605-760",
      "addr:street": "Travessa Tropical",
      "addr:suburb": "Centenário",
      "building": "yes"
      },
      "geometry": {
         "type": "Point",
         "coordinates": [-38.2280642,-9.3867018]
      }
    },
    {
      "type": "Feature",
      "properties": { 
      "IBGE:COD_UNICO_ENDERECO": "191543553",
      "addr:housenumber": "80",
      "addr:postcode": "48605-724",
      "addr:street": "Rua Caraibeira",
      "addr:suburb": "Centenário",
      "building": "yes"
      },
      "geometry": {
         "type": "Point",
         "coordinates": [-38.2304319,-9.3878534]
      }
    },
    {
      "type": "Feature",
      "properties": { 
      "IBGE:COD_UNICO_ENDERECO": "27364531",
      "addr:housenumber": "31",
      "addr:postcode": "48609-476",
      "addr:street": "Rua São João",
      "addr:suburb": "Centenário",
      "building": "yes",
      "fixme": "Verificar coordenadas",
      "note": "Sem face no bayface do IBGE 0500-0069P-3-3"
      },
      "geometry": {
         "type": "Point",
         "coordinates": [-38.226762,-9.380576]
      }
    },
    {
      "type": "Feature",
      "properties": { 
      "IBGE:COD_UNICO_ENDERECO": "27307504",
      "addr:housenumber": "4 A",
      "addr:postcode": "48605-605",
      "addr:street": "Avenida Centenário",
      "addr:suburb": "Centenário",
      "building": "yes"
      },
      "geometry": {
         "type": "Point",
         "coordinates": [-38.2284033,-9.3774759]
      }
    },
    {
      "type": "Feature",
      "properties": { 
      "IBGE:COD_UNICO_ENDERECO": "27417501",
      "addr:housenumber": "28",
      "addr:postcode": "48605-766",
      "addr:street": "Rua da Amizade",
      "addr:suburb": "Centenário",
      "building": "yes"
      },
      "geometry": {
         "type": "Point",
         "coordinates": [-38.2300293,-9.3863936]
      }
    },
    {
      "type": "Feature",
      "properties": { 
      "IBGE:COD_UNICO_ENDERECO": "27371218",
      "addr:housenumber": "46",
      "addr:postcode": "48605-540",
      "addr:street": "Rua São Francisco",
      "addr:suburb": "Centenário",
      "addr:unit": "Fundos",
      "building": "yes"
      },
      "geometry": {
         "type": "Point",
         "coordinates": [-38.2290852,-9.3829392]
      }
    },
    {
      "type": "Feature",
      "properties": { 
      "IBGE:COD_UNICO_ENDERECO": "27417337",
      "addr:housenumber": "55",
      "addr:postcode": "48605-722",
      "addr:street": "Rua Salustiano",
      "addr:suburb": "Centenário",
      "building": "yes"
      },
      "geometry": {
         "type": "Point",
         "coordinates": [-38.2312822,-9.3876085]
      }
    },
    {
      "type": "Feature",
      "properties": { 
      "IBGE:COD_UNICO_ENDERECO": "27417592",
      "addr:housenumber": "45",
      "addr:postcode": "48605-728",
      "addr:street": "Rua Bom Nome",
      "addr:suburb": "Centenário",
      "building": "yes"
      },
      "geometry": {
         "type": "Point",
         "coordinates": [-38.2307836,-9.3875343]
      }
    },
    {
      "type": "Feature",
      "properties": { 
      "IBGE:COD_UNICO_ENDERECO": "27417422",
      "addr:housenumber": "37",
      "addr:postcode": "48605-766",
      "addr:street": "Rua da Amizade",
      "addr:suburb": "Centenário",
      "building": "yes"
      },
      "geometry": {
         "type": "Point",
         "coordinates": [-38.2306759,-9.3866941]
      }
    },
    {
      "type": "Feature",
      "properties": { 
      "IBGE:COD_UNICO_ENDERECO": "27421548",
      "addr:housenumber": "2",
      "addr:postcode": "48605-490",
      "addr:street": "Rua Osvaldo Cruz",
      "addr:suburb": "Centenário",
      "addr:unit": "Fundos Sn",
      "building": "yes"
      },
      "geometry": {
         "type": "Point",
         "coordinates": [-38.227927,-9.3822308]
      }
    },
    {
      "type": "Feature",
      "properties": { 
      "IBGE:COD_UNICO_ENDERECO": "27371441",
      "addr:housenumber": "353",
      "addr:postcode": "48605-465",
      "addr:street": "Rua Santa Maria",
      "addr:suburb": "Centenário",
      "building": "yes"
      },
      "geometry": {
         "type": "Point",
         "coordinates": [-38.2318795,-9.3838217]
      }
    },
    {
      "type": "Feature",
      "properties": { 
      "IBGE:COD_UNICO_ENDERECO": "27421442",
      "addr:housenumber": "42",
      "addr:postcode": "48605-760",
      "addr:street": "Rua Tropical",
      "addr:suburb": "Centenário",
      "building": "yes"
      },
      "geometry": {
         "type": "Point",
         "coordinates": [-38.2278407,-9.3865269]
      }
    },
    {
      "type": "Feature",
      "properties": { 
      "IBGE:COD_UNICO_ENDERECO": "27307540",
      "addr:housenumber": "15",
      "addr:postcode": "48611-038",
      "addr:street": "Rua Santo Antônio",
      "addr:suburb": "Centenário",
      "building": "yes"
      },
      "geometry": {
         "type": "Point",
         "coordinates": [-38.2311047,-9.3784222]
      }
    },
    {
      "type": "Feature",
      "properties": { 
      "IBGE:COD_UNICO_ENDERECO": "27371204",
      "addr:housenumber": "32",
      "addr:postcode": "48605-540",
      "addr:street": "Rua São Francisco",
      "addr:suburb": "Centenário",
      "amenity": "place_of_worship",
      "building": "church",
      "denomination": "pentecostal",
      "name": "Igreja Pentecostal Milgres Acontecem",
      "religion": "christian"
      },
      "geometry": {
         "type": "Point",
         "coordinates": [-38.2294229,-9.3823714]
      }
    },
    {
      "type": "Feature",
      "properties": { 
      "IBGE:COD_UNICO_ENDERECO": "27364451",
      "addr:housenumber": "17",
      "addr:postcode": "48605-610",
      "addr:street": "Avenida Botafogo",
      "addr:suburb": "Centenário",
      "building": "yes",
      "name": "Mercadinho Mimiu",
      "shop": "convenience"
      },
      "geometry": {
         "type": "Point",
         "coordinates": [-38.227399,-9.3792443]
      }
    },
    {
      "type": "Feature",
      "properties": { 
      "IBGE:COD_UNICO_ENDERECO": "191758436",
      "addr:housenumber": "9997",
      "addr:postcode": "48605-470",
      "addr:street": "Rua Paraíba",
      "addr:suburb": "Centenário",
      "building": "yes"
      },
      "geometry": {
         "type": "Point",
         "coordinates": [-38.231694,-9.3805984]
      }
    },
    {
      "type": "Feature",
      "properties": { 
      "IBGE:COD_UNICO_ENDERECO": "27417460",
      "addr:housenumber": "3",
      "addr:postcode": "48605-762",
      "addr:street": "Rua Santa Mônica",
      "addr:suburb": "Centenário",
      "building": "yes"
      },
      "geometry": {
         "type": "Point",
         "coordinates": [-38.2289725,-9.3866884]
      }
    },
    {
      "type": "Feature",
      "properties": { 
      "IBGE:COD_UNICO_ENDERECO": "27468902",
      "addr:housenumber": "68",
      "addr:postcode": "48605-670",
      "addr:street": "Rua Realeza",
      "addr:suburb": "Centenário",
      "building": "yes"
      },
      "geometry": {
         "type": "Point",
         "coordinates": [-38.2316037,-9.3818532]
      }
    },
    {
      "type": "Feature",
      "properties": { 
      "IBGE:COD_UNICO_ENDERECO": "27371331",
      "addr:housenumber": "26",
      "addr:postcode": "48605-670",
      "addr:street": "Rua Realeza",
      "addr:suburb": "Centenário",
      "amenity": "place_of_worship",
      "building": "church",
      "denomination": "pentecostal",
      "name": "Igreja Assembleia de Deus",
      "religion": "christian"
      },
      "geometry": {
         "type": "Point",
         "coordinates": [-38.2307048,-9.3830182]
      }
    },
    {
      "type": "Feature",
      "properties": { 
      "IBGE:COD_UNICO_ENDERECO": "27421316",
      "addr:housenumber": "113",
      "addr:postcode": "48605-760",
      "addr:street": "Travessa Tropical",
      "addr:suburb": "Centenário",
      "building": "yes"
      },
      "geometry": {
         "type": "Point",
         "coordinates": [-38.2280963,-9.3866725]
      }
    },
    {
      "type": "Feature",
      "properties": { 
      "IBGE:COD_UNICO_ENDERECO": "223252430",
      "addr:housenumber": "329",
      "addr:postcode": "48605-768",
      "addr:street": "Rua do Sossego",
      "addr:suburb": "Centenário",
      "building": "yes"
      },
      "geometry": {
         "type": "Point",
         "coordinates": [-38.2256166,-9.3863091]
      }
    },
    {
      "type": "Feature",
      "properties": { 
      "IBGE:COD_UNICO_ENDERECO": "27364561",
      "addr:housenumber": "12",
      "addr:postcode": "48609-476",
      "addr:street": "Rua São João",
      "addr:suburb": "Centenário",
      "building": "yes"
      },
      "geometry": {
         "type": "Point",
         "coordinates": [-38.227624,-9.3805321]
      }
    },
    {
      "type": "Feature",
      "properties": { 
      "IBGE:COD_UNICO_ENDERECO": "27417462",
      "addr:housenumber": "66",
      "addr:postcode": "48605-762",
      "addr:street": "Rua Santa Mônica",
      "addr:suburb": "Centenário",
      "building": "yes"
      },
      "geometry": {
         "type": "Point",
         "coordinates": [-38.229081,-9.3867711]
      }
    },
    {
      "type": "Feature",
      "properties": { 
      "IBGE:COD_UNICO_ENDERECO": "27417533",
      "addr:housenumber": "12",
      "addr:postcode": "48605-726",
      "addr:street": "Rua Mandacaru",
      "addr:suburb": "Centenário",
      "building": "yes",
      "fixme": "Verificar coordenadas",
      "note": "Fora da área de projeção da face 0500-0132P-6-2"
      },
      "geometry": {
         "type": "Point",
         "coordinates": [-38.231456,-9.388084]
      }
    },
    {
      "type": "Feature",
      "properties": { 
      "IBGE:COD_UNICO_ENDERECO": "27468900;222563220",
      "addr:housenumber": "66 A",
      "addr:postcode": "48605-670",
      "addr:street": "Rua Realeza",
      "addr:suburb": "Centenário",
      "building": "yes"
      },
      "geometry": {
         "type": "Point",
         "coordinates": [-38.2315424,-9.381941]
      }
    },
    {
      "type": "Feature",
      "properties": { 
      "IBGE:COD_UNICO_ENDERECO": "27417409",
      "addr:housenumber": "11",
      "addr:postcode": "48605-766",
      "addr:street": "Rua da Amizade",
      "addr:suburb": "Centenário",
      "building": "yes"
      },
      "geometry": {
         "type": "Point",
         "coordinates": [-38.2301272,-9.3862522]
      }
    },
    {
      "type": "Feature",
      "properties": { 
      "IBGE:COD_UNICO_ENDERECO": "27364558",
      "addr:housenumber": "7",
      "addr:postcode": "48605-610",
      "addr:street": "Rua Amâncio Pereira",
      "addr:suburb": "Centenário",
      "building": "yes"
      },
      "geometry": {
         "type": "Point",
         "coordinates": [-38.2285486,-9.3802174]
      }
    },
    {
      "type": "Feature",
      "properties": { 
      "IBGE:COD_UNICO_ENDERECO": "222563548",
      "addr:housenumber": "3 A",
      "addr:postcode": "48605-055",
      "addr:street": "Avenida Antônio Carlos Magalhães",
      "addr:suburb": "Centenário",
      "building": "yes"
      },
      "geometry": {
         "type": "Point",
         "coordinates": [-38.2321255,-9.3815131]
      }
    },
    {
      "type": "Feature",
      "properties": { 
      "IBGE:COD_UNICO_ENDERECO": "191542934",
      "addr:housenumber": "26",
      "addr:postcode": "48605-722",
      "addr:street": "Rua Salustiano",
      "addr:suburb": "Centenário",
      "building": "yes"
      },
      "geometry": {
         "type": "Point",
         "coordinates": [-38.2315454,-9.387254]
      }
    },
    {
      "type": "Feature",
      "properties": { 
      "IBGE:COD_UNICO_ENDERECO": "27417358",
      "addr:housenumber": "100",
      "addr:postcode": "48604-782",
      "addr:street": "Rua Baraúna",
      "addr:suburb": "Centenário",
      "building": "yes"
      },
      "geometry": {
         "type": "Point",
         "coordinates": [-38.2312605,-9.3870389]
      }
    },
    {
      "type": "Feature",
      "properties": { 
      "IBGE:COD_UNICO_ENDERECO": "27468897",
      "addr:housenumber": "99",
      "addr:postcode": "48605-670",
      "addr:street": "Rua Realeza",
      "addr:suburb": "Centenário",
      "building": "yes"
      },
      "geometry": {
         "type": "Point",
         "coordinates": [-38.2319607,-9.3813402]
      }
    },
    {
      "type": "Feature",
      "properties": { 
      "IBGE:COD_UNICO_ENDERECO": "217807258",
      "addr:housenumber": "42 A",
      "addr:postcode": "48611-038",
      "addr:street": "Rua Santo Antônio",
      "addr:suburb": "Centenário",
      "building": "yes"
      },
      "geometry": {
         "type": "Point",
         "coordinates": [-38.2295159,-9.3806951]
      }
    },
    {
      "type": "Feature",
      "properties": { 
      "IBGE:COD_UNICO_ENDERECO": "27469108",
      "addr:housenumber": "13",
      "addr:postcode": "48605-465",
      "addr:street": "Travessa Santa Maria",
      "addr:suburb": "Centenário",
      "building": "yes"
      },
      "geometry": {
         "type": "Point",
         "coordinates": [-38.2315263,-9.3842698]
      }
    },
    {
      "type": "Feature",
      "properties": { 
      "IBGE:COD_UNICO_ENDERECO": "27421523",
      "addr:housenumber": "2",
      "addr:postcode": "48605-710",
      "addr:street": "Rua 7 de Setembro",
      "addr:suburb": "Centenário",
      "building": "yes"
      },
      "geometry": {
         "type": "Point",
         "coordinates": [-38.2281456,-9.3814758]
      }
    },
    {
      "type": "Feature",
      "properties": { 
      "IBGE:COD_UNICO_ENDERECO": "27469055",
      "addr:housenumber": "130",
      "addr:postcode": "48605-055",
      "addr:street": "Avenida Antônio Carlos Magalhães",
      "addr:suburb": "Centenário",
      "building": "yes"
      },
      "geometry": {
         "type": "Point",
         "coordinates": [-38.2324499,-9.3862428]
      }
    },
    {
      "type": "Feature",
      "properties": { 
      "IBGE:COD_UNICO_ENDERECO": "191395444",
      "addr:housenumber": "27 A",
      "addr:postcode": "48609-476",
      "addr:street": "Rua São João",
      "addr:suburb": "Centenário",
      "building": "yes",
      "fixme": "Verificar coordenadas",
      "note": "Sem face no bayface do IBGE 0500-0069P-3-3"
      },
      "geometry": {
         "type": "Point",
         "coordinates": [-38.227044,-9.380531]
      }
    },
    {
      "type": "Feature",
      "properties": { 
      "IBGE:COD_UNICO_ENDERECO": "27421587",
      "addr:housenumber": "3",
      "addr:postcode": "48605-490",
      "addr:street": "Rua Osvaldo Cruz",
      "addr:suburb": "Centenário",
      "building": "yes"
      },
      "geometry": {
         "type": "Point",
         "coordinates": [-38.2276868,-9.3822076]
      }
    },
    {
      "type": "Feature",
      "properties": { 
      "IBGE:COD_UNICO_ENDERECO": "27417623",
      "addr:housenumber": "200 A",
      "addr:postcode": "48605-722",
      "addr:street": "Rua Salustiano",
      "addr:suburb": "Centenário",
      "building": "yes"
      },
      "geometry": {
         "type": "Point",
         "coordinates": [-38.231282,-9.3877804]
      }
    },
    {
      "type": "Feature",
      "properties": { 
      "IBGE:COD_UNICO_ENDERECO": "27307629",
      "addr:housenumber": "13",
      "addr:postcode": "48605-540",
      "addr:street": "Rua São Francisco",
      "addr:suburb": "Centenário",
      "building": "yes"
      },
      "geometry": {
         "type": "Point",
         "coordinates": [-38.230351,-9.3807971]
      }
    },
    {
      "type": "Feature",
      "properties": { 
      "IBGE:COD_UNICO_ENDERECO": "27371189",
      "addr:housenumber": "13",
      "addr:postcode": "48605-470",
      "addr:street": "Rua Paraíba",
      "addr:suburb": "Centenário",
      "building": "yes"
      },
      "geometry": {
         "type": "Point",
         "coordinates": [-38.23048,-9.3822675]
      }
    },
    {
      "type": "Feature",
      "properties": { 
      "IBGE:COD_UNICO_ENDERECO": "27364640",
      "addr:housenumber": "66",
      "addr:postcode": "48605-500",
      "addr:street": "Rua São Jorge",
      "addr:suburb": "Centenário",
      "building": "yes"
      },
      "geometry": {
         "type": "Point",
         "coordinates": [-38.2281098,-9.3808312]
      }
    },
    {
      "type": "Feature",
      "properties": { 
      "IBGE:COD_UNICO_ENDERECO": "27421606",
      "addr:housenumber": "16 C",
      "addr:postcode": "48605-500",
      "addr:street": "Rua São Jorge",
      "addr:suburb": "Centenário",
      "building": "yes"
      },
      "geometry": {
         "type": "Point",
         "coordinates": [-38.2275171,-9.3810632]
      }
    },
    {
      "type": "Feature",
      "properties": { 
      "IBGE:COD_UNICO_ENDERECO": "27371306",
      "addr:housenumber": "58",
      "addr:postcode": "48605-670",
      "addr:street": "Rua Realeza",
      "addr:suburb": "Centenário",
      "building": "yes"
      },
      "geometry": {
         "type": "Point",
         "coordinates": [-38.2294385,-9.3844477]
      }
    },
    {
      "type": "Feature",
      "properties": { 
      "IBGE:COD_UNICO_ENDERECO": "191395558",
      "addr:housenumber": "2 B",
      "addr:postcode": "48605-500",
      "addr:street": "Rua São Jorge",
      "addr:suburb": "Centenário",
      "building": "yes"
      },
      "geometry": {
         "type": "Point",
         "coordinates": [-38.2285641,-9.3806591]
      }
    },
    {
      "type": "Feature",
      "properties": { 
      "IBGE:COD_UNICO_ENDERECO": "191395494",
      "addr:housenumber": "55",
      "addr:postcode": "48601-340",
      "addr:street": "Rua São Jorge",
      "addr:suburb": "Centenário",
      "building": "yes"
      },
      "geometry": {
         "type": "Point",
         "coordinates": [-38.2264829,-9.3807208]
      }
    },
    {
      "type": "Feature",
      "properties": { 
      "IBGE:COD_UNICO_ENDERECO": "27371410",
      "addr:housenumber": "15",
      "addr:postcode": "48611-102",
      "addr:street": "Rua Senhor do Bonfim",
      "addr:suburb": "Centenário",
      "building": "yes",
      "fixme": "Verificar coordenadas",
      "note": "Sem dados para mover para dentro da quadra 0500-0095P-3-3"
      },
      "geometry": {
         "type": "Point",
         "coordinates": [-38.2322376,-9.3835584]
      }
    },
    {
      "type": "Feature",
      "properties": { 
      "IBGE:COD_UNICO_ENDERECO": "27421334",
      "addr:housenumber": "72",
      "addr:postcode": "48605-760",
      "addr:street": "Rua Tropical",
      "addr:suburb": "Centenário",
      "building": "yes"
      },
      "geometry": {
         "type": "Point",
         "coordinates": [-38.2271076,-9.3864452]
      }
    },
    {
      "type": "Feature",
      "properties": { 
      "IBGE:COD_UNICO_ENDERECO": "27371432",
      "addr:housenumber": "2",
      "addr:postcode": "48605-465",
      "addr:street": "Rua Santa Maria",
      "addr:suburb": "Centenário",
      "building": "yes"
      },
      "geometry": {
         "type": "Point",
         "coordinates": [-38.2319016,-9.3833628]
      }
    },
    {
      "type": "Feature",
      "properties": { 
      "IBGE:COD_UNICO_ENDERECO": "27417346",
      "addr:housenumber": "13",
      "addr:postcode": "48605-722",
      "addr:street": "Rua Salustiano",
      "addr:suburb": "Centenário",
      "building": "yes"
      },
      "geometry": {
         "type": "Point",
         "coordinates": [-38.2316617,-9.3871751]
      }
    },
    {
      "type": "Feature",
      "properties": { 
      "IBGE:COD_UNICO_ENDERECO": "222563610",
      "addr:housenumber": "63",
      "addr:postcode": "48605-055",
      "addr:street": "Travessa Antônio Carlos Magalhães",
      "addr:suburb": "Centenário",
      "building": "yes",
      "fixme": "Verificar coordenadas",
      "note": "Sem setor ou quadra no bayface do IBGE 0500-0162P-2-2"
      },
      "geometry": {
         "type": "Point",
         "coordinates": [-38.230982,-9.383828]
      }
    },
    {
      "type": "Feature",
      "properties": { 
      "IBGE:COD_UNICO_ENDERECO": "27371417",
      "addr:housenumber": "437",
      "addr:postcode": "48611-102",
      "addr:street": "Rua Senhor do Bonfim",
      "addr:suburb": "Centenário",
      "building": "yes",
      "fixme": "Verificar coordenadas",
      "note": "Sem dados para mover para dentro da quadra 0500-0095P-3-3"
      },
      "geometry": {
         "type": "Point",
         "coordinates": [-38.2322119,-9.3833664]
      }
    },
    {
      "type": "Feature",
      "properties": { 
      "IBGE:COD_UNICO_ENDERECO": "27371364",
      "addr:housenumber": "26",
      "addr:postcode": "48605-470",
      "addr:street": "Rua Paraíba",
      "addr:suburb": "Centenário",
      "building": "yes"
      },
      "geometry": {
         "type": "Point",
         "coordinates": [-38.2308097,-9.3820617]
      }
    },
    {
      "type": "Feature",
      "properties": { 
      "IBGE:COD_UNICO_ENDERECO": "217588503",
      "addr:housenumber": "30 A",
      "addr:postcode": "48605-500",
      "addr:street": "Rua São Jorge",
      "addr:suburb": "Centenário",
      "building": "yes",
      "fixme": "Verificar coordenadas",
      "note": "Fora da área de projeção da face 0500-0149P-9-4"
      },
      "geometry": {
         "type": "Point",
         "coordinates": [-38.226368,-9.381444]
      }
    },
    {
      "type": "Feature",
      "properties": { 
      "IBGE:COD_UNICO_ENDERECO": "27421561",
      "addr:housenumber": "21",
      "addr:postcode": "48605-710",
      "addr:street": "Rua 7 de Setembro",
      "addr:suburb": "Centenário",
      "building": "yes"
      },
      "geometry": {
         "type": "Point",
         "coordinates": [-38.2283939,-9.382552]
      }
    },
    {
      "type": "Feature",
      "properties": { 
      "IBGE:COD_UNICO_ENDERECO": "27371303",
      "addr:housenumber": "54 A",
      "addr:postcode": "48604-760",
      "addr:street": "Rua Paraíba",
      "addr:suburb": "Centenário",
      "building": "yes"
      },
      "geometry": {
         "type": "Point",
         "coordinates": [-38.2298195,-9.3837303]
      }
    },
    {
      "type": "Feature",
      "properties": { 
      "IBGE:COD_UNICO_ENDERECO": "27468952",
      "addr:housenumber": "28",
      "addr:postcode": "48605-670",
      "addr:street": "Rua Realeza",
      "addr:suburb": "Centenário",
      "building": "yes"
      },
      "geometry": {
         "type": "Point",
         "coordinates": [-38.230192,-9.3853995]
      }
    },
    {
      "type": "Feature",
      "properties": { 
      "IBGE:COD_UNICO_ENDERECO": "27307458",
      "addr:housenumber": "10",
      "addr:postcode": "48605-680",
      "addr:street": "Avenida Boa Esperança",
      "addr:suburb": "Centenário",
      "building": "yes"
      },
      "geometry": {
         "type": "Point",
         "coordinates": [-38.2294355,-9.3793535]
      }
    },
    {
      "type": "Feature",
      "properties": { 
      "IBGE:COD_UNICO_ENDERECO": "27417601;191543630",
      "addr:housenumber": "32",
      "addr:postcode": "48605-726",
      "addr:street": "Rua Mandacaru",
      "addr:suburb": "Centenário",
      "building": "yes"
      },
      "geometry": {
         "type": "Point",
         "coordinates": [-38.2307977,-9.3877725]
      }
    },
    {
      "type": "Feature",
      "properties": { 
      "IBGE:COD_UNICO_ENDERECO": "27371228",
      "addr:housenumber": "40",
      "addr:postcode": "48605-600",
      "addr:street": "Rua 13 de Maio",
      "addr:suburb": "Centenário",
      "building": "yes"
      },
      "geometry": {
         "type": "Point",
         "coordinates": [-38.2287815,-9.3835066]
      }
    },
    {
      "type": "Feature",
      "properties": { 
      "IBGE:COD_UNICO_ENDERECO": "27469104",
      "addr:housenumber": "37",
      "addr:postcode": "48605-465",
      "addr:street": "Rua Santa Maria",
      "addr:suburb": "Centenário",
      "building": "yes"
      },
      "geometry": {
         "type": "Point",
         "coordinates": [-38.2315295,-9.3840256]
      }
    },
    {
      "type": "Feature",
      "properties": { 
      "IBGE:COD_UNICO_ENDERECO": "27469052",
      "addr:housenumber": "166",
      "addr:postcode": "48605-055",
      "addr:street": "Avenida Antônio Carlos Magalhães",
      "addr:suburb": "Centenário",
      "building": "yes"
      },
      "geometry": {
         "type": "Point",
         "coordinates": [-38.2324064,-9.3859222]
      }
    },
    {
      "type": "Feature",
      "properties": { 
      "IBGE:COD_UNICO_ENDERECO": "27421562",
      "addr:housenumber": "3",
      "addr:postcode": "48605-510",
      "addr:street": "Rua Guarani",
      "addr:suburb": "Centenário",
      "building": "yes"
      },
      "geometry": {
         "type": "Point",
         "coordinates": [-38.228297,-9.3825295]
      }
    },
    {
      "type": "Feature",
      "properties": { 
      "IBGE:COD_UNICO_ENDERECO": "27469089",
      "addr:housenumber": "270",
      "addr:postcode": "48605-555",
      "addr:street": "Rua Senhor do Bonfim",
      "addr:suburb": "Centenário",
      "building": "yes"
      },
      "geometry": {
         "type": "Point",
         "coordinates": [-38.2318774,-9.3846229]
      }
    },
    {
      "type": "Feature",
      "properties": { 
      "IBGE:COD_UNICO_ENDERECO": "27307682",
      "addr:housenumber": "10",
      "addr:postcode": "48611-030",
      "addr:street": "Rua Padre Cícero",
      "addr:suburb": "Centenário",
      "building": "yes"
      },
      "geometry": {
         "type": "Point",
         "coordinates": [-38.2315711,-9.3789056]
      }
    },
    {
      "type": "Feature",
      "properties": { 
      "IBGE:COD_UNICO_ENDERECO": "27371451",
      "addr:housenumber": "309",
      "addr:postcode": "48605-465",
      "addr:street": "Rua Santa Maria",
      "addr:suburb": "Centenário",
      "building": "construction"
      },
      "geometry": {
         "type": "Point",
         "coordinates": [-38.2319279,-9.3842222]
      }
    },
    {
      "type": "Feature",
      "properties": { 
      "IBGE:COD_UNICO_ENDERECO": "27468957",
      "addr:housenumber": "2",
      "addr:postcode": "48605-670",
      "addr:street": "Rua Realeza",
      "addr:suburb": "Centenário",
      "building": "yes"
      },
      "geometry": {
         "type": "Point",
         "coordinates": [-38.2305369,-9.3854709]
      }
    },
    {
      "type": "Feature",
      "properties": { 
      "IBGE:COD_UNICO_ENDERECO": "27468952",
      "addr:housenumber": "28",
      "addr:postcode": "48605-670",
      "addr:street": "Rua Realeza",
      "addr:suburb": "Centenário",
      "building": "yes",
      "name": "Padaria Vasconcelos",
      "shop": "bakery"
      },
      "geometry": {
         "type": "Point",
         "coordinates": [-38.230191955834,-9.3853996616562]
      }
    },
    {
      "type": "Feature",
      "properties": { 
      "IBGE:COD_UNICO_ENDERECO": "27371228",
      "addr:housenumber": "40",
      "addr:postcode": "48605-600",
      "addr:street": "Rua 13 de Maio",
      "addr:suburb": "Centenário",
      "building": "yes",
      "name": "Borracharia do Nardo",
      "repair": "yes",
      "shop": "tyres"
      },
      "geometry": {
         "type": "Point",
         "coordinates": [-38.22877379996,-9.3835081613881]
      }
    },
    {
      "type": "Feature",
      "properties": { 
      "IBGE:COD_UNICO_ENDERECO": "27417376",
      "addr:housenumber": "14",
      "addr:postcode": "48605-730",
      "addr:street": "Travessa Bonome",
      "addr:suburb": "Centenário",
      "building": "yes"
      },
      "geometry": {
         "type": "Point",
         "coordinates": [-38.2312652,-9.3874899]
      }
    },
    {
      "type": "Feature",
      "properties": { 
      "IBGE:COD_UNICO_ENDERECO": "27364496",
      "addr:housenumber": "68",
      "addr:postcode": "48605-590",
      "addr:street": "Avenida Boa Esperança",
      "addr:suburb": "Centenário",
      "building": "yes"
      },
      "geometry": {
         "type": "Point",
         "coordinates": [-38.226204,-9.3803395]
      }
    },
    {
      "type": "Feature",
      "properties": { 
      "IBGE:COD_UNICO_ENDERECO": "191542994",
      "addr:housenumber": "15",
      "addr:postcode": "48605-730",
      "addr:street": "Travessa Bonome",
      "addr:suburb": "Centenário",
      "building": "yes"
      },
      "geometry": {
         "type": "Point",
         "coordinates": [-38.2311382,-9.3873979]
      }
    },
    {
      "type": "Feature",
      "properties": { 
      "IBGE:COD_UNICO_ENDERECO": "191758526",
      "addr:housenumber": "5",
      "addr:postcode": "48605-670",
      "addr:street": "Rua Realeza",
      "addr:suburb": "Centenário",
      "addr:unit": "A Fundos",
      "building": "yes"
      },
      "geometry": {
         "type": "Point",
         "coordinates": [-38.2315143,-9.3816129]
      }
    },
    {
      "type": "Feature",
      "properties": { 
      "IBGE:COD_UNICO_ENDERECO": "27421685",
      "addr:housenumber": "1",
      "addr:postcode": "48605-525",
      "addr:street": "Rua Manaus",
      "addr:suburb": "Centenário",
      "building": "yes",
      "fixme": "Verificar coordenadas",
      "note": "Sem face no bayface do IBGE 0500-0149P-9-5"
      },
      "geometry": {
         "type": "Point",
         "coordinates": [-38.226446,-9.380932]
      }
    },
    {
      "type": "Feature",
      "properties": { 
      "IBGE:COD_UNICO_ENDERECO": "27307667",
      "addr:housenumber": "9",
      "addr:postcode": "48605-690",
      "addr:street": "Avenida Rio Branco",
      "addr:suburb": "Centenário",
      "building": "yes",
      "fixme": "Verificar coordenadas",
      "note": "Fora da área de projeção da face 0500-0036P-12-1"
      },
      "geometry": {
         "type": "Point",
         "coordinates": [-38.231838,-9.378101]
      }
    },
    {
      "type": "Feature",
      "properties": { 
      "IBGE:COD_UNICO_ENDERECO": "27469016",
      "addr:housenumber": "140 A",
      "addr:postcode": "48605-475",
      "addr:street": "Rua Lagoa do Abaeté",
      "addr:suburb": "Centenário",
      "building": "yes"
      },
      "geometry": {
         "type": "Point",
         "coordinates": [-38.2319587,-9.3859488]
      }
    },
    {
      "type": "Feature",
      "properties": { 
      "IBGE:COD_UNICO_ENDERECO": "27371307",
      "addr:housenumber": "26",
      "addr:postcode": "48605-670",
      "addr:street": "Rua Realeza",
      "addr:suburb": "Centenário",
      "building": "yes"
      },
      "geometry": {
         "type": "Point",
         "coordinates": [-38.2296407,-9.3846199]
      }
    },
    {
      "type": "Feature",
      "properties": { 
      "IBGE:COD_UNICO_ENDERECO": "27307684",
      "addr:housenumber": "15",
      "addr:postcode": "48611-030",
      "addr:street": "Rua Padre Cícero",
      "addr:suburb": "Centenário",
      "building": "yes"
      },
      "geometry": {
         "type": "Point",
         "coordinates": [-38.2316842,-9.3789844]
      }
    },
    {
      "type": "Feature",
      "properties": { 
      "IBGE:COD_UNICO_ENDERECO": "191758534",
      "addr:housenumber": "1",
      "addr:postcode": "48605-670",
      "addr:street": "Rua Realeza",
      "addr:suburb": "Centenário",
      "addr:unit": "A Fundos",
      "building": "yes"
      },
      "geometry": {
         "type": "Point",
         "coordinates": [-38.231586,-9.3815131]
      }
    },
    {
      "type": "Feature",
      "properties": { 
      "IBGE:COD_UNICO_ENDERECO": "27364436",
      "addr:housenumber": "38 A",
      "addr:postcode": "48605-560",
      "addr:street": "Rua da Liberdade",
      "addr:suburb": "Centenário",
      "building": "yes",
      "name": "Rm Placas"
      },
      "geometry": {
         "type": "Point",
         "coordinates": [-38.2260082,-9.3803055]
      }
    },
    {
      "type": "Feature",
      "properties": { 
      "IBGE:COD_UNICO_ENDERECO": "27371200",
      "addr:housenumber": "181",
      "addr:postcode": "48605-470",
      "addr:street": "Rua Paraíba",
      "addr:suburb": "Centenário",
      "building": "yes"
      },
      "geometry": {
         "type": "Point",
         "coordinates": [-38.231145,-9.3811068]
      }
    },
    {
      "type": "Feature",
      "properties": { 
      "IBGE:COD_UNICO_ENDERECO": "27421346",
      "addr:housenumber": "98",
      "addr:postcode": "48605-768",
      "addr:street": "Rua do Sossego",
      "addr:suburb": "Centenário",
      "building": "yes"
      },
      "geometry": {
         "type": "Point",
         "coordinates": [-38.2264686,-9.386129]
      }
    },
    {
      "type": "Feature",
      "properties": { 
      "IBGE:COD_UNICO_ENDERECO": "217588385",
      "addr:housenumber": "155",
      "addr:postcode": "48605-510",
      "addr:street": "Rua Guarani",
      "addr:suburb": "Centenário",
      "building": "yes"
      },
      "geometry": {
         "type": "Point",
         "coordinates": [-38.2269676,-9.382606]
      }
    },
    {
      "type": "Feature",
      "properties": { 
      "IBGE:COD_UNICO_ENDERECO": "27371182",
      "addr:housenumber": "40",
      "addr:postcode": "48605-610",
      "addr:street": "Rua Amâncio Pereira",
      "addr:suburb": "Centenário",
      "building": "yes"
      },
      "geometry": {
         "type": "Point",
         "coordinates": [-38.2298933,-9.3819812]
      }
    },
    {
      "type": "Feature",
      "properties": { 
      "IBGE:COD_UNICO_ENDERECO": "27417341",
      "addr:housenumber": "52",
      "addr:postcode": "48605-722",
      "addr:street": "Rua Salustiano",
      "addr:suburb": "Centenário",
      "building": "yes"
      },
      "geometry": {
         "type": "Point",
         "coordinates": [-38.2314567,-9.3873571]
      }
    },
    {
      "type": "Feature",
      "properties": { 
      "IBGE:COD_UNICO_ENDERECO": "222563230",
      "addr:housenumber": "98",
      "addr:postcode": "48605-670",
      "addr:street": "Rua Realeza",
      "addr:suburb": "Centenário",
      "building": "yes"
      },
      "geometry": {
         "type": "Point",
         "coordinates": [-38.2305549,-9.3834553]
      }
    },
    {
      "type": "Feature",
      "properties": { 
      "IBGE:COD_UNICO_ENDERECO": "27469043",
      "addr:housenumber": "158",
      "addr:postcode": "48605-055",
      "addr:street": "Avenida Antônio Carlos Magalhães",
      "addr:suburb": "Centenário",
      "building": "yes"
      },
      "geometry": {
         "type": "Point",
         "coordinates": [-38.2324635,-9.3863425]
      }
    },
    {
      "type": "Feature",
      "properties": { 
      "IBGE:COD_UNICO_ENDERECO": "222563433",
      "addr:housenumber": "280",
      "addr:postcode": "48605-555",
      "addr:street": "Rua Senhor do Bonfim",
      "addr:suburb": "Centenário",
      "building": "yes"
      },
      "geometry": {
         "type": "Point",
         "coordinates": [-38.2318062,-9.3845358]
      }
    },
    {
      "type": "Feature",
      "properties": { 
      "IBGE:COD_UNICO_ENDERECO": "27307681",
      "addr:housenumber": "8 A",
      "addr:postcode": "48611-030",
      "addr:street": "Rua Padre Cícero",
      "addr:suburb": "Centenário",
      "building": "yes"
      },
      "geometry": {
         "type": "Point",
         "coordinates": [-38.2315276,-9.3788753]
      }
    },
    {
      "type": "Feature",
      "properties": { 
      "IBGE:COD_UNICO_ENDERECO": "222563651",
      "addr:housenumber": "82",
      "addr:postcode": "48605-465",
      "addr:street": "Travessa Santa Maria",
      "addr:suburb": "Centenário",
      "building": "yes",
      "fixme": "Verificar coordenadas",
      "note": "Sem setor ou quadra no bayface do IBGE 0500-0162P-2-4"
      },
      "geometry": {
         "type": "Point",
         "coordinates": [-38.231195,-9.38401]
      }
    },
    {
      "type": "Feature",
      "properties": { 
      "IBGE:COD_UNICO_ENDERECO": "217806524",
      "addr:housenumber": "8 A",
      "addr:postcode": "48605-610",
      "addr:street": "Rua Amâncio Pereira",
      "addr:suburb": "Centenário",
      "addr:unit": "Prédio",
      "building": "yes"
      },
      "geometry": {
         "type": "Point",
         "coordinates": [-38.2274343,-9.3785511]
      }
    },
    {
      "type": "Feature",
      "properties": { 
      "IBGE:COD_UNICO_ENDERECO": "27307455",
      "addr:housenumber": "4",
      "addr:postcode": "48605-680",
      "addr:street": "Avenida Boa Esperança",
      "addr:suburb": "Centenário",
      "building": "yes"
      },
      "geometry": {
         "type": "Point",
         "coordinates": [-38.2297994,-9.3789338]
      }
    },
    {
      "type": "Feature",
      "properties": { 
      "IBGE:COD_UNICO_ENDERECO": "27307412;217806656",
      "addr:housenumber": "100",
      "addr:postcode": "48605-590",
      "addr:street": "Avenida Botafogo",
      "addr:suburb": "Centenário",
      "building": "yes"
      },
      "geometry": {
         "type": "Point",
         "coordinates": [-38.2279547,-9.3787551]
      }
    },
    {
      "type": "Feature",
      "properties": { 
      "IBGE:COD_UNICO_ENDERECO": "27371465",
      "addr:housenumber": "237",
      "addr:postcode": "48611-102",
      "addr:street": "Rua Senhor do Bonfim",
      "addr:suburb": "Centenário",
      "building": "yes",
      "fixme": "Verificar coordenadas",
      "note": "Sem dados para mover para dentro da quadra 0500-0095P-5-3"
      },
      "geometry": {
         "type": "Point",
         "coordinates": [-38.2324452,-9.3851439]
      }
    },
    {
      "type": "Feature",
      "properties": { 
      "IBGE:COD_UNICO_ENDERECO": "27421341",
      "addr:housenumber": "150",
      "addr:postcode": "48605-760",
      "addr:street": "Travessa Tropical",
      "addr:suburb": "Centenário",
      "building": "yes"
      },
      "geometry": {
         "type": "Point",
         "coordinates": [-38.2266085,-9.3863456]
      }
    },
    {
      "type": "Feature",
      "properties": { 
      "IBGE:COD_UNICO_ENDERECO": "27417290",
      "addr:housenumber": "74",
      "addr:postcode": "48605-195",
      "addr:street": "Rua dos Estudantes",
      "addr:suburb": "Centenário",
      "building": "yes"
      },
      "geometry": {
         "type": "Point",
         "coordinates": [-38.2320972,-9.3885707]
      }
    },
    {
      "type": "Feature",
      "properties": { 
      "IBGE:COD_UNICO_ENDERECO": "27417414",
      "addr:housenumber": "23",
      "addr:postcode": "48605-766",
      "addr:street": "Rua da Amizade",
      "addr:suburb": "Centenário",
      "building": "yes"
      },
      "geometry": {
         "type": "Point",
         "coordinates": [-38.2305286,-9.3865495]
      }
    },
    {
      "type": "Feature",
      "properties": { 
      "IBGE:COD_UNICO_ENDERECO": "27364526",
      "addr:housenumber": "13 Frente",
      "addr:postcode": "48609-476",
      "addr:street": "Rua São João",
      "addr:suburb": "Centenário",
      "building": "yes",
      "fixme": "Verificar coordenadas",
      "note": "Sem face no bayface do IBGE 0500-0069P-3-3"
      },
      "geometry": {
         "type": "Point",
         "coordinates": [-38.22779374592,-9.3804269000032]
      }
    },
    {
      "type": "Feature",
      "properties": { 
      "IBGE:COD_UNICO_ENDERECO": "27371439",
      "addr:housenumber": "365",
      "addr:postcode": "48605-465",
      "addr:street": "Rua Santa Maria",
      "addr:suburb": "Centenário",
      "building": "yes"
      },
      "geometry": {
         "type": "Point",
         "coordinates": [-38.2318707,-9.3837487]
      }
    },
    {
      "type": "Feature",
      "properties": { 
      "IBGE:COD_UNICO_ENDERECO": "27468936",
      "addr:housenumber": "34",
      "addr:postcode": "48605-670",
      "addr:street": "Rua Realeza",
      "addr:suburb": "Centenário",
      "building": "yes"
      },
      "geometry": {
         "type": "Point",
         "coordinates": [-38.2300415,-9.3842341]
      }
    },
    {
      "type": "Feature",
      "properties": { 
      "IBGE:COD_UNICO_ENDERECO": "217807126",
      "addr:housenumber": "9",
      "addr:postcode": "48601-120",
      "addr:street": "Rua da Paz",
      "addr:suburb": "Centenário",
      "building": "yes",
      "fixme": "Verificar coordenadas",
      "note": "Sem dados para mover para dentro da quadra 0500-0036P-8-1"
      },
      "geometry": {
         "type": "Point",
         "coordinates": [-38.2283542,-9.3772234]
      }
    },
    {
      "type": "Feature",
      "properties": { 
      "IBGE:COD_UNICO_ENDERECO": "27417576",
      "addr:housenumber": "36",
      "addr:postcode": "48605-722",
      "addr:street": "Rua Salustiano",
      "addr:suburb": "Centenário",
      "building": "yes"
      },
      "geometry": {
         "type": "Point",
         "coordinates": [-38.231179,-9.3879259]
      }
    },
    {
      "type": "Feature",
      "properties": { 
      "IBGE:COD_UNICO_ENDERECO": "27371338",
      "addr:housenumber": "2",
      "addr:postcode": "48605-470",
      "addr:street": "Rua Paraíba",
      "addr:suburb": "Centenário",
      "building": "yes"
      },
      "geometry": {
         "type": "Point",
         "coordinates": [-38.2317754,-9.3804685]
      }
    },
    {
      "type": "Feature",
      "properties": { 
      "IBGE:COD_UNICO_ENDERECO": "27421624",
      "addr:housenumber": "103",
      "addr:postcode": "48605-520",
      "addr:street": "Rua José Teixeira",
      "addr:suburb": "Centenário",
      "building": "yes"
      },
      "geometry": {
         "type": "Point",
         "coordinates": [-38.2278079,-9.3814322]
      }
    },
    {
      "type": "Feature",
      "properties": { 
      "IBGE:COD_UNICO_ENDERECO": "27421338",
      "addr:housenumber": "51",
      "addr:postcode": "48605-760",
      "addr:street": "Rua Tropical",
      "addr:suburb": "Centenário",
      "building": "yes"
      },
      "geometry": {
         "type": "Point",
         "coordinates": [-38.2266684,-9.3864059]
      }
    },
    {
      "type": "Feature",
      "properties": { 
      "IBGE:COD_UNICO_ENDERECO": "27307575",
      "addr:housenumber": "41",
      "addr:postcode": "48601-120",
      "addr:street": "Rua da Paz",
      "addr:suburb": "Centenário",
      "building": "yes",
      "fixme": "Verificar coordenadas",
      "note": "Sem dados para mover para dentro da quadra 0500-0036P-8-1"
      },
      "geometry": {
         "type": "Point",
         "coordinates": [-38.2287384,-9.3772881]
      }
    },
    {
      "type": "Feature",
      "properties": { 
      "IBGE:COD_UNICO_ENDERECO": "27371381",
      "addr:housenumber": "1 A",
      "addr:postcode": "48605-670",
      "addr:street": "Rua Realeza",
      "addr:suburb": "Centenário",
      "building": "yes"
      },
      "geometry": {
         "type": "Point",
         "coordinates": [-38.2317675,-9.3813534]
      }
    },
    {
      "type": "Feature",
      "properties": { 
      "IBGE:COD_UNICO_ENDERECO": "27417549",
      "addr:housenumber": "23 A",
      "addr:postcode": "48605-724",
      "addr:street": "Rua Caraibeira",
      "addr:suburb": "Centenário",
      "building": "yes"
      },
      "geometry": {
         "type": "Point",
         "coordinates": [-38.2303108,-9.3877758]
      }
    },
    {
      "type": "Feature",
      "properties": { 
      "IBGE:COD_UNICO_ENDERECO": "27469128",
      "addr:housenumber": "128",
      "addr:postcode": "48611-102",
      "addr:street": "Rua Senhor do Bonfim",
      "addr:suburb": "Centenário",
      "building": "construction"
      },
      "geometry": {
         "type": "Point",
         "coordinates": [-38.2316756,-9.3832215]
      }
    },
    {
      "type": "Feature",
      "properties": { 
      "IBGE:COD_UNICO_ENDERECO": "27371115",
      "addr:housenumber": "76",
      "addr:postcode": "48605-470",
      "addr:street": "Avenida Centenário",
      "addr:suburb": "Centenário",
      "building": "yes"
      },
      "geometry": {
         "type": "Point",
         "coordinates": [-38.2313816,-9.3794654]
      }
    },
    {
      "type": "Feature",
      "properties": { 
      "IBGE:COD_UNICO_ENDERECO": "27307532-27307533",
      "addr:housenumber": "44",
      "addr:postcode": "48605-605",
      "addr:street": "Avenida Centenário",
      "addr:suburb": "Centenário",
      "building": "yes"
      },
      "geometry": {
         "type": "Point",
         "coordinates": [-38.2303306,-9.3786968]
      }
    },
    {
      "type": "Feature",
      "properties": { 
      "IBGE:COD_UNICO_ENDERECO": "27371392",
      "addr:housenumber": "110",
      "addr:postcode": "48605-055",
      "addr:street": "Avenida Antônio Carlos Magalhães",
      "addr:suburb": "Centenário",
      "building": "yes"
      },
      "geometry": {
         "type": "Point",
         "coordinates": [-38.2320843,-9.3806832]
      }
    },
    {
      "type": "Feature",
      "properties": { 
      "IBGE:COD_UNICO_ENDERECO": "27371371",
      "addr:housenumber": "36 A",
      "addr:postcode": "48605-610",
      "addr:street": "Rua Amâncio Pereira",
      "addr:suburb": "Centenário",
      "building": "yes"
      },
      "geometry": {
         "type": "Point",
         "coordinates": [-38.2304599,-9.3826345]
      }
    },
    {
      "type": "Feature",
      "properties": { 
      "IBGE:COD_UNICO_ENDERECO": "27421611",
      "addr:housenumber": "20",
      "addr:postcode": "48605-500",
      "addr:street": "Rua São Jorge",
      "addr:suburb": "Centenário",
      "building": "yes"
      },
      "geometry": {
         "type": "Point",
         "coordinates": [-38.2272458,-9.3811645]
      }
    },
    {
      "type": "Feature",
      "properties": { 
      "IBGE:COD_UNICO_ENDERECO": "191395507",
      "addr:housenumber": "33",
      "addr:postcode": "48601-340",
      "addr:street": "Rua São Jorge",
      "addr:suburb": "Centenário",
      "building": "construction",
      "fixme": "Verificar coordenadas",
      "note": "Sem face no bayface do IBGE 0500-0069P-4-3"
      },
      "geometry": {
         "type": "Point",
         "coordinates": [-38.227207,-9.381131]
      }
    },
    {
      "type": "Feature",
      "properties": { 
      "IBGE:COD_UNICO_ENDERECO": "217807598",
      "addr:housenumber": "21 B",
      "addr:postcode": "48611-030",
      "addr:street": "Rua Padre Cícero",
      "addr:suburb": "Centenário",
      "building": "yes"
      },
      "geometry": {
         "type": "Point",
         "coordinates": [-38.2316955,-9.3789923]
      }
    },
    {
      "type": "Feature",
      "properties": { 
      "IBGE:COD_UNICO_ENDERECO": "27364537",
      "addr:housenumber": "17",
      "addr:postcode": "48609-476",
      "addr:street": "Rua São João",
      "addr:suburb": "Centenário",
      "building": "yes",
      "fixme": "Verificar coordenadas",
      "note": "Sem face no bayface do IBGE 0500-0069P-3-3"
      },
      "geometry": {
         "type": "Point",
         "coordinates": [-38.227589,-9.380455]
      }
    },
    {
      "type": "Feature",
      "properties": { 
      "IBGE:COD_UNICO_ENDERECO": "27307646",
      "addr:housenumber": "35",
      "addr:postcode": "48611-030",
      "addr:street": "Rua Padre Cícero",
      "addr:suburb": "Centenário",
      "building": "yes"
      },
      "geometry": {
         "type": "Point",
         "coordinates": [-38.2315563,-9.3790752]
      }
    },
    {
      "type": "Feature",
      "properties": { 
      "IBGE:COD_UNICO_ENDERECO": "27371309",
      "addr:housenumber": "23",
      "addr:postcode": "48605-670",
      "addr:street": "Rua Realeza",
      "addr:suburb": "Centenário",
      "building": "yes"
      },
      "geometry": {
         "type": "Point",
         "coordinates": [-38.2296942,-9.3844713]
      }
    },
    {
      "type": "Feature",
      "properties": { 
      "IBGE:COD_UNICO_ENDERECO": "27371251",
      "addr:housenumber": "34",
      "addr:postcode": "48605-470",
      "addr:street": "Rua Paraíba",
      "addr:suburb": "Centenário",
      "building": "yes"
      },
      "geometry": {
         "type": "Point",
         "coordinates": [-38.2295621,-9.3838403]
      }
    },
    {
      "type": "Feature",
      "properties": { 
      "IBGE:COD_UNICO_ENDERECO": "27417389",
      "addr:housenumber": "81",
      "addr:postcode": "48605-768",
      "addr:street": "Rua do Sossego",
      "addr:suburb": "Centenário",
      "building": "yes"
      },
      "geometry": {
         "type": "Point",
         "coordinates": [-38.2304828,-9.3860997]
      }
    },
    {
      "type": "Feature",
      "properties": { 
      "IBGE:COD_UNICO_ENDERECO": "27417415",
      "addr:housenumber": "210",
      "addr:postcode": "48605-766",
      "addr:street": "Rua da Amizade",
      "addr:suburb": "Centenário",
      "building": "yes"
      },
      "geometry": {
         "type": "Point",
         "coordinates": [-38.2305734,-9.3865876]
      }
    },
    {
      "type": "Feature",
      "properties": { 
      "IBGE:COD_UNICO_ENDERECO": "27417451",
      "addr:housenumber": "34",
      "addr:postcode": "48605-764",
      "addr:street": "Rua da Saudade",
      "addr:suburb": "Centenário",
      "building": "yes"
      },
      "geometry": {
         "type": "Point",
         "coordinates": [-38.229266,-9.3865525]
      }
    },
    {
      "type": "Feature",
      "properties": { 
      "IBGE:COD_UNICO_ENDERECO": "27371205",
      "addr:housenumber": "28",
      "addr:postcode": "48605-540",
      "addr:street": "Rua São Francisco",
      "addr:suburb": "Centenário",
      "building": "yes"
      },
      "geometry": {
         "type": "Point",
         "coordinates": [-38.2296224,-9.3820994]
      }
    },
    {
      "type": "Feature",
      "properties": { 
      "IBGE:COD_UNICO_ENDERECO": "27371321",
      "addr:housenumber": "11 C",
      "addr:postcode": "48605-670",
      "addr:street": "Rua Realeza",
      "addr:suburb": "Centenário",
      "building": "yes"
      },
      "geometry": {
         "type": "Point",
         "coordinates": [-38.2305627,-9.3831809]
      }
    },
    {
      "type": "Feature",
      "properties": { 
      "IBGE:COD_UNICO_ENDERECO": "217588450",
      "addr:housenumber": "50",
      "addr:postcode": "48605-515",
      "addr:street": "Rua Noé Pereira",
      "addr:suburb": "Centenário",
      "building": "yes"
      },
      "geometry": {
         "type": "Point",
         "coordinates": [-38.2266513,-9.3822579]
      }
    },
    {
      "type": "Feature",
      "properties": { 
      "IBGE:COD_UNICO_ENDERECO": "217806482",
      "addr:housenumber": "2 B",
      "addr:postcode": "48605-605",
      "addr:street": "Avenida Centenário",
      "addr:suburb": "Centenário",
      "building": "yes",
      "fixme": "Verificar coordenadas",
      "note": "Sem face no bayface do IBGE 0500-0036P-1-1"
      },
      "geometry": {
         "type": "Point",
         "coordinates": [-38.228085,-9.377475]
      }
    },
    {
      "type": "Feature",
      "properties": { 
      "IBGE:COD_UNICO_ENDERECO": "27364532",
      "addr:housenumber": "31 B",
      "addr:postcode": "48609-476",
      "addr:street": "Rua São João",
      "addr:suburb": "Centenário",
      "building": "yes",
      "fixme": "Verificar coordenadas",
      "note": "Sem face no bayface do IBGE 0500-0069P-3-3"
      },
      "geometry": {
         "type": "Point",
         "coordinates": [-38.22687,-9.380556]
      }
    },
    {
      "type": "Feature",
      "properties": { 
      "IBGE:COD_UNICO_ENDERECO": "27371390",
      "addr:housenumber": "32",
      "addr:postcode": "48605-670",
      "addr:street": "Rua Realeza",
      "addr:suburb": "Centenário",
      "building": "yes"
      },
      "geometry": {
         "type": "Point",
         "coordinates": [-38.2320162,-9.3809397]
      }
    },
    {
      "type": "Feature",
      "properties": { 
      "IBGE:COD_UNICO_ENDERECO": "27364630",
      "addr:housenumber": "17",
      "addr:postcode": "48605-610",
      "addr:street": "Rua Amâncio Pereira",
      "addr:suburb": "Centenário",
      "building": "yes"
      },
      "geometry": {
         "type": "Point",
         "coordinates": [-38.2286708,-9.3804837]
      }
    },
    {
      "type": "Feature",
      "properties": { 
      "IBGE:COD_UNICO_ENDERECO": "27417387",
      "addr:housenumber": "13",
      "addr:postcode": "48605-768",
      "addr:street": "Rua do Sossego",
      "addr:suburb": "Centenário",
      "building": "yes"
      },
      "geometry": {
         "type": "Point",
         "coordinates": [-38.230622,-9.3862082]
      }
    },
    {
      "type": "Feature",
      "properties": { 
      "IBGE:COD_UNICO_ENDERECO": "222563225",
      "addr:housenumber": "53",
      "addr:postcode": "48605-670",
      "addr:street": "Rua Realeza",
      "addr:suburb": "Centenário",
      "building": "yes"
      },
      "geometry": {
         "type": "Point",
         "coordinates": [-38.2311005,-9.3826314]
      }
    },
    {
      "type": "Feature",
      "properties": { 
      "IBGE:COD_UNICO_ENDERECO": "27307601",
      "addr:housenumber": "32",
      "addr:postcode": "48611-038",
      "addr:street": "Rua Santo Antônio",
      "addr:suburb": "Centenário",
      "building": "yes"
      },
      "geometry": {
         "type": "Point",
         "coordinates": [-38.2302342,-9.3798722]
      }
    },
    {
      "type": "Feature",
      "properties": { 
      "IBGE:COD_UNICO_ENDERECO": "27371229",
      "addr:housenumber": "42",
      "addr:postcode": "48605-600",
      "addr:street": "Rua 13 de Maio",
      "addr:suburb": "Centenário",
      "amenity": "place_of_worship",
      "building": "church",
      "denomination": "adventist",
      "name": "Igreja Adventista da Promessa",
      "religion": "christian"
      },
      "geometry": {
         "type": "Point",
         "coordinates": [-38.2287924,-9.3836035]
      }
    },
    {
      "type": "Feature",
      "properties": { 
      "IBGE:COD_UNICO_ENDERECO": "27421488-27421489",
      "addr:housenumber": "22",
      "addr:postcode": "48605-600",
      "addr:street": "Rua 13 de Maio",
      "addr:suburb": "Centenário",
      "building": "yes",
      "fixme": "Verificar coordenadas",
      "note": "Sem face no bayface do IBGE 0500-0149P-1-3"
      },
      "geometry": {
         "type": "Point",
         "coordinates": [-38.228557,-9.3823725]
      }
    },
    {
      "type": "Feature",
      "properties": { 
      "IBGE:COD_UNICO_ENDERECO": "27469137",
      "addr:housenumber": "110",
      "addr:postcode": "48605-555",
      "addr:street": "Rua Senhor do Bonfim",
      "addr:suburb": "Centenário",
      "building": "yes"
      },
      "geometry": {
         "type": "Point",
         "coordinates": [-38.2316498,-9.3832586]
      }
    },
    {
      "type": "Feature",
      "properties": { 
      "IBGE:COD_UNICO_ENDERECO": "217806622",
      "addr:housenumber": "7",
      "addr:postcode": "48601-902",
      "addr:street": "Estrada Dique da Siriema",
      "addr:suburb": "Centenário",
      "building": "yes",
      "fixme": "Verificar coordenadas",
      "note": "Sem dados para mover para dentro da quadra 0500-0036P-1-5"
      },
      "geometry": {
         "type": "Point",
         "coordinates": [-38.2314363,-9.3776685]
      }
    },
    {
      "type": "Feature",
      "properties": { 
      "IBGE:COD_UNICO_ENDERECO": "217807292",
      "addr:housenumber": "48 A",
      "addr:postcode": "48611-038",
      "addr:street": "Rua Santo Antônio",
      "addr:suburb": "Centenário",
      "building": "yes"
      },
      "geometry": {
         "type": "Point",
         "coordinates": [-38.2291971,-9.3810642]
      }
    },
    {
      "type": "Feature",
      "properties": { 
      "IBGE:COD_UNICO_ENDERECO": "27371138",
      "addr:housenumber": "21",
      "addr:postcode": "48605-470",
      "addr:street": "Avenida Centenário",
      "addr:suburb": "Centenário",
      "addr:unit": "Fundos",
      "building": "yes"
      },
      "geometry": {
         "type": "Point",
         "coordinates": [-38.2315491,-9.3796996]
      }
    },
    {
      "type": "Feature",
      "properties": { 
      "IBGE:COD_UNICO_ENDERECO": "27421297",
      "addr:housenumber": "325",
      "addr:postcode": "48605-340",
      "addr:street": "Travessa da Lagoa",
      "addr:suburb": "Centenário",
      "building": "yes"
      },
      "geometry": {
         "type": "Point",
         "coordinates": [-38.2283372,-9.3871453]
      }
    },
    {
      "type": "Feature",
      "properties": { 
      "IBGE:COD_UNICO_ENDERECO": "27417313",
      "addr:housenumber": "3",
      "addr:postcode": "48605-732",
      "addr:street": "Rua Umburana",
      "addr:suburb": "Centenário",
      "building": "yes"
      },
      "geometry": {
         "type": "Point",
         "coordinates": [-38.2317543,-9.3880036]
      }
    },
    {
      "type": "Feature",
      "properties": { 
      "IBGE:COD_UNICO_ENDERECO": "27371395",
      "addr:housenumber": "4",
      "addr:postcode": "48605-055",
      "addr:street": "Avenida Antônio Carlos Magalhães",
      "addr:suburb": "Centenário",
      "building": "yes"
      },
      "geometry": {
         "type": "Point",
         "coordinates": [-38.2320712,-9.380457]
      }
    },
    {
      "type": "Feature",
      "properties": { 
      "IBGE:COD_UNICO_ENDERECO": "27421402",
      "addr:housenumber": "1",
      "addr:postcode": "48605-768",
      "addr:street": "Rua do Sossego",
      "addr:suburb": "Centenário",
      "building": "yes"
      },
      "geometry": {
         "type": "Point",
         "coordinates": [-38.2280065,-9.3863928]
      }
    },
    {
      "type": "Feature",
      "properties": { 
      "IBGE:COD_UNICO_ENDERECO": "27371161",
      "addr:housenumber": "5",
      "addr:postcode": "48605-700",
      "addr:street": "Travessa São Francisco",
      "addr:suburb": "Centenário",
      "building": "yes"
      },
      "geometry": {
         "type": "Point",
         "coordinates": [-38.2313253,-9.3801233]
      }
    },
    {
      "type": "Feature",
      "properties": { 
      "IBGE:COD_UNICO_ENDERECO": "27371313",
      "addr:housenumber": "17 A",
      "addr:postcode": "48605-670",
      "addr:street": "Rua Realeza",
      "addr:suburb": "Centenário",
      "building": "yes"
      },
      "geometry": {
         "type": "Point",
         "coordinates": [-38.2299028,-9.3841479]
      }
    },
    {
      "type": "Feature",
      "properties": { 
      "IBGE:COD_UNICO_ENDERECO": "191719985",
      "addr:housenumber": "68",
      "addr:postcode": "48605-055",
      "addr:street": "Avenida Antônio Carlos Magalhães",
      "addr:suburb": "Centenário",
      "building": "yes",
      "name": "Disk Bico Seco"
      },
      "geometry": {
         "type": "Point",
         "coordinates": [-38.232056807411,-9.3794266951224]
      }
    },
    {
      "type": "Feature",
      "properties": { 
      "IBGE:COD_UNICO_ENDERECO": "27468959",
      "addr:housenumber": "43",
      "addr:postcode": "48605-670",
      "addr:street": "Rua Realeza",
      "addr:suburb": "Centenário",
      "building": "yes"
      },
      "geometry": {
         "type": "Point",
         "coordinates": [-38.2304676,-9.3851801]
      }
    },
    {
      "type": "Feature",
      "properties": { 
      "IBGE:COD_UNICO_ENDERECO": "27421425",
      "addr:housenumber": "140",
      "addr:postcode": "48605-768",
      "addr:street": "Rua do Sossego",
      "addr:suburb": "Centenário",
      "addr:unit": "Casa",
      "building": "yes"
      },
      "geometry": {
         "type": "Point",
         "coordinates": [-38.2270806,-9.3860056]
      }
    },
    {
      "type": "Feature",
      "properties": { 
      "IBGE:COD_UNICO_ENDERECO": "191758180",
      "addr:housenumber": "1 A",
      "addr:postcode": "48605-470",
      "addr:street": "Rua Paraíba",
      "addr:suburb": "Centenário",
      "building": "yes"
      },
      "geometry": {
         "type": "Point",
         "coordinates": [-38.2309917,-9.3813638]
      }
    },
    {
      "type": "Feature",
      "properties": { 
      "IBGE:COD_UNICO_ENDERECO": "27417622",
      "addr:housenumber": "390",
      "addr:postcode": "48605-722",
      "addr:street": "Rua Salustiano",
      "addr:suburb": "Centenário",
      "building": "yes"
      },
      "geometry": {
         "type": "Point",
         "coordinates": [-38.2314413,-9.3876341]
      }
    },
    {
      "type": "Feature",
      "properties": { 
      "IBGE:COD_UNICO_ENDERECO": "27307497",
      "addr:housenumber": "27 A",
      "addr:postcode": "48605-660",
      "addr:street": "Rua Santo Antônio",
      "addr:suburb": "Centenário",
      "building": "yes",
      "description": "CNEFE 2022 Salão de Beleza",
      "shop": "beauty;hairdresser"
      },
      "geometry": {
         "type": "Point",
         "coordinates": [-38.2299879,-9.3797429]
      }
    },
    {
      "type": "Feature",
      "properties": { 
      "IBGE:COD_UNICO_ENDERECO": "27417392",
      "addr:housenumber": "16",
      "addr:postcode": "48605-768",
      "addr:street": "Rua do Sossego",
      "addr:suburb": "Centenário",
      "building": "yes",
      "fixme": "Verificar coordenadas",
      "note": "Fora da área de projeção da face 0500-0132P-4-4"
      },
      "geometry": {
         "type": "Point",
         "coordinates": [-38.230069,-9.385852]
      }
    },
    {
      "type": "Feature",
      "properties": { 
      "IBGE:COD_UNICO_ENDERECO": "27469026",
      "addr:housenumber": "116",
      "addr:postcode": "48605-475",
      "addr:street": "Rua Lagoa do Abaeté",
      "addr:suburb": "Centenário",
      "building": "yes"
      },
      "geometry": {
         "type": "Point",
         "coordinates": [-38.2320937,-9.3857667]
      }
    },
    {
      "type": "Feature",
      "properties": { 
      "IBGE:COD_UNICO_ENDERECO": "27307541",
      "addr:housenumber": "11",
      "addr:postcode": "48611-038",
      "addr:street": "Rua Santo Antônio",
      "addr:suburb": "Centenário",
      "building": "yes"
      },
      "geometry": {
         "type": "Point",
         "coordinates": [-38.2309744,-9.3786249]
      }
    },
    {
      "type": "Feature",
      "properties": { 
      "IBGE:COD_UNICO_ENDERECO": "222563242",
      "addr:housenumber": "18 B",
      "addr:postcode": "48605-670",
      "addr:street": "Rua Realeza",
      "addr:suburb": "Centenário",
      "building": "yes"
      },
      "geometry": {
         "type": "Point",
         "coordinates": [-38.2298478,-9.3848556]
      }
    },
    {
      "type": "Feature",
      "properties": { 
      "IBGE:COD_UNICO_ENDERECO": "27417502",
      "addr:housenumber": "26",
      "addr:postcode": "48605-766",
      "addr:street": "Rua da Amizade",
      "addr:suburb": "Centenário",
      "building": "yes",
      "fixme": "Verificar coordenadas",
      "note": "Muito afastado da face: 42m 0500-0132P-5-2"
      },
      "geometry": {
         "type": "Point",
         "coordinates": [-38.230101,-9.386841]
      }
    },
    {
      "type": "Feature",
      "properties": { 
      "IBGE:COD_UNICO_ENDERECO": "27371282",
      "addr:housenumber": "58",
      "addr:postcode": "48604-760",
      "addr:street": "Rua Paraíba",
      "addr:suburb": "Centenário",
      "building": "yes"
      },
      "geometry": {
         "type": "Point",
         "coordinates": [-38.2297375,-9.3838559]
      }
    },
    {
      "type": "Feature",
      "properties": { 
      "IBGE:COD_UNICO_ENDERECO": "27371289",
      "addr:housenumber": "54",
      "addr:postcode": "48604-760",
      "addr:street": "Rua Paraíba",
      "addr:suburb": "Centenário",
      "building": "yes"
      },
      "geometry": {
         "type": "Point",
         "coordinates": [-38.2298801,-9.3836377]
      }
    },
    {
      "type": "Feature",
      "properties": { 
      "IBGE:COD_UNICO_ENDERECO": "27307550",
      "addr:housenumber": "6",
      "addr:postcode": "48601-120",
      "addr:street": "Rua da Paz",
      "addr:suburb": "Centenário",
      "building": "yes"
      },
      "geometry": {
         "type": "Point",
         "coordinates": [-38.2308531,-9.3779987]
      }
    },
    {
      "type": "Feature",
      "properties": { 
      "IBGE:COD_UNICO_ENDERECO": "27364632",
      "addr:housenumber": "2",
      "addr:postcode": "48605-500",
      "addr:street": "Rua São Jorge",
      "addr:suburb": "Centenário",
      "building": "yes"
      },
      "geometry": {
         "type": "Point",
         "coordinates": [-38.228469,-9.3806951]
      }
    },
    {
      "type": "Feature",
      "properties": { 
      "IBGE:COD_UNICO_ENDERECO": "27417523",
      "addr:housenumber": "38",
      "addr:postcode": "48605-764",
      "addr:street": "Rua da Saudade",
      "addr:suburb": "Centenário",
      "building": "yes"
      },
      "geometry": {
         "type": "Point",
         "coordinates": [-38.2295003,-9.3865209]
      }
    },
    {
      "type": "Feature",
      "properties": { 
      "IBGE:COD_UNICO_ENDERECO": "217588316",
      "addr:housenumber": "135",
      "addr:postcode": "48605-510",
      "addr:street": "Rua Guarani",
      "addr:suburb": "Centenário",
      "building": "yes"
      },
      "geometry": {
         "type": "Point",
         "coordinates": [-38.2276696,-9.3827132]
      }
    },
    {
      "type": "Feature",
      "properties": { 
      "IBGE:COD_UNICO_ENDERECO": "27421610",
      "addr:housenumber": "18",
      "addr:postcode": "48605-500",
      "addr:street": "Rua São Jorge",
      "addr:suburb": "Centenário",
      "building": "yes"
      },
      "geometry": {
         "type": "Point",
         "coordinates": [-38.2273199,-9.3811369]
      }
    },
    {
      "type": "Feature",
      "properties": { 
      "IBGE:COD_UNICO_ENDERECO": "191395338",
      "addr:housenumber": "50 C",
      "addr:postcode": "48605-590",
      "addr:street": "Avenida Boa Esperança",
      "addr:suburb": "Centenário",
      "addr:unit": "Fundos",
      "building": "yes"
      },
      "geometry": {
         "type": "Point",
         "coordinates": [-38.2273418,-9.3799461]
      }
    },
    {
      "type": "Feature",
      "properties": { 
      "IBGE:COD_UNICO_ENDERECO": "191395564",
      "addr:housenumber": "40",
      "addr:postcode": "48605-710",
      "addr:street": "Rua 7 de Setembro",
      "addr:suburb": "Centenário",
      "building": "yes"
      },
      "geometry": {
         "type": "Point",
         "coordinates": [-38.2280655,-9.3810297]
      }
    },
    {
      "type": "Feature",
      "properties": { 
      "IBGE:COD_UNICO_ENDERECO": "222563523",
      "addr:housenumber": "461",
      "addr:postcode": "48605-055",
      "addr:street": "Avenida Antônio Carlos Magalhães",
      "addr:suburb": "Centenário",
      "building": "yes"
      },
      "geometry": {
         "type": "Point",
         "coordinates": [-38.2321753,-9.3821866]
      }
    },
    {
      "type": "Feature",
      "properties": { 
      "IBGE:COD_UNICO_ENDERECO": "27371334",
      "addr:housenumber": "38",
      "addr:postcode": "48605-470",
      "addr:street": "Rua Paraíba",
      "addr:suburb": "Centenário",
      "building": "yes"
      },
      "geometry": {
         "type": "Point",
         "coordinates": [-38.2318,-9.3804284]
      }
    },
    {
      "type": "Feature",
      "properties": { 
      "IBGE:COD_UNICO_ENDERECO": "222563228",
      "addr:housenumber": "77 B",
      "addr:postcode": "48605-670",
      "addr:street": "Rua Realeza",
      "addr:suburb": "Centenário",
      "building": "yes"
      },
      "geometry": {
         "type": "Point",
         "coordinates": [-38.23092,-9.3829207]
      }
    },
    {
      "type": "Feature",
      "properties": { 
      "IBGE:COD_UNICO_ENDERECO": "27307563",
      "addr:housenumber": "3",
      "addr:postcode": "48601-120",
      "addr:street": "Rua da Paz",
      "addr:suburb": "Centenário",
      "building": "yes",
      "fixme": "Verificar coordenadas",
      "note": "Sem dados para mover para dentro da quadra 0500-0036P-8-1"
      },
      "geometry": {
         "type": "Point",
         "coordinates": [-38.2280939,-9.3771994]
      }
    },
    {
      "type": "Feature",
      "properties": { 
      "IBGE:COD_UNICO_ENDERECO": "222563666",
      "addr:housenumber": "77",
      "addr:postcode": "48605-465",
      "addr:street": "Travessa Santa Maria",
      "addr:suburb": "Centenário",
      "building": "yes",
      "fixme": "Verificar coordenadas",
      "note": "Sem setor ou quadra no bayface do IBGE 0500-0162P-2-6"
      },
      "geometry": {
         "type": "Point",
         "coordinates": [-38.231305,-9.383523]
      }
    },
    {
      "type": "Feature",
      "properties": { 
      "IBGE:COD_UNICO_ENDERECO": "27364603",
      "addr:housenumber": "21",
      "addr:postcode": "48601-340",
      "addr:street": "Rua São Jorge",
      "addr:suburb": "Centenário",
      "building": "yes",
      "fixme": "Verificar coordenadas",
      "note": "Sem face no bayface do IBGE 0500-0069P-4-3"
      },
      "geometry": {
         "type": "Point",
         "coordinates": [-38.227671,-9.380879]
      }
    },
    {
      "type": "Feature",
      "properties": { 
      "IBGE:COD_UNICO_ENDERECO": "191542882",
      "addr:housenumber": "1 A",
      "addr:postcode": "48605-722",
      "addr:street": "Rua Salustiano",
      "addr:suburb": "Centenário",
      "building": "yes"
      },
      "geometry": {
         "type": "Point",
         "coordinates": [-38.2319217,-9.3872936]
      }
    },
    {
      "type": "Feature",
      "properties": { 
      "IBGE:COD_UNICO_ENDERECO": "27307644",
      "addr:housenumber": "62",
      "addr:postcode": "48605-605",
      "addr:street": "Avenida Centenário",
      "addr:suburb": "Centenário",
      "building": "yes"
      },
      "geometry": {
         "type": "Point",
         "coordinates": [-38.2315482,-9.3792427]
      }
    },
    {
      "type": "Feature",
      "properties": { 
      "IBGE:COD_UNICO_ENDERECO": "27364653",
      "addr:housenumber": "21",
      "addr:postcode": "48605-610",
      "addr:street": "Rua Amâncio Pereira",
      "addr:suburb": "Centenário",
      "building": "yes"
      },
      "geometry": {
         "type": "Point",
         "coordinates": [-38.2288774,-9.3809598]
      }
    },
    {
      "type": "Feature",
      "properties": { 
      "IBGE:COD_UNICO_ENDERECO": "27468930;27468933",
      "addr:housenumber": "19",
      "addr:postcode": "48605-670",
      "addr:street": "Rua Realeza",
      "addr:suburb": "Centenário",
      "building": "yes"
      },
      "geometry": {
         "type": "Point",
         "coordinates": [-38.2304031,-9.3836744]
      }
    },
    {
      "type": "Feature",
      "properties": { 
      "IBGE:COD_UNICO_ENDERECO": "222563619",
      "addr:housenumber": "86",
      "addr:postcode": "48605-055",
      "addr:street": "Travessa Antônio Carlos Magalhães",
      "addr:suburb": "Centenário",
      "building": "yes",
      "fixme": "Verificar coordenadas",
      "note": "Sem setor ou quadra no bayface do IBGE 0500-0162P-2-2"
      },
      "geometry": {
         "type": "Point",
         "coordinates": [-38.231005,-9.384358]
      }
    },
    {
      "type": "Feature",
      "properties": { 
      "IBGE:COD_UNICO_ENDERECO": "27371346",
      "addr:housenumber": "10 A",
      "addr:postcode": "48605-470",
      "addr:street": "Rua Paraíba",
      "addr:suburb": "Centenário",
      "building": "yes"
      },
      "geometry": {
         "type": "Point",
         "coordinates": [-38.2314227,-9.381031]
      }
    },
    {
      "type": "Feature",
      "properties": { 
      "IBGE:COD_UNICO_ENDERECO": "191542886",
      "addr:housenumber": "12",
      "addr:postcode": "48605-722",
      "addr:street": "Rua Salustiano",
      "addr:suburb": "Centenário",
      "building": "yes"
      },
      "geometry": {
         "type": "Point",
         "coordinates": [-38.2316147,-9.3873568]
      }
    },
    {
      "type": "Feature",
      "properties": { 
      "IBGE:COD_UNICO_ENDERECO": "27417630",
      "addr:housenumber": "39",
      "addr:postcode": "48605-722",
      "addr:street": "Rua Salustiano",
      "addr:suburb": "Centenário",
      "building": "yes"
      },
      "geometry": {
         "type": "Point",
         "coordinates": [-38.2314758,-9.3879131]
      }
    },
    {
      "type": "Feature",
      "properties": { 
      "IBGE:COD_UNICO_ENDERECO": "27469140",
      "addr:housenumber": "84",
      "addr:postcode": "48605-555",
      "addr:street": "Rua Senhor do Bonfim",
      "addr:suburb": "Centenário",
      "building": "yes"
      },
      "geometry": {
         "type": "Point",
         "coordinates": [-38.2316585,-9.3836421]
      }
    },
    {
      "type": "Feature",
      "properties": { 
      "IBGE:COD_UNICO_ENDERECO": "27417386",
      "addr:housenumber": "14",
      "addr:postcode": "48605-768",
      "addr:street": "Rua do Sossego",
      "addr:suburb": "Centenário",
      "building": "yes"
      },
      "geometry": {
         "type": "Point",
         "coordinates": [-38.2307879,-9.3863376]
      }
    },
    {
      "type": "Feature",
      "properties": { 
      "IBGE:COD_UNICO_ENDERECO": "27417353",
      "addr:housenumber": "3 A",
      "addr:postcode": "48604-782",
      "addr:street": "Rua Baraúna",
      "addr:suburb": "Centenário",
      "building": "yes"
      },
      "geometry": {
         "type": "Point",
         "coordinates": [-38.2315209,-9.3869298]
      }
    },
    {
      "type": "Feature",
      "properties": { 
      "IBGE:COD_UNICO_ENDERECO": "27364616",
      "addr:housenumber": "10",
      "addr:postcode": "48605-480",
      "addr:street": "Rua São João",
      "addr:suburb": "Centenário",
      "building": "yes"
      },
      "geometry": {
         "type": "Point",
         "coordinates": [-38.2278877,-9.3804739]
      }
    },
    {
      "type": "Feature",
      "properties": { 
      "IBGE:COD_UNICO_ENDERECO": "191758454",
      "addr:housenumber": "34",
      "addr:postcode": "48605-470",
      "addr:street": "Rua Paraíba",
      "addr:suburb": "Centenário",
      "description": "CNEFE 2022 Vago",
      "disused": "yes",
      "disused:building": "yes"
      },
      "geometry": {
         "type": "Point",
         "coordinates": [-38.2305364,-9.3825096]
      }
    },
    {
      "type": "Feature",
      "properties": { 
      "IBGE:COD_UNICO_ENDERECO": "27307674",
      "addr:housenumber": "8",
      "addr:postcode": "48611-038",
      "addr:street": "Rua Santo Antônio",
      "addr:suburb": "Centenário",
      "building": "yes"
      },
      "geometry": {
         "type": "Point",
         "coordinates": [-38.2312655,-9.3784335]
      }
    },
    {
      "type": "Feature",
      "properties": { 
      "IBGE:COD_UNICO_ENDERECO": "27469076",
      "addr:housenumber": "238 D",
      "addr:postcode": "48605-055",
      "addr:street": "Avenida Antônio Carlos Magalhães",
      "addr:suburb": "Centenário",
      "building": "yes"
      },
      "geometry": {
         "type": "Point",
         "coordinates": [-38.2323256,-9.3853251]
      }
    },
    {
      "type": "Feature",
      "properties": { 
      "IBGE:COD_UNICO_ENDERECO": "27468962",
      "addr:housenumber": "106",
      "addr:postcode": "48605-670",
      "addr:street": "Rua Realeza",
      "addr:suburb": "Centenário",
      "building": "yes"
      },
      "geometry": {
         "type": "Point",
         "coordinates": [-38.2304276,-9.3850126]
      }
    },
    {
      "type": "Feature",
      "properties": { 
      "IBGE:COD_UNICO_ENDERECO": "27417364",
      "addr:housenumber": "4",
      "addr:postcode": "48604-782",
      "addr:street": "Rua Baraúna",
      "addr:suburb": "Centenário",
      "building": "yes"
      },
      "geometry": {
         "type": "Point",
         "coordinates": [-38.2309001,-9.3873136]
      }
    },